Input,Time,Latitude,Longitude,Pitch,Yaw,Roll,Stonex_status
SMAR,2023-05-03 15:10:38.644,46.08986,11.1156117,-3.5,5.85,-0.78,null
SMAR,2023-05-03 15:10:38.689,46.08986,11.1156117,-3.46,5.67,-0.78,null
STON,2023-05-03 15:10:38.689,46.089836565,11.115564928333333,-2.554474,56.559795,-2.079252,2
SMAR,2023-05-03 15:10:38.726,46.08986,11.1156117,-3.43,5.48,-0.78,null
SMAR,2023-05-03 15:10:38.757,46.08986,11.1156117,-3.41,5.28,-0.77,null
STON,2023-05-03 15:10:38.757,46.089836565,11.115564928333333,-2.402085,56.556019,-2.054665,2
SMAR,2023-05-03 15:10:38.794,46.08986,11.1156117,-3.38,5.17,-0.78,null
SMAR,2023-05-03 15:10:38.827,46.08986,11.1156117,-3.32,5.24,-0.79,null
SMAR,2023-05-03 15:10:38.856,46.08986,11.1156117,-3.28,5.53,-0.82,null
STON,2023-05-03 15:10:38.856,46.089836551666664,11.115564858333334,-2.402085,56.556019,-2.054665,2
SMAR,2023-05-03 15:10:38.889,46.08986,11.1156117,-3.21,5.78,-0.84,null
SMAR,2023-05-03 15:10:38.938,46.08986,11.1156117,-3.17,5.92,-0.84,null
SMAR,2023-05-03 15:10:38.962,46.08986,11.1156117,-3.14,5.95,-0.84,null
STON,2023-05-03 15:10:38.962,46.089836551666664,11.115564858333334,-2.215933,55.976501,-2.070491,2
SMAR,2023-05-03 15:10:39.002,46.08986,11.1156117,-3.08,5.84,-0.82,null
SMAR,2023-05-03 15:10:39.02,46.08986,11.1156117,-3.07,5.7,-0.82,null
SMAR,2023-05-03 15:10:39.056,46.08986,11.1156117,-3.03,5.58,-0.82,null
STON,2023-05-03 15:10:39.056,46.0898365,11.115564773333332,-2.215933,55.976501,-2.070491,2
SMAR,2023-05-03 15:10:39.089,46.08986,11.1156117,-2.99,5.57,-0.81,null
SMAR,2023-05-03 15:10:39.121,46.08986,11.1156117,-2.95,5.52,-0.79,null
STON,2023-05-03 15:10:39.121,46.0898365,11.115564773333332,-1.959043,56.413994,-2.095081,2
SMAR,2023-05-03 15:10:39.153,46.08986,11.1156117,-2.94,5.44,-0.76,null
SMAR,2023-05-03 15:10:39.187,46.08986,11.1156117,-2.92,5.31,-0.74,null
SMAR,2023-05-03 15:10:39.224,46.08986,11.1156117,-2.92,5.25,-0.73,null
STON,2023-05-03 15:10:39.224,46.089836498333334,11.115564725,-1.959043,56.413994,-2.095081,2
SMAR,2023-05-03 15:10:39.259,46.08986,11.1156117,-2.92,5.33,-0.74,null
SMAR,2023-05-03 15:10:39.286,46.08986,11.1156117,-2.91,5.51,-0.74,null
SMAR,2023-05-03 15:10:39.324,46.08986,11.1156117,-2.9,5.84,-0.74,null
SMAR,2023-05-03 15:10:39.357,46.08986,11.1156117,-2.85,6.08,-0.73,null
STON,2023-05-03 15:10:39.357,46.089836498333334,11.115564725,-1.808587,55.974346,-2.027942,2
SMAR,2023-05-03 15:10:39.389,46.08986,11.1156117,-2.84,6.1,-0.72,null
SMAR,2023-05-03 15:10:39.424,46.08986,11.1156117,-2.84,5.92,-0.71,null
STON,2023-05-03 15:10:39.424,46.08983646833333,11.115564713333333,-1.808587,55.974346,-2.027942,2
SMAR,2023-05-03 15:10:39.451,46.08986,11.1156117,-2.81,5.75,-0.69,null
SMAR,2023-05-03 15:10:39.484,46.08986,11.1156117,-2.79,5.65,-0.66,null
SMAR,2023-05-03 15:10:39.518,46.08986,11.1156117,-2.74,5.73,-0.66,null
SMAR,2023-05-03 15:10:39.553,46.08986,11.1156117,-2.67,5.92,-0.67,null
STON,2023-05-03 15:10:39.553,46.08983646833333,11.115564713333333,-1.695374,56.682983,-2.006997,2
SMAR,2023-05-03 15:10:39.583,46.08986,11.1156117,-2.61,6.11,-0.67,null
SMAR,2023-05-03 15:10:39.617,46.08986,11.1156117,-2.54,6.28,-0.68,null
SMAR,2023-05-03 15:10:39.653,46.08986,11.1156117,-2.47,6.41,-0.69,null
SMAR,2023-05-03 15:10:39.685,46.08986,11.1156117,-2.4,6.48,-0.68,null
SMAR,2023-05-03 15:10:39.718,46.08986,11.1156117,-2.34,6.52,-0.68,null
STON,2023-05-03 15:10:39.718,46.08983642,11.11556462,-1.695374,56.682983,-2.006997,2
STON,2023-05-03 15:10:39.718,46.08983642,11.11556462,-1.389483,57.046749,-1.987547,2
SMAR,2023-05-03 15:10:39.752,46.08986,11.1156117,-2.27,6.51,-0.69,null
SMAR,2023-05-03 15:10:39.784,46.08986,11.1156117,-2.21,6.45,-0.71,null
SMAR,2023-05-03 15:10:39.819,46.08986,11.1156117,-2.17,6.57,-0.75,null
STON,2023-05-03 15:10:39.819,46.08983639,11.115564461666667,-1.389483,57.046749,-1.987547,2
SMAR,2023-05-03 15:10:39.849,46.08986,11.1156117,-2.08,6.67,-0.8,null
SMAR,2023-05-03 15:10:39.886,46.08986,11.1156117,-2.05,6.69,-0.83,null
SMAR,2023-05-03 15:10:39.919,46.08986,11.1156117,-2.0,6.53,-0.85,null
STON,2023-05-03 15:10:39.919,46.08983639,11.115564461666667,-1.008204,57.343876,-2.068226,2
SMAR,2023-05-03 15:10:39.954,46.08986,11.1156117,-1.99,6.16,-0.88,null
SMAR,2023-05-03 15:10:40.001,46.08986,11.1156117,-2.01,5.82,-0.86,null
SMAR,2023-05-03 15:10:40.021,46.08986,11.1156117,-2.0,5.68,-0.86,null
SMAR,2023-05-03 15:10:40.052,46.08986,11.1156117,-2.07,5.71,-0.87,null
SMAR,2023-05-03 15:10:40.088,46.08986,11.1156117,-2.17,5.82,-0.87,null
STON,2023-05-03 15:10:40.088,46.08983641,11.115564395,-1.008204,57.343876,-2.068226,2
SMAR,2023-05-03 15:10:40.117,46.08986,11.1156117,-2.37,5.82,-0.79,null
SMAR,2023-05-03 15:10:40.152,46.08986,11.1156117,-2.65,5.16,-0.66,null
SMAR,2023-05-03 15:10:40.191,46.08986,11.1156117,-3.13,3.81,-0.52,null
SMAR,2023-05-03 15:10:40.22,46.08986,11.1156117,-4.04,2.38,-0.24,null
SMAR,2023-05-03 15:10:40.254,46.08986,11.1156117,-4.89,1.37,0.09,null
STON,2023-05-03 15:10:40.254,46.089836575,11.11556513,-1.008204,57.343876,-2.068226,2
SMAR,2023-05-03 15:10:40.285,46.08986,11.1156117,-5.84,1.86,0.36,null
SMAR,2023-05-03 15:10:40.32,46.08986,11.1156117,-6.78,3.36,0.53,null
SMAR,2023-05-03 15:10:40.353,46.08986,11.1156117,-7.9,5.19,0.63,null
STON,2023-05-03 15:10:40.353,46.089836575,11.11556513,-2.849147,53.285946,-1.635626,2
SMAR,2023-05-03 15:10:40.386,46.08986,11.1156117,-9.13,6.54,0.74,null
SMAR,2023-05-03 15:10:40.418,46.08986,11.1156117,-10.61,7.19,0.99,null
SMAR,2023-05-03 15:10:40.453,46.08986,11.1156117,-12.28,6.9,1.4,null
STON,2023-05-03 15:10:40.453,46.08983729333333,11.115567813333334,-2.849147,53.285946,-1.635626,2
SMAR,2023-05-03 15:10:40.486,46.08986,11.1156117,-13.99,5.96,1.98,null
SMAR,2023-05-03 15:10:40.519,46.08986,11.1156117,-15.87,5.49,2.61,null
SMAR,2023-05-03 15:10:40.55,46.08986,11.1156117,-18.02,6.4,2.87,null
SMAR,2023-05-03 15:10:40.594,46.08986,11.1156117,-20.27,8.28,2.65,null
SMAR,2023-05-03 15:10:40.626,46.08986,11.1156117,-22.84,10.37,2.26,null
SMAR,2023-05-03 15:10:40.659,46.08986,11.1156117,-25.42,11.94,1.78,null
SMAR,2023-05-03 15:10:40.692,46.08986,11.1156117,-28.1,12.66,1.56,null
STON,2023-05-03 15:10:40.692,46.08983848166667,11.115572405,-2.849147,53.285946,-1.635626,2
STON,2023-05-03 15:10:40.692,46.08983848166667,11.115572405,-21.603167,60.012421,1.292879,2
SMAR,2023-05-03 15:10:40.725,46.08986,11.1156117,-31.0,12.69,1.59,null
SMAR,2023-05-03 15:10:40.757,46.08986,11.1156117,-33.79,12.93,1.48,null
SMAR,2023-05-03 15:10:40.791,46.08986,11.1156117,-36.36,13.99,0.87,null
SMAR,2023-05-03 15:10:40.824,46.08986,11.1156117,-38.74,15.2,-0.03,null
STON,2023-05-03 15:10:40.824,46.08984013,11.115577608333334,-21.603167,60.012421,1.292879,2
SMAR,2023-05-03 15:10:40.861,46.08986,11.1156117,-41.19,15.77,-0.37,null
SMAR,2023-05-03 15:10:40.89,46.08986,11.1156117,-43.35,15.55,-0.11,null
SMAR,2023-05-03 15:10:40.925,46.08986,11.1156117,-45.23,15.13,0.25,null
STON,2023-05-03 15:10:40.925,46.08984013,11.115577608333334,-37.666683,65.639603,-0.935074,2
SMAR,2023-05-03 15:10:40.953,46.08986,11.1156117,-46.93,15.19,0.42,null
SMAR,2023-05-03 15:10:40.99,46.08986,11.1156117,-48.47,15.24,0.46,null
SMAR,2023-05-03 15:10:41.022,46.08986,11.1156117,-49.94,15.75,0.02,null
STON,2023-05-03 15:10:41.022,46.089840985,11.11558073,-37.666683,65.639603,-0.935074,2
SMAR,2023-05-03 15:10:41.06,46.08986,11.1156117,-51.2,16.68,-1.12,null
SMAR,2023-05-03 15:10:41.088,46.08986,11.1156117,-52.32,17.31,-1.82,null
STON,2023-05-03 15:10:41.088,46.089840985,11.11558073,-48.912708,65.962074,-0.65563,16
SMAR,2023-05-03 15:10:41.122,46.08986,11.1156117,-53.43,17.49,-1.89,null
SMAR,2023-05-03 15:10:41.155,46.08986,11.1156117,-54.37,17.31,-1.72,null
SMAR,2023-05-03 15:10:41.188,46.08986,11.1156117,-55.25,17.24,-1.52,null
SMAR,2023-05-03 15:10:41.222,46.08986,11.1156117,-56.04,17.47,-1.84,null
SMAR,2023-05-03 15:10:41.255,46.08986,11.1156117,-56.71,17.8,-2.36,null
STON,2023-05-03 15:10:41.255,46.08984126166666,11.115582245,-48.912708,65.962074,-0.65563,16
SMAR,2023-05-03 15:10:41.288,46.08986,11.1156117,-57.25,18.15,-2.87,null
SMAR,2023-05-03 15:10:41.321,46.08986,11.1156117,-57.67,18.46,-3.49,null
SMAR,2023-05-03 15:10:41.355,46.08986,11.1156117,-57.87,18.73,-3.82,null
SMAR,2023-05-03 15:10:41.392,46.08986,11.1156117,-57.78,18.75,-3.71,null
SMAR,2023-05-03 15:10:41.423,46.08986,11.1156117,-57.5,18.44,-3.12,null
SMAR,2023-05-03 15:10:41.46,46.08986,11.1156117,-57.04,18.24,-2.72,null
SMAR,2023-05-03 15:10:41.491,46.08986,11.1156117,-56.41,18.45,-3.1,null
SMAR,2023-05-03 15:10:41.525,46.08986,11.1156117,-55.56,19.04,-3.89,null
SMAR,2023-05-03 15:10:41.557,46.08986,11.1156117,-54.48,19.74,-4.79,null
SMAR,2023-05-03 15:10:41.591,46.08986,11.1156117,-53.15,20.23,-5.24,null
SMAR,2023-05-03 15:10:41.624,46.08986,11.1156117,-51.51,20.43,-5.31,null
SMAR,2023-05-03 15:10:41.66,46.08986,11.1156117,-49.8,20.11,-4.83,null
STON,2023-05-03 15:10:41.66,46.08984126166666,11.115582245,-55.05238,70.19664,-3.733599,16
SMAR,2023-05-03 15:10:41.687,46.08986,11.1156117,-47.9,19.97,-4.43,null
SMAR,2023-05-03 15:10:41.722,46.08986,11.1156117,-45.7,20.05,-4.47,null
STON,2023-05-03 15:10:41.722,46.089841435,11.115582533333333,-55.05238,70.19664,-3.733599,16
SMAR,2023-05-03 15:10:41.759,46.08986,11.1156117,-43.47,20.05,-4.4,null
STON,2023-05-03 15:10:41.759,46.089841435,11.115582533333333,-56.658619,73.448936,-6.386019,16
STON,2023-05-03 15:10:41.759,46.08984109833333,11.115581408333334,-56.658619,73.448936,-6.386019,16
SMAR,2023-05-03 15:10:41.789,46.08986,11.1156117,-41.07,19.96,-4.09,null
STON,2023-05-03 15:10:41.789,46.08984109833333,11.115581408333334,-50.725548,77.214355,-9.129787,16
SMAR,2023-05-03 15:10:41.826,46.08986,11.1156117,-38.58,18.92,-3.15,null
SMAR,2023-05-03 15:10:41.867,46.08986,11.1156117,-35.97,17.86,-2.27,null
SMAR,2023-05-03 15:10:41.892,46.08986,11.1156117,-33.19,17.19,-1.77,null
SMAR,2023-05-03 15:10:41.922,46.08986,11.1156117,-30.36,16.77,-1.51,null
SMAR,2023-05-03 15:10:41.952,46.08986,11.1156117,-27.52,16.99,-1.56,null
STON,2023-05-03 15:10:41.952,46.089840243333335,11.115577681666666,-50.725548,77.214355,-9.129787,16
SMAR,2023-05-03 15:10:41.987,46.08986,11.1156117,-24.7,16.62,-1.16,null
STON,2023-05-03 15:10:41.987,46.089840243333335,11.115577681666666,-38.033928,72.143684,-5.155753,16
SMAR,2023-05-03 15:10:42.031,46.08986,11.1156117,-22.0,15.23,-0.36,null
SMAR,2023-05-03 15:10:42.057,46.08986,11.1156117,-19.42,13.64,0.32,null
STON,2023-05-03 15:10:42.057,46.08983866,11.115572028333334,-38.033928,72.143684,-5.155753,16
SMAR,2023-05-03 15:10:42.089,46.08986,11.1156117,-17.16,12.31,0.78,null
SMAR,2023-05-03 15:10:42.128,46.08986,11.1156117,-15.27,11.85,0.81,null
SMAR,2023-05-03 15:10:42.161,46.08986,11.1156117,-13.71,12.33,0.6,null
SMAR,2023-05-03 15:10:42.196,46.08986,11.1156117,-12.4,13.19,0.35,null
SMAR,2023-05-03 15:10:42.225,46.08986,11.1156117,-11.22,13.63,0.24,null
STON,2023-05-03 15:10:42.225,46.08983866,11.115572028333334,-21.544432,66.328972,-1.71509,16
STON,2023-05-03 15:10:42.225,46.08983714833333,11.115568171666666,-21.544432,66.328972,-1.71509,16
SMAR,2023-05-03 15:10:42.259,46.08986,11.1156117,-10.31,13.23,0.27,null
SMAR,2023-05-03 15:10:42.301,46.08986,11.1156117,-9.46,12.62,0.37,null
SMAR,2023-05-03 15:10:42.326,46.08986,11.1156117,-8.55,12.08,0.51,null
SMAR,2023-05-03 15:10:42.36,46.08986,11.1156117,-7.95,11.75,0.63,null
SMAR,2023-05-03 15:10:42.392,46.08986,11.1156117,-7.39,11.77,0.63,null
STON,2023-05-03 15:10:42.392,46.08983714833333,11.115568171666666,-10.529345,64.179909,-1.049342,16
SMAR,2023-05-03 15:10:42.43,46.08986,11.1156117,-6.84,12.03,0.57,null
SMAR,2023-05-03 15:10:42.461,46.08986,11.1156117,-6.42,12.12,0.51,null
STON,2023-05-03 15:10:42.461,46.08983656,11.11556657,-10.529345,64.179909,-1.049342,16
SMAR,2023-05-03 15:10:42.501,46.08986,11.1156117,-5.97,11.93,0.52,null
SMAR,2023-05-03 15:10:42.527,46.08986,11.1156117,-5.67,11.34,0.55,null
SMAR,2023-05-03 15:10:42.569,46.08986,11.1156117,-5.46,10.42,0.54,null
STON,2023-05-03 15:10:42.569,46.08983656,11.11556657,-6.033541,62.515221,-0.733792,16
SMAR,2023-05-03 15:10:42.593,46.08986,11.1156117,-5.25,9.68,0.58,null
SMAR,2023-05-03 15:10:42.628,46.08986,11.1156117,-5.07,9.12,0.6,null
SMAR,2023-05-03 15:10:42.66,46.08986,11.1156117,-4.92,8.86,0.61,null
SMAR,2023-05-03 15:10:42.694,46.08986,11.1156117,-4.75,9.09,0.66,null
STON,2023-05-03 15:10:42.694,46.089836355,11.115565858333333,-6.033541,62.515221,-0.733792,16
SMAR,2023-05-03 15:10:42.728,46.08986,11.1156117,-4.64,9.76,0.68,null
STON,2023-05-03 15:10:42.728,46.089836355,11.115565858333333,-4.258384,59.780769,-0.718011,16
SMAR,2023-05-03 15:10:42.761,46.08986,11.1156117,-4.55,10.81,0.62,null
SMAR,2023-05-03 15:10:42.794,46.08986,11.1156117,-4.4,11.9,0.62,null
SMAR,2023-05-03 15:10:42.829,46.08986,11.1156117,-4.32,12.4,0.63,null
SMAR,2023-05-03 15:10:42.863,46.08986,11.1156117,-4.28,12.48,0.63,null
STON,2023-05-03 15:10:42.863,46.089836176666665,11.11556563,-4.258384,59.780769,-0.718011,16
SMAR,2023-05-03 15:10:42.893,46.08986,11.1156117,-4.1,12.69,0.65,null
SMAR,2023-05-03 15:10:42.93,46.08986,11.1156117,-3.86,13.62,0.52,null
STON,2023-05-03 15:10:42.93,46.089836176666665,11.11556563,-3.540522,62.850452,-0.635934,16
SMAR,2023-05-03 15:10:42.961,46.08986,11.1156117,-3.43,15.45,0.39,null
SMAR,2023-05-03 15:10:42.992,46.08986,11.1156117,-2.77,18.19,0.17,null
SMAR,2023-05-03 15:10:43.028,46.08986,11.1156117,-1.99,21.57,-0.06,null
STON,2023-05-03 15:10:43.028,46.08983597833333,11.11556486,-3.540522,62.850452,-0.635934,16
SMAR,2023-05-03 15:10:43.061,46.08986,11.1156117,-1.01,25.54,-0.18,null
SMAR,2023-05-03 15:10:43.092,46.08986,11.1156117,0.3,29.67,-0.19,null
SMAR,2023-05-03 15:10:43.129,46.08986,11.1156117,1.71,33.43,0.02,null
STON,2023-05-03 15:10:43.129,46.08983597833333,11.11556486,-1.462766,71.24926,-1.262513,16
SMAR,2023-05-03 15:10:43.16,46.08986,11.1156117,3.26,36.2,0.38,null
SMAR,2023-05-03 15:10:43.196,46.08986,11.1156117,4.78,37.82,0.87,null
SMAR,2023-05-03 15:10:43.229,46.08986,11.1156117,6.51,37.71,1.19,null
SMAR,2023-05-03 15:10:43.262,46.08986,11.1156117,8.21,36.46,1.48,null
STON,2023-05-03 15:10:43.262,46.08983575,11.115561713333333,-1.462766,71.24926,-1.262513,16
SMAR,2023-05-03 15:10:43.293,46.08986,11.1156117,10.19,33.93,1.49,null
SMAR,2023-05-03 15:10:43.329,46.08986,11.1156117,12.18,31.01,1.29,null
SMAR,2023-05-03 15:10:43.361,46.08986,11.1156117,14.45,27.99,0.86,null
STON,2023-05-03 15:10:43.361,46.08983575,11.115561713333333,6.740869,88.474213,-0.103333,16
SMAR,2023-05-03 15:10:43.391,46.08986,11.1156117,16.77,25.37,0.31,null
SMAR,2023-05-03 15:10:43.428,46.08986,11.1156117,19.47,23.31,-0.34,null
STON,2023-05-03 15:10:43.428,46.08983473166667,11.115556801666667,6.740869,88.474213,-0.103333,16
SMAR,2023-05-03 15:10:43.463,46.08986,11.1156117,22.19,22.12,-0.73,null
SMAR,2023-05-03 15:10:43.495,46.08986,11.1156117,24.98,21.17,-1.14,null
SMAR,2023-05-03 15:10:43.531,46.08986,11.1156117,27.93,20.62,-1.49,null
STON,2023-05-03 15:10:43.531,46.08983473166667,11.115556801666667,19.435747,74.367928,-1.509834,16
SMAR,2023-05-03 15:10:43.566,46.08986,11.1156117,30.94,19.81,-1.93,null
SMAR,2023-05-03 15:10:43.596,46.08986,11.1156117,33.8,18.5,-2.87,null
SMAR,2023-05-03 15:10:43.63,46.08986,11.1156117,36.6,17.07,-3.94,null
SMAR,2023-05-03 15:10:43.668,46.08986,11.1156117,39.38,15.61,-5.1,null
SMAR,2023-05-03 15:10:43.693,46.08986,11.1156117,42.0,14.36,-6.37,null
SMAR,2023-05-03 15:10:43.734,46.08986,11.1156117,44.38,13.14,-7.63,null
STON,2023-05-03 15:10:43.734,46.089833335,11.115550726666667,19.435747,74.367928,-1.509834,16
STON,2023-05-03 15:10:43.734,46.089833335,11.115550726666667,36.414707,65.573128,-5.922996,16
SMAR,2023-05-03 15:10:43.763,46.08986,11.1156117,46.76,12.21,-8.77,null
SMAR,2023-05-03 15:10:43.792,46.08986,11.1156117,48.86,11.64,-9.59,null
SMAR,2023-05-03 15:10:43.829,46.08986,11.1156117,50.89,11.05,-10.32,null
STON,2023-05-03 15:10:43.829,46.08983177166667,11.115546608333334,36.414707,65.573128,-5.922996,16
SMAR,2023-05-03 15:10:43.868,46.08986,11.1156117,52.72,10.79,-10.84,null
SMAR,2023-05-03 15:10:43.896,46.08986,11.1156117,54.27,10.43,-11.32,null
SMAR,2023-05-03 15:10:43.933,46.08986,11.1156117,55.55,9.96,-11.95,null
STON,2023-05-03 15:10:43.933,46.08983177166667,11.115546608333334,50.134842,49.638233,-17.428324,16
SMAR,2023-05-03 15:10:43.965,46.08986,11.1156117,56.52,9.84,-12.07,null
SMAR,2023-05-03 15:10:43.995,46.08986,11.1156117,57.3,10.0,-11.66,null
SMAR,2023-05-03 15:10:44.029,46.08986,11.1156117,58.01,10.46,-10.85,null
STON,2023-05-03 15:10:44.029,46.08983073833333,11.115545241666666,50.134842,49.638233,-17.428324,16
SMAR,2023-05-03 15:10:44.063,46.08986,11.1156117,58.53,11.0,-9.91,null
SMAR,2023-05-03 15:10:44.098,46.08986,11.1156117,58.91,11.15,-9.56,null
SMAR,2023-05-03 15:10:44.131,46.08986,11.1156117,59.0,10.99,-9.79,null
STON,2023-05-03 15:10:44.131,46.08983073833333,11.115545241666666,57.036533,43.220448,-22.449512,24
SMAR,2023-05-03 15:10:44.163,46.08986,11.1156117,59.01,10.63,-10.26,null
SMAR,2023-05-03 15:10:44.201,46.08986,11.1156117,58.97,10.56,-10.42,null
STON,2023-05-03 15:10:44.201,46.0898307,11.11554529,57.036533,43.220448,-22.449512,24
SMAR,2023-05-03 15:10:44.233,46.08986,11.1156117,58.85,10.8,-9.93,null
SMAR,2023-05-03 15:10:44.266,46.08986,11.1156117,58.53,11.08,-9.36,null
SMAR,2023-05-03 15:10:44.3,46.08986,11.1156117,57.91,11.34,-8.85,null
STON,2023-05-03 15:10:44.3,46.0898307,11.11554529,58.268456,44.457497,-21.18384,24
SMAR,2023-05-03 15:10:44.33,46.08986,11.1156117,57.12,11.5,-8.32,null
SMAR,2023-05-03 15:10:44.363,46.08986,11.1156117,56.07,11.44,-8.24,null
SMAR,2023-05-03 15:10:44.398,46.08986,11.1156117,54.73,11.2,-8.43,null
SMAR,2023-05-03 15:10:44.433,46.08986,11.1156117,53.09,10.79,-8.64,null
SMAR,2023-05-03 15:10:44.465,46.08986,11.1156117,51.23,10.57,-8.52,null
STON,2023-05-03 15:10:44.465,46.08983116,11.115546206666666,58.268456,44.457497,-21.18384,24
SMAR,2023-05-03 15:10:44.497,46.08986,11.1156117,49.4,10.23,-8.53,null
SMAR,2023-05-03 15:10:44.532,46.08986,11.1156117,47.14,9.65,-8.78,null
STON,2023-05-03 15:10:44.532,46.08983116,11.115546206666666,53.742023,49.737041,-16.090557,16
SMAR,2023-05-03 15:10:44.564,46.08986,11.1156117,44.73,9.31,-8.63,null
SMAR,2023-05-03 15:10:44.596,46.08986,11.1156117,42.54,9.11,-8.41,null
SMAR,2023-05-03 15:10:44.63,46.08986,11.1156117,40.19,9.47,-7.75,null
SMAR,2023-05-03 15:10:44.662,46.08986,11.1156117,37.86,10.05,-6.73,null
SMAR,2023-05-03 15:10:44.696,46.08986,11.1156117,35.37,10.04,-6.32,null
STON,2023-05-03 15:10:44.696,46.08983205,11.115549165,53.742023,49.737041,-16.090557,16
SMAR,2023-05-03 15:10:44.727,46.08986,11.1156117,32.64,10.05,-5.92,null
SMAR,2023-05-03 15:10:44.761,46.08986,11.1156117,30.14,10.09,-5.23,null
STON,2023-05-03 15:10:44.761,46.08983205,11.115549165,41.449715,52.719315,-12.262824,16
SMAR,2023-05-03 15:10:44.8,46.08986,11.1156117,27.6,10.35,-4.65,null
SMAR,2023-05-03 15:10:44.829,46.08986,11.1156117,25.13,10.7,-4.0,null
SMAR,2023-05-03 15:10:44.861,46.08986,11.1156117,22.79,10.69,-3.39,null
STON,2023-05-03 15:10:44.861,46.08983353333333,11.11555411,41.449715,52.719315,-12.262824,16
SMAR,2023-05-03 15:10:44.898,46.08986,11.1156117,20.28,10.5,-3.07,null
SMAR,2023-05-03 15:10:44.933,46.08986,11.1156117,18.16,10.65,-2.55,null
STON,2023-05-03 15:10:44.933,46.08983353333333,11.11555411,26.790831,59.09692,-6.154542,16
SMAR,2023-05-03 15:10:44.964,46.08986,11.1156117,16.18,11.68,-1.75,null
SMAR,2023-05-03 15:10:44.999,46.08986,11.1156117,14.3,12.88,-1.01,null
SMAR,2023-05-03 15:10:45.031,46.08986,11.1156117,12.67,14.06,-0.42,null
SMAR,2023-05-03 15:10:45.066,46.08986,11.1156117,11.2,15.16,0.0,null
SMAR,2023-05-03 15:10:45.098,46.08986,11.1156117,9.86,15.76,0.27,null
STON,2023-05-03 15:10:45.098,46.08983459833333,11.115559071666667,26.790831,59.09692,-6.154542,16
SMAR,2023-05-03 15:10:45.13,46.08986,11.1156117,8.71,15.86,0.33,null
STON,2023-05-03 15:10:45.13,46.08983459833333,11.115559071666667,14.225379,63.910526,-1.979675,16
SMAR,2023-05-03 15:10:45.167,46.08986,11.1156117,7.68,15.72,0.29,null
SMAR,2023-05-03 15:10:45.197,46.08986,11.1156117,6.82,14.98,0.24,null
SMAR,2023-05-03 15:10:45.233,46.08986,11.1156117,5.91,14.02,0.16,null
SMAR,2023-05-03 15:10:45.268,46.08986,11.1156117,5.18,12.87,0.07,null
STON,2023-05-03 15:10:45.268,46.089835215,11.115561813333333,14.225379,63.910526,-1.979675,16
SMAR,2023-05-03 15:10:45.301,46.08986,11.1156117,4.6,11.54,0.13,null
SMAR,2023-05-03 15:10:45.334,46.08986,11.1156117,4.08,10.55,0.11,null
STON,2023-05-03 15:10:45.334,46.089835215,11.115561813333333,7.180647,64.9216,-1.127201,16
SMAR,2023-05-03 15:10:45.368,46.08986,11.1156117,3.71,10.08,0.13,null
SMAR,2023-05-03 15:10:45.401,46.08986,11.1156117,3.51,10.51,0.28,null
SMAR,2023-05-03 15:10:45.432,46.08986,11.1156117,3.47,11.63,0.36,null
STON,2023-05-03 15:10:45.432,46.08983550333333,11.115562981666667,7.180647,64.9216,-1.127201,16
SMAR,2023-05-03 15:10:45.468,46.08986,11.1156117,3.43,12.94,0.48,null
SMAR,2023-05-03 15:10:45.5,46.08986,11.1156117,3.45,13.81,0.54,null
SMAR,2023-05-03 15:10:45.534,46.08986,11.1156117,3.47,14.13,0.56,null
STON,2023-05-03 15:10:45.534,46.08983550333333,11.115562981666667,4.343172,61.554161,-1.005425,16
SMAR,2023-05-03 15:10:45.572,46.08986,11.1156117,3.48,13.94,0.56,null
SMAR,2023-05-03 15:10:45.602,46.08986,11.1156117,3.48,13.46,0.5,null
SMAR,2023-05-03 15:10:45.632,46.08986,11.1156117,3.46,12.81,0.44,null
SMAR,2023-05-03 15:10:45.666,46.08986,11.1156117,3.36,12.22,0.28,null
SMAR,2023-05-03 15:10:45.697,46.08986,11.1156117,3.16,11.85,0.24,null
STON,2023-05-03 15:10:45.697,46.08983550833333,11.11556295,4.343172,61.554161,-1.005425,16
SMAR,2023-05-03 15:10:45.732,46.08986,11.1156117,2.8,11.42,0.46,null
SMAR,2023-05-03 15:10:45.766,46.08986,11.1156117,2.15,11.08,0.44,null
SMAR,2023-05-03 15:10:45.8,46.08986,11.1156117,1.35,10.93,0.38,null
SMAR,2023-05-03 15:10:45.833,46.08986,11.1156117,0.26,10.94,0.4,null
STON,2023-05-03 15:10:45.833,46.08983550833333,11.11556295,4.371563,63.689804,-0.844518,16
STON,2023-05-03 15:10:45.833,46.08983588,11.11556398,4.371563,63.689804,-0.844518,16
SMAR,2023-05-03 15:10:45.871,46.08986,11.1156117,-1.06,11.06,0.27,null
SMAR,2023-05-03 15:10:45.9,46.08986,11.1156117,-2.52,10.99,0.04,null
SMAR,2023-05-03 15:10:45.935,46.08986,11.1156117,-4.27,10.86,-0.12,null
SMAR,2023-05-03 15:10:45.968,46.08986,11.1156117,-6.15,10.04,-0.12,null
STON,2023-05-03 15:10:45.968,46.08983588,11.11556398,1.680038,61.499535,-0.936936,16
SMAR,2023-05-03 15:10:46.005,46.08986,11.1156117,-8.32,8.01,0.05,null
SMAR,2023-05-03 15:10:46.038,46.08986,11.1156117,-10.71,6.95,0.39,null
SMAR,2023-05-03 15:10:46.071,46.08986,11.1156117,-12.85,6.54,0.61,null
STON,2023-05-03 15:10:46.071,46.08983742833333,11.115567596666667,1.680038,61.499535,-0.936936,16
SMAR,2023-05-03 15:10:46.104,46.08986,11.1156117,-15.49,7.22,0.6,null
SMAR,2023-05-03 15:10:46.143,46.08986,11.1156117,-17.89,7.22,0.92,null
SMAR,2023-05-03 15:10:46.171,46.08986,11.1156117,-20.62,7.21,1.15,null
SMAR,2023-05-03 15:10:46.206,46.08986,11.1156117,-23.23,7.04,1.42,null
SMAR,2023-05-03 15:10:46.236,46.08986,11.1156117,-25.76,7.62,1.4,null
SMAR,2023-05-03 15:10:46.271,46.08986,11.1156117,-28.29,9.91,0.45,null
SMAR,2023-05-03 15:10:46.303,46.08986,11.1156117,-30.28,12.18,-0.67,null
STON,2023-05-03 15:10:46.303,46.08983931833333,11.115572708333334,1.680038,61.499535,-0.936936,16
SMAR,2023-05-03 15:10:46.336,46.08986,11.1156117,-32.65,13.92,-1.61,null
STON,2023-05-03 15:10:46.336,46.08983931833333,11.115572708333334,-23.651749,56.821739,0.416463,16
SMAR,2023-05-03 15:10:46.368,46.08986,11.1156117,-34.83,13.83,-1.58,null
SMAR,2023-05-03 15:10:46.408,46.08986,11.1156117,-37.19,13.65,-1.39,null
SMAR,2023-05-03 15:10:46.437,46.08986,11.1156117,-39.24,13.71,-1.34,null
SMAR,2023-05-03 15:10:46.471,46.08986,11.1156117,-41.45,14.14,-1.57,null
STON,2023-05-03 15:10:46.471,46.089840715,11.115577248333333,-23.651749,56.821739,0.416463,16
SMAR,2023-05-03 15:10:46.505,46.08986,11.1156117,-43.63,14.24,-1.52,null
SMAR,2023-05-03 15:10:46.537,46.08986,11.1156117,-46.04,14.31,-1.48,null
SMAR,2023-05-03 15:10:46.573,46.08986,11.1156117,-48.28,15.31,-2.41,null
SMAR,2023-05-03 15:10:46.603,46.08986,11.1156117,-50.32,16.92,-4.35,null
STON,2023-05-03 15:10:46.603,46.089840715,11.115577248333333,-37.475044,65.066895,-2.785355,16
SMAR,2023-05-03 15:10:46.634,46.08986,11.1156117,-52.09,18.41,-6.34,null
SMAR,2023-05-03 15:10:46.668,46.08986,11.1156117,-53.89,19.07,-7.53,null
SMAR,2023-05-03 15:10:46.702,46.08986,11.1156117,-55.57,19.03,-7.92,null
STON,2023-05-03 15:10:46.702,46.089841695,11.115580963333333,-37.475044,65.066895,-2.785355,16
STON,2023-05-03 15:10:46.702,46.089841695,11.115580963333333,-50.144371,74.422951,-9.29964,16
SMAR,2023-05-03 15:10:46.734,46.08986,11.1156117,-56.92,18.76,-7.91,null
SMAR,2023-05-03 15:10:46.769,46.08986,11.1156117,-58.02,18.37,-7.56,null
SMAR,2023-05-03 15:10:46.803,46.08986,11.1156117,-58.77,18.28,-7.51,null
SMAR,2023-05-03 15:10:46.837,46.08986,11.1156117,-59.42,18.12,-7.24,null
SMAR,2023-05-03 15:10:46.875,46.08986,11.1156117,-60.03,17.88,-6.72,null
SMAR,2023-05-03 15:10:46.907,46.08986,11.1156117,-60.32,17.85,-6.91,null
SMAR,2023-05-03 15:10:46.942,46.08986,11.1156117,-60.47,18.26,-7.42,null
SMAR,2023-05-03 15:10:46.974,46.08986,11.1156117,-60.44,18.62,-7.97,null
SMAR,2023-05-03 15:10:47.009,46.08986,11.1156117,-60.24,18.8,-8.17,null
SMAR,2023-05-03 15:10:47.036,46.08986,11.1156117,-59.88,18.87,-7.97,null
SMAR,2023-05-03 15:10:47.073,46.08986,11.1156117,-59.33,18.71,-7.62,null
SMAR,2023-05-03 15:10:47.103,46.08986,11.1156117,-58.58,18.54,-7.29,null
SMAR,2023-05-03 15:10:47.138,46.08986,11.1156117,-57.63,18.6,-7.25,null
SMAR,2023-05-03 15:10:47.174,46.08986,11.1156117,-56.41,18.85,-7.42,null
SMAR,2023-05-03 15:10:47.209,46.08986,11.1156117,-55.01,19.24,-7.6,null
STON,2023-05-03 15:10:47.209,46.08984213666667,11.11558266,-50.144371,74.422951,-9.29964,16
STON,2023-05-03 15:10:47.209,46.08984213666667,11.11558266,-57.586411,80.489273,-14.976614,16
STON,2023-05-03 15:10:47.209,46.08984204666667,11.11558283,-57.586411,80.489273,-14.976614,16
STON,2023-05-03 15:10:47.209,46.08984204666667,11.11558283,-58.358555,82.731499,-16.663994,24
SMAR,2023-05-03 15:10:47.242,46.08986,11.1156117,-53.44,19.63,-7.87,null
STON,2023-05-03 15:10:47.242,46.089841713333335,11.115581701666667,-58.358555,82.731499,-16.663994,24
SMAR,2023-05-03 15:10:47.272,46.08986,11.1156117,-51.77,19.71,-7.57,null
SMAR,2023-05-03 15:10:47.308,46.08986,11.1156117,-49.94,19.54,-7.1,null
SMAR,2023-05-03 15:10:47.341,46.08986,11.1156117,-48.01,19.24,-6.63,null
SMAR,2023-05-03 15:10:47.372,46.08986,11.1156117,-45.95,19.26,-6.27,null
STON,2023-05-03 15:10:47.372,46.089841713333335,11.115581701666667,-52.782116,80.347252,-14.037413,16
SMAR,2023-05-03 15:10:47.404,46.08986,11.1156117,-43.71,19.2,-6.13,null
SMAR,2023-05-03 15:10:47.437,46.08986,11.1156117,-41.36,19.21,-5.98,null
STON,2023-05-03 15:10:47.437,46.08984082166667,11.115578528333334,-52.782116,80.347252,-14.037413,16
SMAR,2023-05-03 15:10:47.47,46.08986,11.1156117,-38.89,19.59,-5.91,null
SMAR,2023-05-03 15:10:47.508,46.08986,11.1156117,-36.48,18.63,-5.05,null
SMAR,2023-05-03 15:10:47.539,46.08986,11.1156117,-34.17,16.28,-3.19,null
SMAR,2023-05-03 15:10:47.571,46.08986,11.1156117,-31.98,14.26,-1.87,null
SMAR,2023-05-03 15:10:47.603,46.08986,11.1156117,-29.74,14.3,-2.0,null
STON,2023-05-03 15:10:47.603,46.08984082166667,11.115578528333334,-41.436897,75.116425,-9.372428,16
SMAR,2023-05-03 15:10:47.636,46.08986,11.1156117,-27.14,17.17,-3.25,null
SMAR,2023-05-03 15:10:47.669,46.08986,11.1156117,-24.6,20.37,-4.35,null
SMAR,2023-05-03 15:10:47.705,46.08986,11.1156117,-22.55,22.04,-4.63,null
SMAR,2023-05-03 15:10:47.741,46.08986,11.1156117,-20.8,21.77,-4.07,null
SMAR,2023-05-03 15:10:47.776,46.08986,11.1156117,-19.1,20.7,-3.25,null
SMAR,2023-05-03 15:10:47.807,46.08986,11.1156117,-17.38,20.51,-2.76,null
STON,2023-05-03 15:10:47.807,46.08983946833333,11.115574136666666,-41.436897,75.116425,-9.372428,16
SMAR,2023-05-03 15:10:47.838,46.08986,11.1156117,-15.51,21.38,-2.57,null
STON,2023-05-03 15:10:47.838,46.08983946833333,11.115574136666666,-27.697529,67.361382,-4.248625,16
SMAR,2023-05-03 15:10:47.872,46.08986,11.1156117,-13.6,22.96,-2.53,null
SMAR,2023-05-03 15:10:47.908,46.08986,11.1156117,-11.87,24.34,-2.43,null
SMAR,2023-05-03 15:10:47.944,46.08986,11.1156117,-10.27,24.99,-2.15,null
STON,2023-05-03 15:10:47.944,46.089837773333336,11.115570138333334,-27.697529,67.361382,-4.248625,16
STON,2023-05-03 15:10:47.944,46.089837773333336,11.115570138333334,-15.561547,72.223732,-4.171989,16
SMAR,2023-05-03 15:10:47.973,46.08986,11.1156117,-8.8,25.06,-1.78,null
SMAR,2023-05-03 15:10:48.01,46.08986,11.1156117,-7.46,24.43,-1.41,null
SMAR,2023-05-03 15:10:48.046,46.08986,11.1156117,-6.31,24.0,-1.09,null
SMAR,2023-05-03 15:10:48.071,46.08986,11.1156117,-5.17,23.67,-0.79,null
STON,2023-05-03 15:10:48.071,46.089836473333335,11.115566681666667,-15.561547,72.223732,-4.171989,16
SMAR,2023-05-03 15:10:48.104,46.08986,11.1156117,-4.33,23.32,-0.61,null
SMAR,2023-05-03 15:10:48.145,46.08986,11.1156117,-3.58,22.79,-0.27,null
SMAR,2023-05-03 15:10:48.181,46.08986,11.1156117,-2.98,21.76,0.03,null
STON,2023-05-03 15:10:48.181,46.089836473333335,11.115566681666667,-5.906743,74.976273,-2.713305,16
SMAR,2023-05-03 15:10:48.21,46.08986,11.1156117,-2.54,19.98,0.23,null
SMAR,2023-05-03 15:10:48.238,46.08986,11.1156117,-2.15,17.82,0.5,null
SMAR,2023-05-03 15:10:48.275,46.08986,11.1156117,-1.86,16.28,0.71,null
STON,2023-05-03 15:10:48.275,46.08983574,11.115564946666666,-5.906743,74.976273,-2.713305,16
SMAR,2023-05-03 15:10:48.305,46.08986,11.1156117,-1.64,15.6,0.79,null
SMAR,2023-05-03 15:10:48.339,46.08986,11.1156117,-1.33,15.88,0.92,null
STON,2023-05-03 15:10:48.339,46.08983574,11.115564946666666,-1.258295,69.730225,-1.162749,16
SMAR,2023-05-03 15:10:48.373,46.08986,11.1156117,-1.25,16.82,1.04,null
SMAR,2023-05-03 15:10:48.409,46.08986,11.1156117,-1.03,18.04,1.11,null
SMAR,2023-05-03 15:10:48.438,46.08986,11.1156117,-0.83,19.45,1.1,null
SMAR,2023-05-03 15:10:48.475,46.08986,11.1156117,-0.54,20.82,1.2,null
SMAR,2023-05-03 15:10:48.509,46.08986,11.1156117,0.02,22.24,1.3,null
STON,2023-05-03 15:10:48.509,46.08983533166667,11.115564508333334,-1.258295,69.730225,-1.162749,16
SMAR,2023-05-03 15:10:48.542,46.08986,11.1156117,0.6,23.61,1.44,null
SMAR,2023-05-03 15:10:48.58,46.08986,11.1156117,1.31,24.81,1.62,null
STON,2023-05-03 15:10:48.58,46.08983533166667,11.115564508333334,0.287207,69.20092,-0.345951,16
SMAR,2023-05-03 15:10:48.621,46.08986,11.1156117,2.11,26.15,1.8,null
SMAR,2023-05-03 15:10:48.652,46.08986,11.1156117,3.09,27.64,2.05,null
SMAR,2023-05-03 15:10:48.678,46.08986,11.1156117,4.17,29.23,2.36,null
SMAR,2023-05-03 15:10:48.708,46.08986,11.1156117,5.46,30.59,2.71,null
SMAR,2023-05-03 15:10:48.741,46.08986,11.1156117,6.79,31.44,3.12,null
SMAR,2023-05-03 15:10:48.779,46.08986,11.1156117,8.28,31.54,3.48,null
STON,2023-05-03 15:10:48.779,46.08983494,11.115563115,0.287207,69.20092,-0.345951,16
SMAR,2023-05-03 15:10:48.813,46.08986,11.1156117,9.86,30.88,3.78,null
STON,2023-05-03 15:10:48.813,46.08983494,11.115563115,3.60323,77.366287,0.573197,16
SMAR,2023-05-03 15:10:48.842,46.08986,11.1156117,11.55,29.7,3.91,null
SMAR,2023-05-03 15:10:48.877,46.08986,11.1156117,13.41,28.62,4.01,null
STON,2023-05-03 15:10:48.877,46.08983411333333,11.115559966666666,3.60323,77.366287,0.573197,16
SMAR,2023-05-03 15:10:48.914,46.08986,11.1156117,15.39,27.82,4.18,null
SMAR,2023-05-03 15:10:48.945,46.08986,11.1156117,17.5,27.41,4.31,null
SMAR,2023-05-03 15:10:48.977,46.08986,11.1156117,19.83,27.21,4.55,null
STON,2023-05-03 15:10:48.977,46.08983411333333,11.115559966666666,11.565902,81.86113,2.640219,16
SMAR,2023-05-03 15:10:49.007,46.08986,11.1156117,22.19,26.75,4.65,null
SMAR,2023-05-03 15:10:49.04,46.08986,11.1156117,24.44,25.89,4.61,null
SMAR,2023-05-03 15:10:49.078,46.08986,11.1156117,26.88,24.91,4.36,null
SMAR,2023-05-03 15:10:49.11,46.08986,11.1156117,29.38,24.05,4.09,null
SMAR,2023-05-03 15:10:49.139,46.08986,11.1156117,31.81,23.33,3.88,null
STON,2023-05-03 15:10:49.139,46.08983306166667,11.115555393333333,11.565902,81.86113,2.640219,16
STON,2023-05-03 15:10:49.139,46.08983306166667,11.115555393333333,23.961031,79.19075,3.699775,16
SMAR,2023-05-03 15:10:49.181,46.08986,11.1156117,34.23,22.6,3.6,null
SMAR,2023-05-03 15:10:49.215,46.08986,11.1156117,36.6,21.47,3.04,null
SMAR,2023-05-03 15:10:49.251,46.08986,11.1156117,38.94,20.01,2.09,null
SMAR,2023-05-03 15:10:49.281,46.08986,11.1156117,41.17,18.93,1.28,null
STON,2023-05-03 15:10:49.281,46.089831915,11.115550505,23.961031,79.19075,3.699775,16
SMAR,2023-05-03 15:10:49.314,46.08986,11.1156117,43.29,18.34,0.81,null
SMAR,2023-05-03 15:10:49.345,46.08986,11.1156117,45.35,18.13,0.61,null
SMAR,2023-05-03 15:10:49.376,46.08986,11.1156117,47.31,18.26,0.8,null
STON,2023-05-03 15:10:49.376,46.089831915,11.115550505,38.45504,73.8908,2.079384,16
SMAR,2023-05-03 15:10:49.409,46.08986,11.1156117,49.18,18.3,0.89,null
SMAR,2023-05-03 15:10:49.444,46.08986,11.1156117,50.9,18.1,0.68,null
STON,2023-05-03 15:10:49.444,46.089830945,11.11554712,38.45504,73.8908,2.079384,16
SMAR,2023-05-03 15:10:49.484,46.08986,11.1156117,52.44,17.59,0.17,null
SMAR,2023-05-03 15:10:49.511,46.08986,11.1156117,53.91,17.07,-0.41,null
SMAR,2023-05-03 15:10:49.547,46.08986,11.1156117,55.25,16.98,-0.44,null
SMAR,2023-05-03 15:10:49.585,46.08986,11.1156117,56.64,17.01,-0.2,null
STON,2023-05-03 15:10:49.585,46.089830945,11.11554712,50.981075,69.816147,-0.292491,16
SMAR,2023-05-03 15:10:49.62,46.08986,11.1156117,57.86,17.24,0.22,null
SMAR,2023-05-03 15:10:49.645,46.08986,11.1156117,58.91,17.55,0.92,null
SMAR,2023-05-03 15:10:49.68,46.08986,11.1156117,59.92,17.53,1.14,null
SMAR,2023-05-03 15:10:49.71,46.08986,11.1156117,60.76,17.23,0.73,null
STON,2023-05-03 15:10:49.71,46.089830355,11.115545311666667,50.981075,69.816147,-0.292491,16
SMAR,2023-05-03 15:10:49.744,46.08986,11.1156117,61.4,16.64,-0.14,null
SMAR,2023-05-03 15:10:49.778,46.08986,11.1156117,61.88,16.19,-0.91,null
SMAR,2023-05-03 15:10:49.815,46.08986,11.1156117,62.22,15.97,-1.32,null
SMAR,2023-05-03 15:10:49.846,46.08986,11.1156117,62.4,15.87,-1.44,null
STON,2023-05-03 15:10:49.846,46.089830355,11.115545311666667,59.523682,68.297562,-1.024014,16
STON,2023-05-03 15:10:49.846,46.089830165,11.115544996666667,59.523682,68.297562,-1.024014,16
SMAR,2023-05-03 15:10:49.882,46.08986,11.1156117,62.3,16.03,-1.26,null
SMAR,2023-05-03 15:10:49.914,46.08986,11.1156117,62.02,16.11,-1.1,null
SMAR,2023-05-03 15:10:49.951,46.08986,11.1156117,61.55,16.2,-1.12,null
SMAR,2023-05-03 15:10:49.977,46.08986,11.1156117,60.93,16.44,-0.82,null
SMAR,2023-05-03 15:10:50.009,46.08986,11.1156117,60.21,16.51,-0.74,null
STON,2023-05-03 15:10:50.009,46.089830165,11.115544996666667,63.648956,63.361698,-4.971299,28
SMAR,2023-05-03 15:10:50.042,46.08986,11.1156117,59.22,16.64,-0.68,null
SMAR,2023-05-03 15:10:50.079,46.08986,11.1156117,58.12,16.73,-0.49,null
SMAR,2023-05-03 15:10:50.121,46.08986,11.1156117,56.9,16.61,-0.85,null
STON,2023-05-03 15:10:50.121,46.089830258333336,11.115545036666667,63.648956,63.361698,-4.971299,28
SMAR,2023-05-03 15:10:50.145,46.08986,11.1156117,55.46,16.65,-0.99,null
STON,2023-05-03 15:10:50.145,46.089830258333336,11.115545036666667,61.41391,65.363754,-3.419969,28
SMAR,2023-05-03 15:10:50.177,46.08986,11.1156117,53.95,17.01,-0.58,null
SMAR,2023-05-03 15:10:50.212,46.08986,11.1156117,52.46,17.47,-0.28,null
SMAR,2023-05-03 15:10:50.239,46.08986,11.1156117,50.77,18.14,0.3,null
STON,2023-05-03 15:10:50.239,46.089831036666666,11.11554692,61.41391,65.363754,-3.419969,28
SMAR,2023-05-03 15:10:50.278,46.08986,11.1156117,49.09,19.0,0.88,null
SMAR,2023-05-03 15:10:50.308,46.08986,11.1156117,47.28,19.27,0.74,null
SMAR,2023-05-03 15:10:50.346,46.08986,11.1156117,45.14,19.55,0.66,null
SMAR,2023-05-03 15:10:50.378,46.08986,11.1156117,43.21,20.11,0.82,null
STON,2023-05-03 15:10:50.378,46.089831036666666,11.11554692,53.538765,67.626244,-2.038479,20
SMAR,2023-05-03 15:10:50.411,46.08986,11.1156117,41.35,20.26,0.99,null
SMAR,2023-05-03 15:10:50.437,46.08986,11.1156117,39.2,20.36,0.56,null
STON,2023-05-03 15:10:50.437,46.08983211,11.115549816666666,53.538765,67.626244,-2.038479,20
SMAR,2023-05-03 15:10:50.477,46.08986,11.1156117,37.12,20.19,0.45,null
SMAR,2023-05-03 15:10:50.507,46.08986,11.1156117,34.96,20.19,0.41,null
SMAR,2023-05-03 15:10:50.544,46.08986,11.1156117,32.65,20.18,0.29,null
SMAR,2023-05-03 15:10:50.578,46.08986,11.1156117,30.38,20.26,0.66,null
STON,2023-05-03 15:10:50.578,46.08983211,11.115549816666666,42.358528,71.149864,-0.486007,20
SMAR,2023-05-03 15:10:50.608,46.08986,11.1156117,28.11,20.32,0.72,null
SMAR,2023-05-03 15:10:50.645,46.08986,11.1156117,25.9,19.84,0.7,null
SMAR,2023-05-03 15:10:50.681,46.08986,11.1156117,23.69,18.88,0.57,null
SMAR,2023-05-03 15:10:50.709,46.08986,11.1156117,21.53,17.56,0.22,null
SMAR,2023-05-03 15:10:50.746,46.08986,11.1156117,19.5,16.37,0.13,null
STON,2023-05-03 15:10:50.746,46.08983321,11.115554025,42.358528,71.149864,-0.486007,20
STON,2023-05-03 15:10:50.746,46.08983321,11.115554025,29.115177,70.694557,-0.907808,20
SMAR,2023-05-03 15:10:50.779,46.08986,11.1156117,17.63,15.84,0.23,null
SMAR,2023-05-03 15:10:50.812,46.08986,11.1156117,15.95,15.81,0.47,null
SMAR,2023-05-03 15:10:50.845,46.08986,11.1156117,14.41,16.21,0.78,null
SMAR,2023-05-03 15:10:50.886,46.08986,11.1156117,13.0,16.68,1.02,null
SMAR,2023-05-03 15:10:50.915,46.08986,11.1156117,11.69,17.08,1.18,null
SMAR,2023-05-03 15:10:50.948,46.08986,11.1156117,10.55,17.51,1.28,null
STON,2023-05-03 15:10:50.948,46.08983385333333,11.115558478333334,29.115177,70.694557,-0.907808,20
STON,2023-05-03 15:10:50.948,46.08983385333333,11.115558478333334,17.004934,66.027435,-1.159591,20
SMAR,2023-05-03 15:10:50.98,46.08986,11.1156117,9.58,17.91,1.35,null
SMAR,2023-05-03 15:10:51.014,46.08986,11.1156117,8.73,18.26,1.38,null
SMAR,2023-05-03 15:10:51.048,46.08986,11.1156117,7.99,18.36,1.32,null
STON,2023-05-03 15:10:51.048,46.089834528333334,11.115561238333333,17.004934,66.027435,-1.159591,20
SMAR,2023-05-03 15:10:51.081,46.08986,11.1156117,7.3,18.25,1.28,null
SMAR,2023-05-03 15:10:51.115,46.08986,11.1156117,6.71,18.14,1.24,null
SMAR,2023-05-03 15:10:51.147,46.08986,11.1156117,6.2,18.19,1.2,null
SMAR,2023-05-03 15:10:51.181,46.08986,11.1156117,5.7,18.47,1.23,null
STON,2023-05-03 15:10:51.181,46.089834528333334,11.115561238333333,9.985069,68.510841,-0.249064,20
SMAR,2023-05-03 15:10:51.217,46.08986,11.1156117,5.31,18.95,1.23,null
SMAR,2023-05-03 15:10:51.248,46.08986,11.1156117,4.98,19.3,1.23,null
SMAR,2023-05-03 15:10:51.282,46.08986,11.1156117,4.43,19.06,1.33,null
SMAR,2023-05-03 15:10:51.314,46.08986,11.1156117,3.92,18.32,1.34,null
SMAR,2023-05-03 15:10:51.35,46.08986,11.1156117,3.64,18.0,0.95,null
STON,2023-05-03 15:10:51.35,46.08983489333333,11.115562465,9.985069,68.510841,-0.249064,20
SMAR,2023-05-03 15:10:51.38,46.08986,11.1156117,3.18,19.33,1.03,null
STON,2023-05-03 15:10:51.38,46.08983489333333,11.115562465,6.670927,69.109909,-0.386086,20
SMAR,2023-05-03 15:10:51.411,46.08986,11.1156117,2.81,20.94,1.19,null
SMAR,2023-05-03 15:10:51.448,46.08986,11.1156117,2.37,22.1,0.98,null
SMAR,2023-05-03 15:10:51.484,46.08986,11.1156117,1.91,21.51,0.79,null
STON,2023-05-03 15:10:51.484,46.089835235,11.115563373333334,6.670927,69.109909,-0.386086,20
SMAR,2023-05-03 15:10:51.518,46.08986,11.1156117,1.22,20.06,0.64,null
SMAR,2023-05-03 15:10:51.554,46.08986,11.1156117,0.54,18.66,0.42,null
SMAR,2023-05-03 15:10:51.587,46.08986,11.1156117,-0.22,18.38,0.28,null
SMAR,2023-05-03 15:10:51.615,46.08986,11.1156117,-1.02,18.96,0.23,null
SMAR,2023-05-03 15:10:51.653,46.08986,11.1156117,-1.81,19.35,0.09,null
SMAR,2023-05-03 15:10:51.68,46.08986,11.1156117,-2.86,19.81,-0.05,null
SMAR,2023-05-03 15:10:51.716,46.08986,11.1156117,-3.79,20.11,-0.16,null
SMAR,2023-05-03 15:10:51.751,46.08986,11.1156117,-4.95,20.89,-0.39,null
STON,2023-05-03 15:10:51.751,46.089835836666666,11.115564758333333,6.670927,69.109909,-0.386086,20
SMAR,2023-05-03 15:10:51.786,46.08986,11.1156117,-6.07,21.74,-0.59,null
SMAR,2023-05-03 15:10:51.816,46.08986,11.1156117,-7.26,22.29,-0.85,null
SMAR,2023-05-03 15:10:51.852,46.08986,11.1156117,-8.64,22.37,-1.09,null
SMAR,2023-05-03 15:10:51.892,46.08986,11.1156117,-10.04,22.14,-1.23,null
SMAR,2023-05-03 15:10:51.915,46.08986,11.1156117,-11.56,22.08,-1.48,null
STON,2023-05-03 15:10:51.915,46.089835836666666,11.115564758333333,0.248153,69.099983,-1.432114,20
STON,2023-05-03 15:10:51.915,46.08983662166667,11.115567243333333,0.248153,69.099983,-1.432114,20
SMAR,2023-05-03 15:10:51.95,46.08986,11.1156117,-13.1,22.22,-1.76,null
STON,2023-05-03 15:10:51.95,46.08983662166667,11.115567243333333,-6.082093,72.547707,-2.443293,20
SMAR,2023-05-03 15:10:51.983,46.08986,11.1156117,-14.72,22.24,-2.07,null
SMAR,2023-05-03 15:10:52.019,46.08986,11.1156117,-16.43,21.72,-2.31,null
SMAR,2023-05-03 15:10:52.053,46.08986,11.1156117,-18.26,21.07,-2.38,null
SMAR,2023-05-03 15:10:52.087,46.08986,11.1156117,-20.12,20.28,-2.4,null
STON,2023-05-03 15:10:52.087,46.08983786666667,11.115570603333333,-6.082093,72.547707,-2.443293,20
SMAR,2023-05-03 15:10:52.123,46.08986,11.1156117,-21.97,20.17,-2.61,null
SMAR,2023-05-03 15:10:52.154,46.08986,11.1156117,-23.69,20.17,-2.84,null
STON,2023-05-03 15:10:52.154,46.08983786666667,11.115570603333333,-15.305548,72.463188,-3.945112,20
SMAR,2023-05-03 15:10:52.191,46.08986,11.1156117,-25.54,20.8,-3.36,null
SMAR,2023-05-03 15:10:52.226,46.08986,11.1156117,-27.09,21.75,-3.99,null
SMAR,2023-05-03 15:10:52.254,46.08986,11.1156117,-28.69,23.16,-4.91,null
SMAR,2023-05-03 15:10:52.285,46.08986,11.1156117,-30.25,24.24,-5.76,null
SMAR,2023-05-03 15:10:52.318,46.08986,11.1156117,-31.87,24.32,-6.15,null
SMAR,2023-05-03 15:10:52.354,46.08986,11.1156117,-33.67,24.0,-6.32,null
SMAR,2023-05-03 15:10:52.388,46.08986,11.1156117,-35.29,23.68,-6.4,null
SMAR,2023-05-03 15:10:52.416,46.08986,11.1156117,-36.79,23.8,-6.83,null
SMAR,2023-05-03 15:10:52.448,46.08986,11.1156117,-38.31,24.75,-7.81,null
SMAR,2023-05-03 15:10:52.481,46.08986,11.1156117,-39.66,25.89,-9.18,null
SMAR,2023-05-03 15:10:52.516,46.08986,11.1156117,-40.78,27.08,-10.6,null
SMAR,2023-05-03 15:10:52.558,46.08986,11.1156117,-41.98,27.63,-11.44,null
SMAR,2023-05-03 15:10:52.59,46.08986,11.1156117,-43.29,27.28,-11.64,null
SMAR,2023-05-03 15:10:52.623,46.08986,11.1156117,-44.57,26.38,-11.17,null
SMAR,2023-05-03 15:10:52.654,46.08986,11.1156117,-45.81,25.19,-10.23,null
STON,2023-05-03 15:10:52.654,46.08983912666667,11.115574438333333,-15.305548,72.463188,-3.945112,20
STON,2023-05-03 15:10:52.654,46.08983912666667,11.115574438333333,-25.956318,73.925629,-5.979391,20
STON,2023-05-03 15:10:52.654,46.08983990666667,11.115577663333333,-25.956318,73.925629,-5.979391,20
STON,2023-05-03 15:10:52.654,46.08983990666667,11.115577663333333,-35.507011,78.902481,-9.862204,20
SMAR,2023-05-03 15:10:52.687,46.08986,11.1156117,-46.87,24.08,-9.4,null
SMAR,2023-05-03 15:10:52.725,46.08986,11.1156117,-47.78,23.67,-9.23,null
SMAR,2023-05-03 15:10:52.76,46.08986,11.1156117,-48.48,23.95,-9.8,null
SMAR,2023-05-03 15:10:52.787,46.08986,11.1156117,-49.0,24.61,-10.85,null
SMAR,2023-05-03 15:10:52.826,46.08986,11.1156117,-49.41,25.15,-11.62,null
STON,2023-05-03 15:10:52.826,46.089840745,11.115580005,-35.507011,78.902481,-9.862204,20
STON,2023-05-03 15:10:52.826,46.089840745,11.115580005,-42.539322,86.801872,-16.483448,20
SMAR,2023-05-03 15:10:52.853,46.08986,11.1156117,-49.75,25.3,-11.94,null
SMAR,2023-05-03 15:10:52.887,46.08986,11.1156117,-49.83,25.27,-11.87,null
STON,2023-05-03 15:10:52.887,46.089840915,11.115581416666666,-42.539322,86.801872,-16.483448,20
SMAR,2023-05-03 15:10:52.922,46.08986,11.1156117,-49.59,25.29,-11.67,null
SMAR,2023-05-03 15:10:52.957,46.08986,11.1156117,-49.28,24.94,-11.0,null
SMAR,2023-05-03 15:10:52.985,46.08986,11.1156117,-48.91,24.57,-10.26,null
STON,2023-05-03 15:10:52.985,46.089840915,11.115581416666666,-47.087654,88.000328,-18.489449,20
SMAR,2023-05-03 15:10:53.019,46.08986,11.1156117,-48.21,24.59,-10.04,null
SMAR,2023-05-03 15:10:53.051,46.08986,11.1156117,-47.25,24.9,-9.99,null
SMAR,2023-05-03 15:10:53.086,46.08986,11.1156117,-45.99,25.24,-10.0,null
STON,2023-05-03 15:10:53.086,46.0898407,11.11558105,-47.087654,88.000328,-18.489449,20
SMAR,2023-05-03 15:10:53.119,46.08986,11.1156117,-44.63,25.42,-9.74,null
SMAR,2023-05-03 15:10:53.152,46.08986,11.1156117,-43.26,25.24,-9.06,null
STON,2023-05-03 15:10:53.152,46.0898407,11.11558105,-46.266781,85.298531,-15.887882,20
SMAR,2023-05-03 15:10:53.185,46.08986,11.1156117,-41.78,24.74,-8.27,null
SMAR,2023-05-03 15:10:53.216,46.08986,11.1156117,-40.16,23.95,-7.03,null
SMAR,2023-05-03 15:10:53.259,46.08986,11.1156117,-38.42,22.86,-5.75,null
SMAR,2023-05-03 15:10:53.29,46.08986,11.1156117,-36.72,21.73,-4.67,null
SMAR,2023-05-03 15:10:53.319,46.08986,11.1156117,-34.89,20.96,-3.72,null
SMAR,2023-05-03 15:10:53.356,46.08986,11.1156117,-32.75,20.54,-3.04,null
SMAR,2023-05-03 15:10:53.388,46.08986,11.1156117,-30.6,19.93,-2.28,null
STON,2023-05-03 15:10:53.388,46.089840091666666,11.115578775,-46.266781,85.298531,-15.887882,20
STON,2023-05-03 15:10:53.388,46.089840091666666,11.115578775,-38.728806,79.631676,-10.369129,20
SMAR,2023-05-03 15:10:53.421,46.08986,11.1156117,-28.51,19.01,-1.38,null
SMAR,2023-05-03 15:10:53.454,46.08986,11.1156117,-26.33,17.69,-0.39,null
SMAR,2023-05-03 15:10:53.485,46.08986,11.1156117,-24.13,16.16,0.59,null
STON,2023-05-03 15:10:53.485,46.08983882333333,11.115574863333332,-38.728806,79.631676,-10.369129,20
SMAR,2023-05-03 15:10:53.521,46.08986,11.1156117,-21.95,14.79,1.34,null
SMAR,2023-05-03 15:10:53.554,46.08986,11.1156117,-19.84,13.61,1.82,null
SMAR,2023-05-03 15:10:53.588,46.08986,11.1156117,-17.88,12.82,2.05,null
SMAR,2023-05-03 15:10:53.618,46.08986,11.1156117,-16.11,12.24,2.18,null
SMAR,2023-05-03 15:10:53.654,46.08986,11.1156117,-14.53,11.5,2.27,null
SMAR,2023-05-03 15:10:53.681,46.08986,11.1156117,-13.16,10.75,2.33,null
SMAR,2023-05-03 15:10:53.721,46.08986,11.1156117,-11.95,10.15,2.38,null
SMAR,2023-05-03 15:10:53.754,46.08986,11.1156117,-10.85,9.74,2.35,null
SMAR,2023-05-03 15:10:53.787,46.08986,11.1156117,-9.85,9.41,2.3,null
STON,2023-05-03 15:10:53.787,46.089837276666664,11.115570618333333,-38.728806,79.631676,-10.369129,20
STON,2023-05-03 15:10:53.787,46.089837276666664,11.115570618333333,-15.027079,61.72636,0.554557,20
SMAR,2023-05-03 15:10:53.818,46.08986,11.1156117,-8.96,8.76,2.31,null
SMAR,2023-05-03 15:10:53.852,46.08986,11.1156117,-8.12,7.72,2.34,null
SMAR,2023-05-03 15:10:53.887,46.08986,11.1156117,-7.37,6.51,2.3,null
STON,2023-05-03 15:10:53.887,46.089836405,11.115567995,-15.027079,61.72636,0.554557,20
SMAR,2023-05-03 15:10:53.922,46.08986,11.1156117,-6.75,5.51,2.21,null
SMAR,2023-05-03 15:10:53.953,46.08986,11.1156117,-6.2,4.89,2.09,null
SMAR,2023-05-03 15:10:53.989,46.08986,11.1156117,-5.77,4.44,1.92,null
SMAR,2023-05-03 15:10:54.022,46.08986,11.1156117,-5.44,3.99,1.75,null
SMAR,2023-05-03 15:10:54.055,46.08986,11.1156117,-5.2,3.48,1.61,null
SMAR,2023-05-03 15:10:54.087,46.08986,11.1156117,-5.04,2.93,1.47,null
STON,2023-05-03 15:10:54.087,46.089836405,11.115567995,-7.851622,58.511345,0.571204,20
STON,2023-05-03 15:10:54.087,46.089836143333336,11.115566621666666,-7.851622,58.511345,0.571204,20
SMAR,2023-05-03 15:10:54.119,46.08986,11.1156117,-4.91,2.43,1.28,null
SMAR,2023-05-03 15:10:54.154,46.08986,11.1156117,-4.85,2.0,1.14,null
SMAR,2023-05-03 15:10:54.187,46.08986,11.1156117,-4.82,1.64,0.99,null
STON,2023-05-03 15:10:54.187,46.089836143333336,11.115566621666666,-4.358706,53.94017,-0.052872,20
SMAR,2023-05-03 15:10:54.223,46.08986,11.1156117,-4.79,1.2,0.87,null
SMAR,2023-05-03 15:10:54.254,46.08986,11.1156117,-4.81,0.74,0.79,null
SMAR,2023-05-03 15:10:54.288,46.08986,11.1156117,-4.86,0.3,0.76,null
SMAR,2023-05-03 15:10:54.322,46.08986,11.1156117,-4.89,0.04,0.69,null
STON,2023-05-03 15:10:54.322,46.08983623833333,11.115566143333334,-4.358706,53.94017,-0.052872,20
SMAR,2023-05-03 15:10:54.355,46.08986,11.1156117,-4.92,0.13,0.63,null
SMAR,2023-05-03 15:10:54.389,46.08986,11.1156117,-4.91,0.35,0.61,null
SMAR,2023-05-03 15:10:54.421,46.08986,11.1156117,-4.91,0.46,0.58,null
STON,2023-05-03 15:10:54.421,46.08983623833333,11.115566143333334,-3.765287,51.254604,-0.919032,20
SMAR,2023-05-03 15:10:54.455,46.08986,11.1156117,-4.91,0.4,0.59,null
SMAR,2023-05-03 15:10:54.49,46.08986,11.1156117,-4.92,0.14,0.65,null
STON,2023-05-03 15:10:54.49,46.089836365,11.115566078333334,-3.765287,51.254604,-0.919032,20
SMAR,2023-05-03 15:10:54.518,46.08986,11.1156117,-4.9,-0.1,0.68,null
SMAR,2023-05-03 15:10:54.557,46.08986,11.1156117,-4.87,-0.19,0.7,null
SMAR,2023-05-03 15:10:54.59,46.08986,11.1156117,-4.86,-0.25,0.73,null
STON,2023-05-03 15:10:54.59,46.089836365,11.115566078333334,-3.911535,50.491009,-1.168997,20
SMAR,2023-05-03 15:10:54.626,46.08986,11.1156117,-4.85,-0.29,0.75,null
SMAR,2023-05-03 15:10:54.657,46.08986,11.1156117,-4.85,-0.33,0.76,null
SMAR,2023-05-03 15:10:54.688,46.08986,11.1156117,-4.85,-0.34,0.77,null
SMAR,2023-05-03 15:10:54.722,46.08986,11.1156117,-4.84,-0.31,0.78,null
STON,2023-05-03 15:10:54.722,46.089836325,11.115566083333333,-3.911535,50.491009,-1.168997,20
STON,2023-05-03 15:10:54.722,46.089836325,11.115566083333333,-3.868708,49.732338,-0.97452,20
SMAR,2023-05-03 15:10:54.757,46.08986,11.1156117,-4.82,-0.26,0.78,null
SMAR,2023-05-03 15:10:54.788,46.08986,11.1156117,-4.81,-0.24,0.76,null
SMAR,2023-05-03 15:10:54.82,46.08986,11.1156117,-4.79,-0.19,0.74,null
SMAR,2023-05-03 15:10:54.857,46.08986,11.1156117,-4.76,-0.19,0.73,null
SMAR,2023-05-03 15:10:54.893,46.08986,11.1156117,-4.72,-0.32,0.72,null
STON,2023-05-03 15:10:54.893,46.08983630833333,11.115566081666667,-3.868708,49.732338,-0.97452,20
SMAR,2023-05-03 15:10:54.921,46.08986,11.1156117,-4.7,-0.47,0.71,null
SMAR,2023-05-03 15:10:54.961,46.08986,11.1156117,-4.66,-0.56,0.69,null
STON,2023-05-03 15:10:54.961,46.08983630833333,11.115566081666667,-3.81243,49.807323,-0.967769,20
SMAR,2023-05-03 15:10:54.997,46.08986,11.1156117,-4.63,-0.6,0.66,null
SMAR,2023-05-03 15:10:55.027,46.08986,11.1156117,-4.6,-0.54,0.62,null
SMAR,2023-05-03 15:10:55.059,46.08986,11.1156117,-4.55,-0.41,0.57,null
SMAR,2023-05-03 15:10:55.096,46.08986,11.1156117,-4.51,-0.28,0.53,null
STON,2023-05-03 15:10:55.096,46.08983630833333,11.115565966666667,-3.81243,49.807323,-0.967769,20
SMAR,2023-05-03 15:10:55.128,46.08986,11.1156117,-4.44,-0.22,0.48,null
SMAR,2023-05-03 15:10:55.159,46.08986,11.1156117,-4.41,-0.29,0.44,null
STON,2023-05-03 15:10:55.159,46.08983630833333,11.115565966666667,-3.616936,49.444656,-1.080957,20
SMAR,2023-05-03 15:10:55.192,46.08986,11.1156117,-4.39,-0.47,0.42,null
SMAR,2023-05-03 15:10:55.227,46.08986,11.1156117,-4.37,-0.69,0.37,null
SMAR,2023-05-03 15:10:55.261,46.08986,11.1156117,-4.34,-0.83,0.33,null
SMAR,2023-05-03 15:10:55.295,46.08986,11.1156117,-4.32,-0.87,0.29,null
STON,2023-05-03 15:10:55.295,46.089836336666664,11.115565836666667,-3.616936,49.444656,-1.080957,20
SMAR,2023-05-03 15:10:55.323,46.08986,11.1156117,-4.29,-0.81,0.24,null
SMAR,2023-05-03 15:10:55.359,46.08986,11.1156117,-4.26,-0.71,0.18,null
SMAR,2023-05-03 15:10:55.398,46.08986,11.1156117,-4.23,-0.69,0.14,null
STON,2023-05-03 15:10:55.398,46.089836336666664,11.115565836666667,-3.420637,49.344719,-1.307873,20
SMAR,2023-05-03 15:10:55.427,46.08986,11.1156117,-4.23,-0.78,0.1,null
SMAR,2023-05-03 15:10:55.459,46.08986,11.1156117,-4.22,-0.93,0.07,null
SMAR,2023-05-03 15:10:55.497,46.08986,11.1156117,-4.2,-1.15,0.07,null
STON,2023-05-03 15:10:55.497,46.089836348333336,11.115565726666667,-3.420637,49.344719,-1.307873,20
SMAR,2023-05-03 15:10:55.528,46.08986,11.1156117,-4.2,-1.3,0.06,null
SMAR,2023-05-03 15:10:55.565,46.08986,11.1156117,-4.17,-1.29,0.04,null
STON,2023-05-03 15:10:55.565,46.089836348333336,11.115565726666667,-3.267642,49.234753,-1.570626,20
SMAR,2023-05-03 15:10:55.598,46.08986,11.1156117,-4.16,-1.18,0.03,null
SMAR,2023-05-03 15:10:55.625,46.08986,11.1156117,-4.14,-1.11,0.0,null
SMAR,2023-05-03 15:10:55.66,46.08986,11.1156117,-4.13,-1.07,-0.01,null
SMAR,2023-05-03 15:10:55.695,46.08986,11.1156117,-4.13,-1.09,-0.02,null
STON,2023-05-03 15:10:55.695,46.08983637833333,11.115565656666666,-3.267642,49.234753,-1.570626,20
SMAR,2023-05-03 15:10:55.729,46.08986,11.1156117,-4.15,-1.15,-0.03,null
STON,2023-05-03 15:10:55.729,46.08983637833333,11.115565656666666,-3.149073,48.866249,-1.66656,20
SMAR,2023-05-03 15:10:55.765,46.08986,11.1156117,-4.16,-1.17,-0.05,null
SMAR,2023-05-03 15:10:55.793,46.08986,11.1156117,-4.17,-1.1,-0.06,null
SMAR,2023-05-03 15:10:55.824,46.08986,11.1156117,-4.19,-0.99,-0.07,null
STON,2023-05-03 15:10:55.824,46.08983640333334,11.115565638333333,-3.149073,48.866249,-1.66656,20
SMAR,2023-05-03 15:10:55.864,46.08986,11.1156117,-4.21,-0.91,-0.09,null
SMAR,2023-05-03 15:10:55.895,46.08986,11.1156117,-4.23,-0.89,-0.08,null
SMAR,2023-05-03 15:10:55.925,46.08986,11.1156117,-4.24,-0.89,-0.08,null
STON,2023-05-03 15:10:55.925,46.08983640333334,11.115565638333333,-3.182298,48.953075,-1.732641,20
SMAR,2023-05-03 15:10:55.96,46.08986,11.1156117,-4.26,-0.77,-0.08,null
SMAR,2023-05-03 15:10:55.997,46.08986,11.1156117,-4.23,-0.6,-0.08,null
SMAR,2023-05-03 15:10:56.028,46.08986,11.1156117,-4.23,-0.5,-0.07,null
SMAR,2023-05-03 15:10:56.059,46.08986,11.1156117,-4.25,-0.62,-0.09,null
SMAR,2023-05-03 15:10:56.092,46.08986,11.1156117,-4.26,-1.01,-0.09,null
STON,2023-05-03 15:10:56.092,46.089836391666665,11.115565656666666,-3.182298,48.953075,-1.732641,20
STON,2023-05-03 15:10:56.092,46.089836391666665,11.115565656666666,-3.215805,49.420387,-1.715272,20
SMAR,2023-05-03 15:10:56.127,46.08986,11.1156117,-4.33,-1.53,-0.03,null
SMAR,2023-05-03 15:10:56.165,46.08986,11.1156117,-4.36,-2.22,0.02,null
SMAR,2023-05-03 15:10:56.204,46.08986,11.1156117,-4.44,-2.88,0.08,null
SMAR,2023-05-03 15:10:56.23,46.08986,11.1156117,-4.49,-3.49,0.15,null
SMAR,2023-05-03 15:10:56.263,46.08986,11.1156117,-4.56,-3.99,0.24,null
SMAR,2023-05-03 15:10:56.294,46.08986,11.1156117,-4.57,-4.62,0.34,null
STON,2023-05-03 15:10:56.294,46.08983644333333,11.115565728333333,-3.215805,49.420387,-1.715272,20
SMAR,2023-05-03 15:10:56.326,46.08986,11.1156117,-4.63,-5.31,0.45,null
STON,2023-05-03 15:10:56.326,46.08983644333333,11.115565728333333,-3.501507,46.553627,-1.526055,20
SMAR,2023-05-03 15:10:56.37,46.08986,11.1156117,-4.63,-6.07,0.56,null
SMAR,2023-05-03 15:10:56.396,46.08986,11.1156117,-4.6,-6.8,0.72,null
SMAR,2023-05-03 15:10:56.435,46.08986,11.1156117,-4.62,-7.29,0.84,null
SMAR,2023-05-03 15:10:56.458,46.08986,11.1156117,-4.57,-7.52,0.92,null
STON,2023-05-03 15:10:56.458,46.089836393333336,11.115565845,-3.501507,46.553627,-1.526055,20
SMAR,2023-05-03 15:10:56.492,46.08986,11.1156117,-4.54,-7.42,1.02,null
SMAR,2023-05-03 15:10:56.531,46.08986,11.1156117,-4.5,-7.18,1.08,null
SMAR,2023-05-03 15:10:56.562,46.08986,11.1156117,-4.45,-6.99,1.17,null
SMAR,2023-05-03 15:10:56.594,46.08986,11.1156117,-4.41,-6.94,1.28,null
SMAR,2023-05-03 15:10:56.627,46.08986,11.1156117,-4.36,-7.0,1.36,null
STON,2023-05-03 15:10:56.627,46.089836393333336,11.115565845,-3.593235,42.647007,-0.876535,20
SMAR,2023-05-03 15:10:56.659,46.08986,11.1156117,-4.28,-7.16,1.47,null
SMAR,2023-05-03 15:10:56.694,46.08986,11.1156117,-4.21,-7.29,1.53,null
STON,2023-05-03 15:10:56.694,46.089836221666665,11.115565936666666,-3.593235,42.647007,-0.876535,20
SMAR,2023-05-03 15:10:56.727,46.08986,11.1156117,-4.14,-7.3,1.57,null
STON,2023-05-03 15:10:56.727,46.089836221666665,11.115565936666666,-3.322567,42.768757,-0.351137,20
SMAR,2023-05-03 15:10:56.767,46.08986,11.1156117,-4.07,-7.29,1.63,null
SMAR,2023-05-03 15:10:56.808,46.08986,11.1156117,-4.04,-7.28,1.66,null
SMAR,2023-05-03 15:10:56.84,46.08986,11.1156117,-4.01,-7.27,1.69,null
SMAR,2023-05-03 15:10:56.87,46.08986,11.1156117,-3.98,-7.25,1.74,null
STON,2023-05-03 15:10:56.87,46.089836078333335,11.115565926666667,-3.322567,42.768757,-0.351137,20
SMAR,2023-05-03 15:10:56.905,46.08986,11.1156117,-3.95,-7.17,1.76,null
SMAR,2023-05-03 15:10:56.933,46.08986,11.1156117,-3.92,-7.0,1.77,null
SMAR,2023-05-03 15:10:56.967,46.08986,11.1156117,-3.88,-6.84,1.8,null
SMAR,2023-05-03 15:10:56.994,46.08986,11.1156117,-3.86,-6.79,1.8,null
STON,2023-05-03 15:10:56.994,46.089836078333335,11.115565926666667,-2.948882,42.405437,-0.007346,20
SMAR,2023-05-03 15:10:57.031,46.08986,11.1156117,-3.83,-6.85,1.82,null
SMAR,2023-05-03 15:10:57.063,46.08986,11.1156117,-3.8,-6.97,1.85,null
SMAR,2023-05-03 15:10:57.093,46.08986,11.1156117,-3.76,-7.15,1.86,null
