Input,Time,Latitude,Longitude,Pitch,Yaw,Roll,Stonex_status
SMAR,2023-04-12 12:38:32.272,46.0901642,11.115596,351.44,344.59,1.83,null
SMAR,2023-04-12 12:38:32.307,46.0901642,11.115596,351.44,344.59,1.83,null
SMAR,2023-04-12 12:38:32.342,46.0901642,11.115596,351.44,344.59,1.83,null
SMAR,2023-04-12 12:38:32.374,46.0901642,11.115596,351.44,344.59,1.83,null
SMAR,2023-04-12 12:38:32.41,46.0901642,11.115596,351.44,344.59,1.83,null
SMAR,2023-04-12 12:38:32.442,46.0901642,11.115596,351.44,344.59,1.83,null
SMAR,2023-04-12 12:38:32.477,46.0901642,11.115596,351.44,344.59,1.83,null
SMAR,2023-04-12 12:38:32.514,46.0901642,11.115596,351.44,344.59,1.83,null
SMAR,2023-04-12 12:38:32.545,46.0901642,11.115596,351.44,344.59,1.83,null
STON,2023-04-12 12:38:32.545,46.090248511666665,11.115496655,27.517878,180.0,-16.569523,1025
SMAR,2023-04-12 12:38:32.578,46.0901642,11.115596,351.44,344.58,1.83,null
SMAR,2023-04-12 12:38:32.611,46.0901642,11.115596,351.44,344.58,1.83,null
SMAR,2023-04-12 12:38:32.642,46.0901642,11.115596,351.44,344.58,1.83,null
SMAR,2023-04-12 12:38:32.675,46.0901642,11.115596,351.44,344.59,1.83,null
SMAR,2023-04-12 12:38:32.711,46.0901642,11.115596,351.44,344.59,1.83,null
SMAR,2023-04-12 12:38:32.746,46.0901642,11.115596,351.44,344.59,1.83,null
SMAR,2023-04-12 12:38:32.778,46.0901642,11.115596,351.44,344.58,1.83,null
STON,2023-04-12 12:38:32.778,46.090248511666665,11.115496655,27.964319,180.0,-16.295399,1025
SMAR,2023-04-12 12:38:32.814,46.0901642,11.115596,351.43,344.59,1.83,null
SMAR,2023-04-12 12:38:32.851,46.0901642,11.115596,351.43,344.58,1.83,null
SMAR,2023-04-12 12:38:32.888,46.0901642,11.115596,351.43,344.59,1.82,null
SMAR,2023-04-12 12:38:32.92,46.0901642,11.115596,351.43,344.59,1.82,null
SMAR,2023-04-12 12:38:32.952,46.0901642,11.115596,351.43,344.59,1.82,null
STON,2023-04-12 12:38:32.952,46.09024853166667,11.115496698333333,27.964319,180.0,-16.295399,1025
STON,2023-04-12 12:38:32.952,46.09024853166667,11.115496698333333,27.964319,180.0,-16.295399,1025
SMAR,2023-04-12 12:38:32.985,46.0901642,11.115596,351.43,344.59,1.82,null
STON,2023-04-12 12:38:32.985,46.09024853166667,11.115496698333333,27.055964,180.0,-7.959223,1025
SMAR,2023-04-12 12:38:33.017,46.0901642,11.115596,351.43,344.59,1.82,null
SMAR,2023-04-12 12:38:33.049,46.0901642,11.115596,351.43,344.59,1.82,null
SMAR,2023-04-12 12:38:33.083,46.0901642,11.115596,351.43,344.59,1.82,null
SMAR,2023-04-12 12:38:33.115,46.0901642,11.115596,351.43,344.59,1.82,null
SMAR,2023-04-12 12:38:33.147,46.0901642,11.115596,351.43,344.59,1.82,null
SMAR,2023-04-12 12:38:33.183,46.0901642,11.115596,351.43,344.59,1.82,null
STON,2023-04-12 12:38:33.183,46.09024853166667,11.115496698333333,27.54562,180.0,-7.773102,1025
SMAR,2023-04-12 12:38:33.214,46.0901642,11.115596,351.43,344.59,1.82,null
SMAR,2023-04-12 12:38:33.249,46.0901642,11.115596,351.43,344.59,1.82,null
SMAR,2023-04-12 12:38:33.283,46.0901642,11.115596,351.43,344.59,1.82,null
SMAR,2023-04-12 12:38:33.319,46.0901642,11.115596,351.43,344.59,1.82,null
SMAR,2023-04-12 12:38:33.35,46.0901642,11.115596,351.43,344.59,1.82,null
SMAR,2023-04-12 12:38:33.385,46.0901642,11.115596,351.43,344.59,1.83,null
STON,2023-04-12 12:38:33.385,46.09024853166667,11.115496698333333,27.403625,180.0,-9.029483,1025
SMAR,2023-04-12 12:38:33.418,46.0901642,11.115596,351.43,344.59,1.83,null
SMAR,2023-04-12 12:38:33.451,46.0901642,11.115596,351.43,344.59,1.83,null
SMAR,2023-04-12 12:38:33.485,46.0901642,11.115596,351.43,344.59,1.83,null
SMAR,2023-04-12 12:38:33.52,46.0901642,11.115596,351.43,344.59,1.83,null
SMAR,2023-04-12 12:38:33.555,46.0901642,11.115596,351.43,344.59,1.83,null
SMAR,2023-04-12 12:38:33.585,46.0901642,11.115596,351.43,344.59,1.82,null
STON,2023-04-12 12:38:33.585,46.09024853166667,11.115496698333333,26.456354,180.0,-9.615032,1025
SMAR,2023-04-12 12:38:33.614,46.0901642,11.115596,351.43,344.59,1.82,null
SMAR,2023-04-12 12:38:33.648,46.0901642,11.115596,351.43,344.59,1.82,null
SMAR,2023-04-12 12:38:33.686,46.0901642,11.115596,351.43,344.59,1.82,null
SMAR,2023-04-12 12:38:33.724,46.0901642,11.115596,351.43,344.59,1.82,null
SMAR,2023-04-12 12:38:33.756,46.0901642,11.115596,351.43,344.59,1.82,null
SMAR,2023-04-12 12:38:33.787,46.0901642,11.115596,351.43,344.59,1.82,null
STON,2023-04-12 12:38:33.787,46.09024853166667,11.115496698333333,27.644543,180.0,-9.648672,1025
SMAR,2023-04-12 12:38:33.82,46.0901642,11.115596,351.43,344.59,1.82,null
SMAR,2023-04-12 12:38:33.852,46.0901642,11.115596,351.43,344.59,1.82,null
STON,2023-04-12 12:38:33.852,46.09024863166667,11.11549671,27.644543,180.0,-9.648672,1025
SMAR,2023-04-12 12:38:33.884,46.0901642,11.115596,351.43,344.59,1.82,null
STON,2023-04-12 12:38:33.884,46.09024863166667,11.11549671,27.644543,180.0,-9.648672,1025
SMAR,2023-04-12 12:38:33.918,46.0901642,11.115596,351.43,344.59,1.82,null
SMAR,2023-04-12 12:38:33.957,46.0901642,11.115596,351.43,344.59,1.82,null
SMAR,2023-04-12 12:38:33.988,46.0901642,11.115596,351.43,344.59,1.82,null
SMAR,2023-04-12 12:38:34.02,46.0901642,11.115596,351.43,344.59,1.82,null
SMAR,2023-04-12 12:38:34.053,46.0901642,11.115596,351.43,344.59,1.82,null
STON,2023-04-12 12:38:34.053,46.09024863166667,11.11549671,29.316061,180.0,-8.958509,1025
SMAR,2023-04-12 12:38:34.086,46.0901642,11.115596,351.43,344.59,1.82,null
SMAR,2023-04-12 12:38:34.117,46.0901642,11.115596,351.43,344.59,1.82,null
SMAR,2023-04-12 12:38:34.158,46.0901642,11.115596,351.43,344.59,1.82,null
SMAR,2023-04-12 12:38:34.19,46.0901642,11.115596,351.43,344.59,1.82,null
SMAR,2023-04-12 12:38:34.219,46.0901642,11.115596,351.43,344.59,1.82,null
SMAR,2023-04-12 12:38:34.253,46.0901642,11.115596,351.43,344.59,1.82,null
STON,2023-04-12 12:38:34.253,46.09024863166667,11.11549671,29.044151,180.0,-8.921578,1025
SMAR,2023-04-12 12:38:34.285,46.0901642,11.115596,351.44,344.59,1.81,null
SMAR,2023-04-12 12:38:34.321,46.0901642,11.115596,351.44,344.59,1.81,null
SMAR,2023-04-12 12:38:34.358,46.0901642,11.115596,351.44,344.59,1.81,null
SMAR,2023-04-12 12:38:34.387,46.0901642,11.115596,351.44,344.59,1.81,null
SMAR,2023-04-12 12:38:34.423,46.0901642,11.115596,351.44,344.59,1.81,null
SMAR,2023-04-12 12:38:34.455,46.0901642,11.115596,351.44,344.59,1.81,null
SMAR,2023-04-12 12:38:34.489,46.0901642,11.115596,351.44,344.59,1.81,null
SMAR,2023-04-12 12:38:34.522,46.0901642,11.115596,351.44,344.59,1.81,null
SMAR,2023-04-12 12:38:34.552,46.0901642,11.115596,351.44,344.59,1.81,null
STON,2023-04-12 12:38:34.552,46.09024863166667,11.11549671,23.872381,180.0,-8.984807,1025
SMAR,2023-04-12 12:38:34.585,46.0901642,11.115596,351.44,344.59,1.81,null
SMAR,2023-04-12 12:38:34.627,46.0901642,11.115596,351.44,344.59,1.81,null
SMAR,2023-04-12 12:38:34.655,46.0901642,11.115596,351.44,344.58,1.81,null
SMAR,2023-04-12 12:38:34.688,46.0901642,11.115596,351.44,344.59,1.81,null
SMAR,2023-04-12 12:38:34.72,46.0901642,11.115596,351.44,344.59,1.81,null
SMAR,2023-04-12 12:38:34.753,46.0901642,11.115596,351.44,344.59,1.81,null
SMAR,2023-04-12 12:38:34.789,46.0901642,11.115596,351.44,344.59,1.82,null
STON,2023-04-12 12:38:34.789,46.09024863166667,11.11549671,23.074757,180.0,-11.811412,1025
SMAR,2023-04-12 12:38:34.829,46.0901642,11.115596,351.44,344.59,1.82,null
SMAR,2023-04-12 12:38:34.859,46.0901642,11.115596,351.44,344.59,1.82,null
STON,2023-04-12 12:38:34.859,46.090248556666666,11.115496743333333,23.074757,180.0,-11.811412,1025
STON,2023-04-12 12:38:34.859,46.090248556666666,11.115496743333333,23.074757,180.0,-11.811412,1025
SMAR,2023-04-12 12:38:34.889,46.0901642,11.115596,351.44,344.58,1.82,null
SMAR,2023-04-12 12:38:34.935,46.0901642,11.115596,351.44,344.58,1.82,null
SMAR,2023-04-12 12:38:34.983,46.0901642,11.115596,351.44,344.58,1.81,null
SMAR,2023-04-12 12:38:34.998,46.0901642,11.115596,351.44,344.59,1.81,null
STON,2023-04-12 12:38:34.998,46.090248556666666,11.115496743333333,23.681946,180.0,-10.211688,1025
SMAR,2023-04-12 12:38:35.027,46.0901642,11.115596,351.44,344.58,1.81,null
SMAR,2023-04-12 12:38:35.077,46.0901642,11.115596,351.44,344.58,1.81,null
SMAR,2023-04-12 12:38:35.096,46.0901642,11.115596,351.44,344.58,1.81,null
SMAR,2023-04-12 12:38:35.131,46.0901642,11.115596,351.44,344.58,1.81,null
SMAR,2023-04-12 12:38:35.159,46.0901642,11.115596,351.44,344.58,1.81,null
SMAR,2023-04-12 12:38:35.192,46.0901642,11.115596,351.44,344.58,1.81,null
SMAR,2023-04-12 12:38:35.231,46.0901642,11.115596,351.44,344.58,1.81,null
SMAR,2023-04-12 12:38:35.258,46.0901642,11.115596,351.44,344.58,1.81,null
SMAR,2023-04-12 12:38:35.292,46.0901642,11.115596,351.44,344.58,1.81,null
SMAR,2023-04-12 12:38:35.322,46.0901642,11.115596,351.44,344.58,1.81,null
SMAR,2023-04-12 12:38:35.354,46.0901642,11.115596,351.44,344.58,1.81,null
SMAR,2023-04-12 12:38:35.391,46.0901642,11.115596,351.44,344.58,1.81,null
SMAR,2023-04-12 12:38:35.427,46.0901642,11.115596,351.44,344.58,1.81,null
STON,2023-04-12 12:38:35.427,46.090248556666666,11.115496743333333,22.760473,180.0,-5.821858,1025
SMAR,2023-04-12 12:38:35.459,46.0901642,11.115596,351.44,344.58,1.81,null
SMAR,2023-04-12 12:38:35.491,46.0901642,11.115596,351.44,344.59,1.81,null
SMAR,2023-04-12 12:38:35.527,46.0901642,11.115596,351.44,344.59,1.81,null
SMAR,2023-04-12 12:38:35.564,46.0901642,11.115596,351.44,344.59,1.81,null
SMAR,2023-04-12 12:38:35.59,46.0901642,11.115596,351.44,344.58,1.81,null
STON,2023-04-12 12:38:35.59,46.090248556666666,11.115496743333333,22.583298,180.0,-6.413112,1025
SMAR,2023-04-12 12:38:35.622,46.0901642,11.115596,351.44,344.58,1.81,null
SMAR,2023-04-12 12:38:35.657,46.0901642,11.115596,351.44,344.58,1.81,null
SMAR,2023-04-12 12:38:35.693,46.0901642,11.115596,351.44,344.58,1.81,null
SMAR,2023-04-12 12:38:35.73,46.0901642,11.115596,351.44,344.58,1.82,null
SMAR,2023-04-12 12:38:35.758,46.0901642,11.115596,351.44,344.58,1.82,null
SMAR,2023-04-12 12:38:35.791,46.0901642,11.115596,351.44,344.59,1.82,null
SMAR,2023-04-12 12:38:35.841,46.0901642,11.115596,351.44,344.59,1.82,null
STON,2023-04-12 12:38:35.841,46.090248556666666,11.115496743333333,21.876556,180.0,-7.759005,1025
SMAR,2023-04-12 12:38:35.861,46.0901642,11.115596,351.44,344.59,1.82,null
STON,2023-04-12 12:38:35.861,46.090248375,11.115496988333334,21.876556,180.0,-7.759005,1025
STON,2023-04-12 12:38:35.861,46.090248375,11.115496988333334,21.876556,180.0,-7.759005,1025
SMAR,2023-04-12 12:38:35.909,46.0901642,11.115596,351.43,344.59,1.82,null
SMAR,2023-04-12 12:38:35.931,46.0901642,11.115596,351.44,344.59,1.82,null
SMAR,2023-04-12 12:38:35.963,46.0901642,11.115596,351.44,344.59,1.82,null
SMAR,2023-04-12 12:38:35.992,46.0901642,11.115596,351.44,344.59,1.81,null
SMAR,2023-04-12 12:38:36.026,46.0901642,11.115596,351.44,344.59,1.81,null
STON,2023-04-12 12:38:36.026,46.090248375,11.115496988333334,22.552481,180.0,-8.061412,1025
SMAR,2023-04-12 12:38:36.057,46.0901642,11.115596,351.44,344.59,1.81,null
SMAR,2023-04-12 12:38:36.093,46.0901642,11.115596,351.44,344.59,1.81,null
SMAR,2023-04-12 12:38:36.126,46.0901642,11.115596,351.44,344.59,1.81,null
SMAR,2023-04-12 12:38:36.158,46.0901642,11.115596,351.44,344.59,1.81,null
SMAR,2023-04-12 12:38:36.189,46.0901642,11.115596,351.44,344.59,1.82,null
SMAR,2023-04-12 12:38:36.22,46.0901642,11.115596,351.44,344.59,1.82,null
STON,2023-04-12 12:38:36.22,46.090248375,11.115496988333334,22.335241,180.0,-6.582716,1025
SMAR,2023-04-12 12:38:36.256,46.0901642,11.115596,351.44,344.59,1.82,null
SMAR,2023-04-12 12:38:36.293,46.0901642,11.115596,351.44,344.59,1.82,null
SMAR,2023-04-12 12:38:36.323,46.0901642,11.115596,351.44,344.59,1.82,null
SMAR,2023-04-12 12:38:36.36,46.0901642,11.115596,351.44,344.59,1.82,null
SMAR,2023-04-12 12:38:36.391,46.0901642,11.115596,351.44,344.59,1.82,null
SMAR,2023-04-12 12:38:36.425,46.0901642,11.115596,351.44,344.59,1.82,null
STON,2023-04-12 12:38:36.425,46.090248375,11.115496988333334,21.501862,180.0,-5.952179,1025
SMAR,2023-04-12 12:38:36.463,46.0901642,11.115596,351.44,344.59,1.82,null
SMAR,2023-04-12 12:38:36.496,46.0901642,11.115596,351.44,344.59,1.82,null
SMAR,2023-04-12 12:38:36.531,46.0901642,11.115596,351.44,344.59,1.82,null
SMAR,2023-04-12 12:38:36.576,46.0901642,11.115596,351.44,344.59,1.82,null
SMAR,2023-04-12 12:38:36.601,46.0901642,11.115596,351.44,344.59,1.82,null
SMAR,2023-04-12 12:38:36.631,46.0901642,11.115596,351.44,344.59,1.81,null
SMAR,2023-04-12 12:38:36.664,46.0901642,11.115596,351.44,344.59,1.82,null
STON,2023-04-12 12:38:36.664,46.090248375,11.115496988333334,21.053848,180.0,-5.115263,1025
SMAR,2023-04-12 12:38:36.693,46.0901642,11.115596,351.44,344.59,1.81,null
SMAR,2023-04-12 12:38:36.726,46.0901642,11.115596,351.44,344.59,1.82,null
SMAR,2023-04-12 12:38:36.757,46.0901642,11.115596,351.44,344.59,1.82,null
SMAR,2023-04-12 12:38:36.796,46.0901642,11.115596,351.44,344.59,1.82,null
SMAR,2023-04-12 12:38:36.838,46.0901642,11.115596,351.44,344.59,1.82,null
SMAR,2023-04-12 12:38:36.871,46.0901642,11.115596,351.44,344.59,1.82,null
SMAR,2023-04-12 12:38:36.904,46.0901642,11.115596,351.44,344.59,1.82,null
SMAR,2023-04-12 12:38:36.935,46.0901642,11.115596,351.44,344.59,1.82,null
SMAR,2023-04-12 12:38:36.967,46.0901642,11.115596,351.44,344.59,1.82,null
SMAR,2023-04-12 12:38:36.998,46.0901642,11.115596,351.44,344.59,1.82,null
SMAR,2023-04-12 12:38:37.026,46.0901642,11.115596,351.44,344.59,1.82,null
STON,2023-04-12 12:38:37.026,46.090248375,11.115496988333334,21.151073,180.0,-5.48482,1025
STON,2023-04-12 12:38:37.026,46.09024870333333,11.115497586666667,21.151073,180.0,-5.48482,1025
SMAR,2023-04-12 12:38:37.06,46.0901642,11.115596,351.44,344.59,1.82,null
STON,2023-04-12 12:38:37.06,46.09024870333333,11.115497586666667,21.151073,180.0,-5.48482,1025
STON,2023-04-12 12:38:37.06,46.09024870333333,11.115497586666667,21.176607,180.0,-4.769668,1025
SMAR,2023-04-12 12:38:37.091,46.0901642,11.115596,351.44,344.59,1.81,null
SMAR,2023-04-12 12:38:37.128,46.0901642,11.115596,351.44,344.59,1.81,null
SMAR,2023-04-12 12:38:37.164,46.0901642,11.115596,351.44,344.59,1.81,null
SMAR,2023-04-12 12:38:37.197,46.0901642,11.115596,351.44,344.59,1.81,null
SMAR,2023-04-12 12:38:37.232,46.0901642,11.115596,351.44,344.59,1.81,null
STON,2023-04-12 12:38:37.232,46.09024870333333,11.115497586666667,20.987131,180.0,-5.155995,1025
SMAR,2023-04-12 12:38:37.263,46.0901642,11.115596,351.44,344.59,1.81,null
SMAR,2023-04-12 12:38:37.299,46.0901642,11.115596,351.44,344.59,1.81,null
SMAR,2023-04-12 12:38:37.331,46.0901642,11.115596,351.44,344.59,1.81,null
SMAR,2023-04-12 12:38:37.366,46.0901642,11.115596,351.44,344.59,1.81,null
SMAR,2023-04-12 12:38:37.396,46.0901642,11.115596,351.44,344.59,1.81,null
SMAR,2023-04-12 12:38:37.429,46.0901642,11.115596,351.44,344.59,1.81,null
STON,2023-04-12 12:38:37.429,46.09024870333333,11.115497586666667,21.3981,180.0,-4.783007,1025
SMAR,2023-04-12 12:38:37.462,46.0901642,11.115596,351.44,344.59,1.81,null
SMAR,2023-04-12 12:38:37.498,46.0901642,11.115596,351.44,344.59,1.81,null
SMAR,2023-04-12 12:38:37.532,46.0901642,11.115596,351.44,344.59,1.81,null
SMAR,2023-04-12 12:38:37.566,46.0901642,11.115596,351.44,344.59,1.81,null
SMAR,2023-04-12 12:38:37.594,46.0901642,11.115596,351.44,344.59,1.81,null
SMAR,2023-04-12 12:38:37.627,46.0901642,11.115596,351.44,344.59,1.81,null
STON,2023-04-12 12:38:37.627,46.09024870333333,11.115497586666667,21.209379,180.0,-5.024027,1025
SMAR,2023-04-12 12:38:37.66,46.0901642,11.115596,351.44,344.59,1.81,null
SMAR,2023-04-12 12:38:37.696,46.0901642,11.115596,351.44,344.58,1.81,null
SMAR,2023-04-12 12:38:37.731,46.0901642,11.115596,351.44,344.59,1.81,null
SMAR,2023-04-12 12:38:37.768,46.0901642,11.115596,351.44,344.59,1.81,null
SMAR,2023-04-12 12:38:37.799,46.0901642,11.115596,351.44,344.59,1.81,null
SMAR,2023-04-12 12:38:37.837,46.0901642,11.115596,351.44,344.59,1.81,null
SMAR,2023-04-12 12:38:37.869,46.0901642,11.115596,351.44,344.59,1.81,null
STON,2023-04-12 12:38:37.869,46.09024870333333,11.115497586666667,21.548523,180.0,-4.586135,1025
STON,2023-04-12 12:38:37.869,46.09024904666666,11.115498165,21.548523,180.0,-4.586135,1025
STON,2023-04-12 12:38:37.869,46.09024904666666,11.115498165,21.548523,180.0,-4.586135,1025
SMAR,2023-04-12 12:38:37.899,46.0901642,11.115596,351.44,344.59,1.81,null
SMAR,2023-04-12 12:38:37.938,46.0901642,11.115596,351.44,344.59,1.81,null
SMAR,2023-04-12 12:38:37.966,46.0901642,11.115596,351.44,344.59,1.81,null
SMAR,2023-04-12 12:38:37.994,46.0901642,11.115596,351.44,344.59,1.82,null
SMAR,2023-04-12 12:38:38.026,46.0901642,11.115596,351.44,344.59,1.82,null
SMAR,2023-04-12 12:38:38.061,46.0901642,11.115596,351.44,344.58,1.82,null
STON,2023-04-12 12:38:38.061,46.09024904666666,11.115498165,21.536802,180.0,-4.146207,1025
SMAR,2023-04-12 12:38:38.092,46.0901642,11.115596,351.44,344.59,1.82,null
SMAR,2023-04-12 12:38:38.13,46.0901642,11.115596,351.44,344.59,1.82,null
SMAR,2023-04-12 12:38:38.166,46.0901642,11.115596,351.44,344.59,1.82,null
SMAR,2023-04-12 12:38:38.196,46.0901642,11.115596,351.44,344.59,1.82,null
SMAR,2023-04-12 12:38:38.229,46.0901642,11.115596,351.44,344.59,1.82,null
STON,2023-04-12 12:38:38.229,46.09024904666666,11.115498165,21.663126,180.0,-3.965338,1025
SMAR,2023-04-12 12:38:38.261,46.0901642,11.115596,351.44,344.59,1.82,null
SMAR,2023-04-12 12:38:38.298,46.0901642,11.115596,351.44,344.59,1.81,null
SMAR,2023-04-12 12:38:38.33,46.0901642,11.115596,351.44,344.59,1.81,null
SMAR,2023-04-12 12:38:38.364,46.0901642,11.115596,351.44,344.59,1.81,null
SMAR,2023-04-12 12:38:38.4,46.0901642,11.115596,351.44,344.59,1.81,null
SMAR,2023-04-12 12:38:38.432,46.0901642,11.115596,351.44,344.59,1.81,null
SMAR,2023-04-12 12:38:38.469,46.0901642,11.115596,351.44,344.59,1.81,null
STON,2023-04-12 12:38:38.469,46.09024904666666,11.115498165,21.615828,180.0,-3.906474,1025
SMAR,2023-04-12 12:38:38.498,46.0901642,11.115596,351.44,344.59,1.82,null
SMAR,2023-04-12 12:38:38.534,46.0901642,11.115596,351.44,344.59,1.82,null
SMAR,2023-04-12 12:38:38.568,46.0901642,11.115596,351.44,344.59,1.82,null
SMAR,2023-04-12 12:38:38.608,46.0901642,11.115596,351.44,344.59,1.82,null
SMAR,2023-04-12 12:38:38.638,46.0901642,11.115596,351.44,344.59,1.82,null
SMAR,2023-04-12 12:38:38.668,46.0901642,11.115596,351.44,344.59,1.82,null
SMAR,2023-04-12 12:38:38.7,46.0901642,11.115596,351.44,344.59,1.82,null
SMAR,2023-04-12 12:38:38.733,46.0901642,11.115596,351.44,344.59,1.82,null
SMAR,2023-04-12 12:38:38.769,46.0901642,11.115596,351.44,344.59,1.82,null
SMAR,2023-04-12 12:38:38.801,46.0901642,11.115596,351.44,344.59,1.82,null
SMAR,2023-04-12 12:38:38.835,46.0901642,11.115596,351.44,344.59,1.82,null
STON,2023-04-12 12:38:38.835,46.09024904666666,11.115498165,21.653315,180.0,-4.025325,1025
STON,2023-04-12 12:38:38.835,46.090249283333335,11.115498476666666,21.653315,180.0,-4.025325,1025
STON,2023-04-12 12:38:38.835,46.090249283333335,11.115498476666666,21.653315,180.0,-4.025325,1025
SMAR,2023-04-12 12:38:38.865,46.0901642,11.115596,351.44,344.59,1.82,null
SMAR,2023-04-12 12:38:38.9,46.0901642,11.115596,351.44,344.59,1.82,null
SMAR,2023-04-12 12:38:38.932,46.0901642,11.115596,351.44,344.59,1.82,null
SMAR,2023-04-12 12:38:38.968,46.0901642,11.115596,351.44,344.59,1.82,null
SMAR,2023-04-12 12:38:38.998,46.0901642,11.115596,351.44,344.59,1.82,null
STON,2023-04-12 12:38:38.998,46.090249283333335,11.115498476666666,21.533121,180.0,-3.945637,1025
SMAR,2023-04-12 12:38:39.033,46.0901642,11.115596,351.44,344.59,1.82,null
SMAR,2023-04-12 12:38:39.066,46.0901642,11.115596,351.44,344.59,1.82,null
SMAR,2023-04-12 12:38:39.103,46.0901642,11.115596,351.44,344.59,1.82,null
SMAR,2023-04-12 12:38:39.135,46.0901642,11.115596,351.44,344.59,1.82,null
SMAR,2023-04-12 12:38:39.172,46.0901642,11.115596,351.44,344.59,1.82,null
SMAR,2023-04-12 12:38:39.199,46.0901642,11.115596,351.44,344.59,1.81,null
SMAR,2023-04-12 12:38:39.233,46.0901642,11.115596,351.44,344.59,1.81,null
STON,2023-04-12 12:38:39.233,46.090249283333335,11.115498476666666,21.544172,180.0,-3.758579,1025
SMAR,2023-04-12 12:38:39.266,46.0901642,11.115596,351.44,344.59,1.81,null
SMAR,2023-04-12 12:38:39.299,46.0901642,11.115596,351.44,344.59,1.82,null
SMAR,2023-04-12 12:38:39.336,46.0901642,11.115596,351.44,344.59,1.82,null
SMAR,2023-04-12 12:38:39.371,46.0901642,11.115596,351.44,344.59,1.82,null
SMAR,2023-04-12 12:38:39.407,46.0901642,11.115596,351.44,344.59,1.82,null
SMAR,2023-04-12 12:38:39.437,46.0901642,11.115596,351.44,344.59,1.82,null
SMAR,2023-04-12 12:38:39.468,46.0901642,11.115596,351.44,344.59,1.82,null
STON,2023-04-12 12:38:39.468,46.090249283333335,11.115498476666666,21.798632,180.0,-3.592126,1025
SMAR,2023-04-12 12:38:39.499,46.0901642,11.115596,351.44,344.59,1.82,null
SMAR,2023-04-12 12:38:39.534,46.0901642,11.115596,351.44,344.59,1.82,null
SMAR,2023-04-12 12:38:39.567,46.0901642,11.115596,351.44,344.59,1.82,null
SMAR,2023-04-12 12:38:39.604,46.0901642,11.115596,351.44,344.59,1.81,null
SMAR,2023-04-12 12:38:39.632,46.0901647,11.1155962,351.44,344.59,1.81,null
STON,2023-04-12 12:38:39.632,46.090249283333335,11.115498476666666,21.865187,180.0,-3.473749,1025
SMAR,2023-04-12 12:38:39.667,46.0901647,11.1155962,351.44,344.59,1.81,null
SMAR,2023-04-12 12:38:39.701,46.0901647,11.1155962,351.44,344.59,1.81,null
SMAR,2023-04-12 12:38:39.745,46.0901647,11.1155962,351.44,344.59,1.81,null
SMAR,2023-04-12 12:38:39.776,46.0901647,11.1155962,351.44,344.59,1.81,null
SMAR,2023-04-12 12:38:39.806,46.0901647,11.1155962,351.44,344.59,1.82,null
STON,2023-04-12 12:38:39.806,46.090249283333335,11.115498476666666,21.795069,180.0,-3.708955,1025
SMAR,2023-04-12 12:38:39.84,46.0901647,11.1155962,351.44,344.59,1.82,null
SMAR,2023-04-12 12:38:39.876,46.0901647,11.1155962,351.44,344.59,1.82,null
STON,2023-04-12 12:38:39.876,46.09024946666667,11.11549859,21.795069,180.0,-3.708955,1025
STON,2023-04-12 12:38:39.876,46.09024946666667,11.11549859,21.795069,180.0,-3.708955,1025
SMAR,2023-04-12 12:38:39.91,46.0901647,11.1155962,351.43,344.59,1.82,null
SMAR,2023-04-12 12:38:39.939,46.0901647,11.1155962,351.44,344.59,1.82,null
SMAR,2023-04-12 12:38:39.973,46.0901647,11.1155962,351.44,344.59,1.82,null
SMAR,2023-04-12 12:38:40.004,46.0901647,11.1155962,351.44,344.59,1.82,null
SMAR,2023-04-12 12:38:40.034,46.0901647,11.1155962,351.44,344.59,1.82,null
SMAR,2023-04-12 12:38:40.07,46.0901647,11.1155962,351.44,344.59,1.82,null
SMAR,2023-04-12 12:38:40.109,46.0901647,11.1155962,351.44,344.59,1.82,null
SMAR,2023-04-12 12:38:40.142,46.0901647,11.1155962,351.44,344.59,1.82,null
SMAR,2023-04-12 12:38:40.172,46.0901647,11.1155962,351.44,344.59,1.82,null
SMAR,2023-04-12 12:38:40.205,46.0901647,11.1155962,351.44,344.59,1.82,null
SMAR,2023-04-12 12:38:40.239,46.0901647,11.1155962,351.44,344.59,1.82,null
STON,2023-04-12 12:38:40.239,46.09024946666667,11.11549859,22.165377,180.0,-3.500755,1025
SMAR,2023-04-12 12:38:40.271,46.0901647,11.1155962,351.44,344.59,1.82,null
SMAR,2023-04-12 12:38:40.306,46.0901647,11.1155962,351.44,344.59,1.81,null
SMAR,2023-04-12 12:38:40.338,46.0901647,11.1155962,351.44,344.59,1.81,null
SMAR,2023-04-12 12:38:40.37,46.0901647,11.1155962,351.44,344.59,1.81,null
SMAR,2023-04-12 12:38:40.401,46.0901647,11.1155962,351.44,344.59,1.81,null
STON,2023-04-12 12:38:40.401,46.09024946666667,11.11549859,22.083233,180.0,-3.568527,1025
SMAR,2023-04-12 12:38:40.439,46.0901647,11.1155962,351.44,344.59,1.81,null
SMAR,2023-04-12 12:38:40.471,46.0901647,11.1155962,351.44,344.59,1.81,null
SMAR,2023-04-12 12:38:40.509,46.0901647,11.1155962,351.44,344.59,1.81,null
SMAR,2023-04-12 12:38:40.537,46.0901647,11.1155962,351.43,344.59,1.81,null
SMAR,2023-04-12 12:38:40.568,46.0901647,11.1155962,351.43,344.59,1.81,null
STON,2023-04-12 12:38:40.568,46.09024946666667,11.11549859,22.089113,180.0,-3.525796,1025
SMAR,2023-04-12 12:38:40.599,46.0901647,11.1155962,351.43,344.59,1.81,null
SMAR,2023-04-12 12:38:40.633,46.0901647,11.1155962,351.43,344.59,1.81,null
SMAR,2023-04-12 12:38:40.667,46.0901647,11.1155962,351.43,344.59,1.81,null
SMAR,2023-04-12 12:38:40.698,46.0901647,11.1155962,351.43,344.59,1.81,null
SMAR,2023-04-12 12:38:40.734,46.0901647,11.1155962,351.43,344.59,1.81,null
SMAR,2023-04-12 12:38:40.769,46.0901647,11.1155962,351.43,344.59,1.81,null
SMAR,2023-04-12 12:38:40.804,46.0901647,11.1155962,351.43,344.59,1.81,null
STON,2023-04-12 12:38:40.804,46.09024946666667,11.11549859,22.060524,180.0,-3.525743,1025
STON,2023-04-12 12:38:40.804,46.09024961833333,11.115498651666666,22.060524,180.0,-3.525743,1025
STON,2023-04-12 12:38:40.804,46.09024961833333,11.115498651666666,22.060524,180.0,-3.525743,1025
SMAR,2023-04-12 12:38:40.836,46.0901647,11.1155962,351.43,344.59,1.81,null
SMAR,2023-04-12 12:38:40.872,46.0901647,11.1155962,351.43,344.59,1.81,null
SMAR,2023-04-12 12:38:40.906,46.0901647,11.1155962,351.43,344.59,1.81,null
SMAR,2023-04-12 12:38:40.944,46.0901647,11.1155962,351.43,344.59,1.81,null
SMAR,2023-04-12 12:38:40.973,46.0901647,11.1155962,351.43,344.59,1.81,null
STON,2023-04-12 12:38:40.973,46.09024961833333,11.115498651666666,22.194618,180.0,-3.5187,1025
SMAR,2023-04-12 12:38:41.005,46.0901647,11.1155962,351.43,344.59,1.81,null
SMAR,2023-04-12 12:38:41.04,46.0901647,11.1155962,351.43,344.59,1.81,null
SMAR,2023-04-12 12:38:41.075,46.0901647,11.1155962,351.43,344.59,1.81,null
SMAR,2023-04-12 12:38:41.103,46.0901647,11.1155962,351.43,344.59,1.82,null
SMAR,2023-04-12 12:38:41.139,46.0901647,11.1155962,351.43,344.59,1.82,null
SMAR,2023-04-12 12:38:41.172,46.0901647,11.1155962,351.43,344.59,1.82,null
STON,2023-04-12 12:38:41.172,46.09024961833333,11.115498651666666,22.205111,180.0,-3.330528,1025
SMAR,2023-04-12 12:38:41.206,46.0901647,11.1155962,351.43,344.59,1.81,null
SMAR,2023-04-12 12:38:41.242,46.0901647,11.1155962,351.43,344.59,1.82,null
SMAR,2023-04-12 12:38:41.274,46.0901647,11.1155962,351.43,344.59,1.81,null
SMAR,2023-04-12 12:38:41.31,46.0901647,11.1155962,351.43,344.59,1.81,null
SMAR,2023-04-12 12:38:41.337,46.0901647,11.1155962,351.43,344.59,1.81,null
SMAR,2023-04-12 12:38:41.374,46.0901647,11.1155962,351.43,344.59,1.81,null
SMAR,2023-04-12 12:38:41.404,46.0901647,11.1155962,351.43,344.59,1.82,null
SMAR,2023-04-12 12:38:41.44,46.0901647,11.1155962,351.44,344.59,1.82,null
SMAR,2023-04-12 12:38:41.473,46.0901647,11.1155962,351.44,344.59,1.82,null
SMAR,2023-04-12 12:38:41.512,46.0901647,11.1155962,351.44,344.59,1.81,null
SMAR,2023-04-12 12:38:41.538,46.0901647,11.1155962,351.44,344.6,1.81,null
SMAR,2023-04-12 12:38:41.572,46.0901647,11.1155962,351.43,344.6,1.81,null
STON,2023-04-12 12:38:41.572,46.09024961833333,11.115498651666666,22.050821,180.0,-3.462446,1025
SMAR,2023-04-12 12:38:41.602,46.0901647,11.1155962,351.44,344.59,1.81,null
SMAR,2023-04-12 12:38:41.642,46.0901647,11.1155962,351.43,344.59,1.81,null
SMAR,2023-04-12 12:38:41.672,46.0901647,11.1155962,351.43,344.6,1.81,null
SMAR,2023-04-12 12:38:41.704,46.0901647,11.1155962,351.44,344.6,1.81,null
SMAR,2023-04-12 12:38:41.737,46.0901647,11.1155962,351.44,344.6,1.81,null
SMAR,2023-04-12 12:38:41.771,46.0901647,11.1155962,351.44,344.6,1.81,null
STON,2023-04-12 12:38:41.771,46.09024961833333,11.115498651666666,22.143526,180.0,-3.338815,1025
SMAR,2023-04-12 12:38:41.806,46.0901647,11.1155962,351.44,344.6,1.81,null
SMAR,2023-04-12 12:38:41.843,46.0901647,11.1155962,351.44,344.6,1.81,null
SMAR,2023-04-12 12:38:41.876,46.0901647,11.1155962,351.44,344.6,1.81,null
SMAR,2023-04-12 12:38:41.908,46.0901647,11.1155962,351.44,344.59,1.82,null
STON,2023-04-12 12:38:41.908,46.090249693333334,11.115498571666667,22.143526,180.0,-3.338815,1025
STON,2023-04-12 12:38:41.908,46.090249693333334,11.115498571666667,22.143526,180.0,-3.338815,1025
SMAR,2023-04-12 12:38:41.938,46.0901647,11.1155962,351.44,344.59,1.82,null
SMAR,2023-04-12 12:38:41.977,46.0901647,11.1155962,351.44,344.59,1.82,null
STON,2023-04-12 12:38:41.977,46.090249693333334,11.115498571666667,22.206566,180.0,-3.307436,1025
SMAR,2023-04-12 12:38:42.007,46.0901647,11.1155962,351.44,344.59,1.82,null
SMAR,2023-04-12 12:38:42.041,46.0901647,11.1155962,351.44,344.59,1.82,null
SMAR,2023-04-12 12:38:42.07,46.0901647,11.1155962,351.44,344.59,1.82,null
SMAR,2023-04-12 12:38:42.105,46.0901647,11.1155962,351.44,344.6,1.82,null
SMAR,2023-04-12 12:38:42.14,46.0901647,11.1155962,351.44,344.6,1.81,null
SMAR,2023-04-12 12:38:42.177,46.0901647,11.1155962,351.44,344.59,1.81,null
SMAR,2023-04-12 12:38:42.207,46.0901647,11.1155962,351.44,344.6,1.81,null
SMAR,2023-04-12 12:38:42.243,46.0901647,11.1155962,351.44,344.6,1.81,null
SMAR,2023-04-12 12:38:42.275,46.0901647,11.1155962,351.44,344.59,1.81,null
SMAR,2023-04-12 12:38:42.311,46.0901647,11.1155962,351.44,344.59,1.81,null
SMAR,2023-04-12 12:38:42.341,46.0901647,11.1155962,351.44,344.59,1.81,null
SMAR,2023-04-12 12:38:42.374,46.0901647,11.1155962,351.44,344.59,1.81,null
SMAR,2023-04-12 12:38:42.412,46.0901647,11.1155962,351.44,344.59,1.81,null
SMAR,2023-04-12 12:38:42.444,46.0901647,11.1155962,351.44,344.59,1.81,null
STON,2023-04-12 12:38:42.444,46.090249693333334,11.115498571666667,22.298281,180.0,-3.235611,1025
STON,2023-04-12 12:38:42.444,46.090249693333334,11.115498571666667,22.335756,180.0,-3.155091,1025
SMAR,2023-04-12 12:38:42.472,46.0901647,11.1155962,351.44,344.59,1.81,null
SMAR,2023-04-12 12:38:42.509,46.0901647,11.1155962,351.44,344.59,1.81,null
SMAR,2023-04-12 12:38:42.546,46.0901647,11.1155962,351.44,344.59,1.81,null
SMAR,2023-04-12 12:38:42.575,46.0901647,11.1155962,351.44,344.59,1.81,null
STON,2023-04-12 12:38:42.575,46.090249693333334,11.115498571666667,22.366976,180.0,-3.140233,1025
SMAR,2023-04-12 12:38:42.613,46.0901647,11.1155962,351.44,344.59,1.81,null
SMAR,2023-04-12 12:38:42.642,46.0901647,11.1155962,351.44,344.59,1.81,null
SMAR,2023-04-12 12:38:42.675,46.0901647,11.1155962,351.44,344.6,1.81,null
SMAR,2023-04-12 12:38:42.707,46.0901647,11.1155962,351.44,344.6,1.81,null
SMAR,2023-04-12 12:38:42.741,46.0901647,11.1155962,351.44,344.6,1.81,null
SMAR,2023-04-12 12:38:42.776,46.0901647,11.1155962,351.44,344.6,1.81,null
SMAR,2023-04-12 12:38:42.809,46.0901647,11.1155962,351.44,344.6,1.81,null
STON,2023-04-12 12:38:42.809,46.090249693333334,11.115498571666667,22.374119,180.0,-3.107834,1025
SMAR,2023-04-12 12:38:42.846,46.0901647,11.1155962,351.44,344.6,1.81,null
SMAR,2023-04-12 12:38:42.878,46.0901647,11.1155962,351.44,344.6,1.81,null
STON,2023-04-12 12:38:42.878,46.090249666666665,11.115498298333334,22.374119,180.0,-3.107834,1025
SMAR,2023-04-12 12:38:42.907,46.0901647,11.1155962,351.44,344.6,1.81,null
STON,2023-04-12 12:38:42.907,46.090249666666665,11.115498298333334,22.374119,180.0,-3.107834,1025
SMAR,2023-04-12 12:38:42.942,46.0901647,11.1155962,351.44,344.6,1.81,null
SMAR,2023-04-12 12:38:42.981,46.0901647,11.1155962,351.44,344.6,1.81,null
SMAR,2023-04-12 12:38:43.013,46.0901647,11.1155962,351.44,344.6,1.81,null
STON,2023-04-12 12:38:43.013,46.090249666666665,11.115498298333334,22.40941,180.0,-3.063891,1025
SMAR,2023-04-12 12:38:43.053,46.0901647,11.1155962,351.44,344.6,1.81,null
SMAR,2023-04-12 12:38:43.087,46.0901647,11.1155962,351.44,344.6,1.81,null
SMAR,2023-04-12 12:38:43.11,46.0901647,11.1155962,351.44,344.6,1.81,null
SMAR,2023-04-12 12:38:43.144,46.0901647,11.1155962,351.44,344.6,1.81,null
SMAR,2023-04-12 12:38:43.18,46.0901647,11.1155962,351.44,344.6,1.81,null
STON,2023-04-12 12:38:43.18,46.090249666666665,11.115498298333334,22.373449,180.0,-3.147379,1025
SMAR,2023-04-12 12:38:43.209,46.0901647,11.1155962,351.44,344.6,1.81,null
SMAR,2023-04-12 12:38:43.243,46.0901647,11.1155962,351.44,344.6,1.81,null
SMAR,2023-04-12 12:38:43.278,46.0901647,11.1155962,351.44,344.6,1.81,null
SMAR,2023-04-12 12:38:43.309,46.0901647,11.1155962,351.44,344.6,1.81,null
SMAR,2023-04-12 12:38:43.344,46.0901647,11.1155962,351.44,344.6,1.81,null
SMAR,2023-04-12 12:38:43.374,46.0901647,11.1155962,351.44,344.6,1.81,null
STON,2023-04-12 12:38:43.374,46.090249666666665,11.115498298333334,22.371876,180.0,-3.025542,1025
SMAR,2023-04-12 12:38:43.41,46.0901647,11.1155962,351.44,344.6,1.81,null
SMAR,2023-04-12 12:38:43.445,46.0901647,11.1155962,351.45,344.6,1.81,null
SMAR,2023-04-12 12:38:43.484,46.0901647,11.1155962,351.45,344.6,1.81,null
SMAR,2023-04-12 12:38:43.516,46.0901647,11.1155962,351.45,344.6,1.82,null
SMAR,2023-04-12 12:38:43.544,46.0901647,11.1155962,351.45,344.6,1.82,null
STON,2023-04-12 12:38:43.544,46.090249666666665,11.115498298333334,22.489431,180.0,-2.978946,1025
SMAR,2023-04-12 12:38:43.579,46.0901647,11.1155962,351.45,344.6,1.82,null
SMAR,2023-04-12 12:38:43.614,46.0901647,11.1155962,351.45,344.6,1.82,null
SMAR,2023-04-12 12:38:43.642,46.0901647,11.1155962,351.45,344.6,1.82,null
SMAR,2023-04-12 12:38:43.678,46.0901647,11.1155962,351.45,344.6,1.82,null
SMAR,2023-04-12 12:38:43.714,46.0901647,11.1155962,351.45,344.59,1.81,null
SMAR,2023-04-12 12:38:43.745,46.0901647,11.1155962,351.45,344.59,1.82,null
STON,2023-04-12 12:38:43.745,46.090249666666665,11.115498298333334,22.566013,180.0,-2.973502,1025
SMAR,2023-04-12 12:38:43.777,46.0901647,11.1155962,351.45,344.59,1.82,null
SMAR,2023-04-12 12:38:43.816,46.0901647,11.1155962,351.45,344.59,1.82,null
SMAR,2023-04-12 12:38:43.854,46.0901647,11.1155962,351.45,344.59,1.82,null
STON,2023-04-12 12:38:43.854,46.09024951,11.1154977,22.566013,180.0,-2.973502,1025
SMAR,2023-04-12 12:38:43.882,46.0901647,11.1155962,351.45,344.59,1.82,null
STON,2023-04-12 12:38:43.882,46.09024951,11.1154977,22.566013,180.0,-2.973502,1025
SMAR,2023-04-12 12:38:43.916,46.0901647,11.1155962,351.45,344.59,1.82,null
SMAR,2023-04-12 12:38:43.949,46.0901647,11.1155962,351.45,344.59,1.82,null
SMAR,2023-04-12 12:38:43.98,46.0901647,11.1155962,351.44,344.59,1.82,null
STON,2023-04-12 12:38:43.98,46.09024951,11.1154977,22.560747,180.0,-2.923025,1025
SMAR,2023-04-12 12:38:44.01,46.0901647,11.1155962,351.45,344.59,1.82,null
SMAR,2023-04-12 12:38:44.046,46.0901647,11.1155962,351.45,344.59,1.82,null
SMAR,2023-04-12 12:38:44.081,46.0901647,11.1155962,351.45,344.59,1.82,null
SMAR,2023-04-12 12:38:44.115,46.0901647,11.1155962,351.45,344.59,1.82,null
SMAR,2023-04-12 12:38:44.15,46.0901647,11.1155962,351.45,344.59,1.82,null
SMAR,2023-04-12 12:38:44.182,46.0901647,11.1155962,351.45,344.59,1.82,null
STON,2023-04-12 12:38:44.182,46.09024951,11.1154977,22.537609,180.0,-2.877654,1025
SMAR,2023-04-12 12:38:44.213,46.0901647,11.1155962,351.45,344.59,1.82,null
SMAR,2023-04-12 12:38:44.248,46.0901647,11.1155962,351.45,344.59,1.82,null
SMAR,2023-04-12 12:38:44.284,46.0901647,11.1155962,351.45,344.59,1.82,null
SMAR,2023-04-12 12:38:44.313,46.0901647,11.1155962,351.45,344.6,1.82,null
SMAR,2023-04-12 12:38:44.351,46.0901647,11.1155962,351.45,344.6,1.82,null
SMAR,2023-04-12 12:38:44.38,46.0901647,11.1155962,351.45,344.59,1.82,null
STON,2023-04-12 12:38:44.38,46.09024951,11.1154977,22.549322,180.0,-2.713043,1025
SMAR,2023-04-12 12:38:44.41,46.0901647,11.1155962,351.45,344.59,1.82,null
SMAR,2023-04-12 12:38:44.447,46.0901647,11.1155962,351.45,344.59,1.82,null
SMAR,2023-04-12 12:38:44.483,46.0901647,11.1155962,351.45,344.6,1.82,null
SMAR,2023-04-12 12:38:44.522,46.0901647,11.1155962,351.45,344.6,1.81,null
SMAR,2023-04-12 12:38:44.548,46.0901647,11.1155962,351.44,344.6,1.81,null
SMAR,2023-04-12 12:38:44.578,46.0901647,11.1155962,351.45,344.6,1.81,null
SMAR,2023-04-12 12:38:44.61,46.0901647,11.1155962,351.44,344.6,1.82,null
SMAR,2023-04-12 12:38:44.643,46.0901647,11.1155962,351.44,344.6,1.82,null
STON,2023-04-12 12:38:44.643,46.09024951,11.1154977,22.570154,180.0,-2.617189,1025
SMAR,2023-04-12 12:38:44.678,46.0901647,11.1155962,351.45,344.6,1.82,null
SMAR,2023-04-12 12:38:44.714,46.0901647,11.1155962,351.44,344.59,1.82,null
SMAR,2023-04-12 12:38:44.756,46.0901647,11.1155962,351.44,344.59,1.82,null
SMAR,2023-04-12 12:38:44.783,46.0901647,11.1155962,351.44,344.59,1.82,null
STON,2023-04-12 12:38:44.783,46.09024951,11.1154977,22.719402,180.0,-2.416251,1025
SMAR,2023-04-12 12:38:44.82,46.0901647,11.1155962,351.44,344.59,1.82,null
SMAR,2023-04-12 12:38:44.856,46.0901647,11.1155962,351.44,344.59,1.82,null
STON,2023-04-12 12:38:44.856,46.09024922,11.115496871666666,22.719402,180.0,-2.416251,1025
STON,2023-04-12 12:38:44.856,46.09024922,11.115496871666666,22.719402,180.0,-2.416251,1025
SMAR,2023-04-12 12:38:44.885,46.0901647,11.1155962,351.44,344.59,1.82,null
SMAR,2023-04-12 12:38:44.937,46.0901647,11.1155962,351.44,344.59,1.82,null
SMAR,2023-04-12 12:38:44.961,46.0901647,11.1155962,351.44,344.59,1.82,null
SMAR,2023-04-12 12:38:44.986,46.0901647,11.1155962,351.44,344.59,1.82,null
STON,2023-04-12 12:38:44.986,46.09024922,11.115496871666666,22.625381,180.0,-2.511485,1025
SMAR,2023-04-12 12:38:45.016,46.0901647,11.1155962,351.44,344.59,1.82,null
SMAR,2023-04-12 12:38:45.052,46.0901647,11.1155962,351.44,344.59,1.82,null
SMAR,2023-04-12 12:38:45.081,46.0901647,11.1155962,351.44,344.59,1.82,null
SMAR,2023-04-12 12:38:45.115,46.0901647,11.1155962,351.44,344.59,1.82,null
SMAR,2023-04-12 12:38:45.149,46.0901647,11.1155962,351.44,344.59,1.82,null
SMAR,2023-04-12 12:38:45.186,46.0901647,11.1155962,351.44,344.59,1.82,null
SMAR,2023-04-12 12:38:45.216,46.0901647,11.1155962,351.44,344.59,1.82,null
STON,2023-04-12 12:38:45.216,46.09024922,11.115496871666666,22.586071,180.0,-2.540605,1025
SMAR,2023-04-12 12:38:45.247,46.0901647,11.1155962,351.44,344.6,1.82,null
SMAR,2023-04-12 12:38:45.283,46.0901647,11.1155962,351.45,344.6,1.82,null
SMAR,2023-04-12 12:38:45.318,46.0901647,11.1155962,351.44,344.59,1.82,null
SMAR,2023-04-12 12:38:45.35,46.0901647,11.1155962,351.45,344.59,1.82,null
SMAR,2023-04-12 12:38:45.381,46.0901647,11.1155962,351.44,344.59,1.82,null
STON,2023-04-12 12:38:45.381,46.09024922,11.115496871666666,22.594265,180.0,-2.484568,1025
SMAR,2023-04-12 12:38:45.417,46.0901647,11.1155962,351.44,344.59,1.82,null
SMAR,2023-04-12 12:38:45.452,46.0901647,11.1155962,351.44,344.59,1.82,null
SMAR,2023-04-12 12:38:45.484,46.0901647,11.1155962,351.44,344.59,1.82,null
SMAR,2023-04-12 12:38:45.526,46.0901647,11.1155962,351.44,344.59,1.82,null
SMAR,2023-04-12 12:38:45.553,46.0901647,11.1155962,351.45,344.59,1.82,null
SMAR,2023-04-12 12:38:45.59,46.0901647,11.1155962,351.44,344.59,1.82,null
SMAR,2023-04-12 12:38:45.62,46.0901647,11.1155962,351.44,344.59,1.82,null
STON,2023-04-12 12:38:45.62,46.09024922,11.115496871666666,22.489048,180.0,-2.602379,1025
SMAR,2023-04-12 12:38:45.654,46.0901647,11.1155962,351.44,344.59,1.82,null
SMAR,2023-04-12 12:38:45.696,46.0901647,11.1155962,351.45,344.59,1.82,null
SMAR,2023-04-12 12:38:45.721,46.0901647,11.1155962,351.44,344.59,1.82,null
SMAR,2023-04-12 12:38:45.751,46.0901647,11.1155962,351.44,344.59,1.82,null
SMAR,2023-04-12 12:38:45.786,46.0901647,11.1155962,351.44,344.59,1.82,null
SMAR,2023-04-12 12:38:45.818,46.0901647,11.1155962,351.44,344.59,1.82,null
SMAR,2023-04-12 12:38:45.851,46.0901647,11.1155962,351.44,344.59,1.82,null
SMAR,2023-04-12 12:38:45.885,46.0901647,11.1155962,351.44,344.59,1.82,null
STON,2023-04-12 12:38:45.885,46.09024922,11.115496871666666,22.854307,180.0,-2.252446,1025
STON,2023-04-12 12:38:45.885,46.090248775,11.115495725,22.854307,180.0,-2.252446,1025
STON,2023-04-12 12:38:45.885,46.090248775,11.115495725,22.854307,180.0,-2.252446,1025
SMAR,2023-04-12 12:38:45.922,46.0901647,11.1155962,351.44,344.59,1.82,null
SMAR,2023-04-12 12:38:45.956,46.0901647,11.1155962,351.44,344.59,1.82,null
SMAR,2023-04-12 12:38:45.985,46.0901647,11.1155962,351.44,344.59,1.82,null
SMAR,2023-04-12 12:38:46.014,46.0901647,11.1155962,351.44,344.59,1.82,null
SMAR,2023-04-12 12:38:46.049,46.0901647,11.1155962,351.44,344.59,1.82,null
SMAR,2023-04-12 12:38:46.08,46.0901647,11.1155962,351.44,344.59,1.82,null
SMAR,2023-04-12 12:38:46.12,46.0901647,11.1155962,351.44,344.59,1.82,null
SMAR,2023-04-12 12:38:46.152,46.0901647,11.1155962,351.44,344.59,1.82,null
SMAR,2023-04-12 12:38:46.189,46.0901647,11.1155962,351.44,344.59,1.82,null
SMAR,2023-04-12 12:38:46.219,46.0901647,11.1155962,351.44,344.59,1.82,null
SMAR,2023-04-12 12:38:46.256,46.0901647,11.1155962,351.44,344.59,1.82,null
STON,2023-04-12 12:38:46.256,46.090248775,11.115495725,22.59631,180.0,-2.426652,1025
SMAR,2023-04-12 12:38:46.286,46.0901647,11.1155962,351.44,344.59,1.82,null
SMAR,2023-04-12 12:38:46.324,46.0901647,11.1155962,351.44,344.59,1.82,null
SMAR,2023-04-12 12:38:46.354,46.0901647,11.1155962,351.44,344.59,1.82,null
SMAR,2023-04-12 12:38:46.389,46.0901647,11.1155962,351.44,344.59,1.82,null
SMAR,2023-04-12 12:38:46.419,46.0901647,11.1155962,351.44,344.59,1.82,null
STON,2023-04-12 12:38:46.419,46.090248775,11.115495725,22.578501,180.0,-2.358304,1025
SMAR,2023-04-12 12:38:46.452,46.0901647,11.1155962,351.45,344.59,1.82,null
SMAR,2023-04-12 12:38:46.485,46.0901647,11.1155962,351.45,344.59,1.82,null
SMAR,2023-04-12 12:38:46.52,46.0901647,11.1155962,351.45,344.59,1.82,null
SMAR,2023-04-12 12:38:46.555,46.0901647,11.1155962,351.45,344.59,1.82,null
SMAR,2023-04-12 12:38:46.584,46.0901647,11.1155962,351.45,344.59,1.82,null
STON,2023-04-12 12:38:46.584,46.090248775,11.115495725,22.656317,180.0,-2.467903,1025
SMAR,2023-04-12 12:38:46.617,46.0901647,11.1155962,351.44,344.59,1.82,null
SMAR,2023-04-12 12:38:46.655,46.0901647,11.1155962,351.44,344.59,1.82,null
SMAR,2023-04-12 12:38:46.686,46.0901647,11.1155962,351.44,344.59,1.82,null
SMAR,2023-04-12 12:38:46.723,46.0901647,11.1155962,351.44,344.6,1.82,null
SMAR,2023-04-12 12:38:46.76,46.0901647,11.1155962,351.45,344.6,1.82,null
SMAR,2023-04-12 12:38:46.786,46.0901647,11.1155962,351.45,344.6,1.82,null
STON,2023-04-12 12:38:46.786,46.090248775,11.115495725,22.736462,180.0,-2.419825,1025
SMAR,2023-04-12 12:38:46.826,46.0901647,11.1155962,351.45,344.6,1.82,null
SMAR,2023-04-12 12:38:46.864,46.0901647,11.1155962,351.45,344.6,1.82,null
SMAR,2023-04-12 12:38:46.896,46.0901647,11.1155962,351.45,344.6,1.82,null
STON,2023-04-12 12:38:46.896,46.090248315,11.11549467,22.736462,180.0,-2.419825,1025
STON,2023-04-12 12:38:46.896,46.090248315,11.11549467,22.736462,180.0,-2.419825,1025
SMAR,2023-04-12 12:38:46.929,46.0901647,11.1155962,351.44,344.6,1.82,null
SMAR,2023-04-12 12:38:46.967,46.0901647,11.1155962,351.44,344.6,1.82,null
SMAR,2023-04-12 12:38:46.989,46.0901647,11.1155962,351.44,344.6,1.82,null
SMAR,2023-04-12 12:38:47.019,46.0901647,11.1155962,351.44,344.59,1.82,null
SMAR,2023-04-12 12:38:47.053,46.0901647,11.1155962,351.44,344.59,1.82,null
SMAR,2023-04-12 12:38:47.086,46.0901647,11.1155962,351.44,344.59,1.82,null
STON,2023-04-12 12:38:47.086,46.090248315,11.11549467,22.68067,180.0,-2.375806,1025
SMAR,2023-04-12 12:38:47.124,46.0901647,11.1155962,351.44,344.6,1.82,null
SMAR,2023-04-12 12:38:47.157,46.0901647,11.1155962,351.44,344.6,1.82,null
SMAR,2023-04-12 12:38:47.188,46.0901647,11.1155962,351.44,344.6,1.82,null
SMAR,2023-04-12 12:38:47.226,46.0901647,11.1155962,351.44,344.6,1.82,null
STON,2023-04-12 12:38:47.226,46.090248315,11.11549467,22.728792,180.0,-2.319839,1025
SMAR,2023-04-12 12:38:47.253,46.0901647,11.1155962,351.44,344.6,1.82,null
SMAR,2023-04-12 12:38:47.289,46.0901647,11.1155962,351.44,344.59,1.82,null
SMAR,2023-04-12 12:38:47.324,46.0901647,11.1155962,351.44,344.6,1.82,null
SMAR,2023-04-12 12:38:47.356,46.0901647,11.1155962,351.44,344.6,1.82,null
SMAR,2023-04-12 12:38:47.384,46.0901647,11.1155962,351.44,344.6,1.82,null
SMAR,2023-04-12 12:38:47.422,46.0901647,11.1155962,351.44,344.6,1.82,null
SMAR,2023-04-12 12:38:47.455,46.0901647,11.1155962,351.44,344.6,1.82,null
SMAR,2023-04-12 12:38:47.491,46.0901647,11.1155962,351.44,344.6,1.82,null
STON,2023-04-12 12:38:47.491,46.090248315,11.11549467,22.710207,180.0,-2.271127,1025
SMAR,2023-04-12 12:38:47.519,46.0901647,11.1155962,351.44,344.6,1.82,null
SMAR,2023-04-12 12:38:47.558,46.0901647,11.1155962,351.44,344.6,1.82,null
SMAR,2023-04-12 12:38:47.597,46.0901647,11.1155962,351.44,344.6,1.81,null
SMAR,2023-04-12 12:38:47.63,46.0901647,11.1155962,351.44,344.6,1.82,null
SMAR,2023-04-12 12:38:47.657,46.0901647,11.1155962,351.44,344.6,1.82,null
SMAR,2023-04-12 12:38:47.688,46.0901647,11.1155962,351.44,344.6,1.82,null
SMAR,2023-04-12 12:38:47.721,46.0901647,11.1155962,351.44,344.6,1.82,null
SMAR,2023-04-12 12:38:47.758,46.0901647,11.1155962,351.44,344.6,1.82,null
SMAR,2023-04-12 12:38:47.788,46.0901647,11.1155962,351.44,344.6,1.82,null
SMAR,2023-04-12 12:38:47.822,46.0901647,11.1155962,351.44,344.6,1.82,null
SMAR,2023-04-12 12:38:47.859,46.0901647,11.1155962,351.44,344.59,1.82,null
SMAR,2023-04-12 12:38:47.889,46.0901647,11.1155962,351.44,344.59,1.82,null
SMAR,2023-04-12 12:38:47.919,46.0901647,11.1155962,351.44,344.6,1.82,null
STON,2023-04-12 12:38:47.919,46.090248315,11.11549467,22.696079,180.0,-2.33408,1025
SMAR,2023-04-12 12:38:47.955,46.0901647,11.1155962,351.44,344.6,1.82,null
STON,2023-04-12 12:38:47.955,46.090248315,11.11549467,22.748274,180.0,-2.280451,1025
STON,2023-04-12 12:38:47.955,46.090248091666666,11.11549427,22.748274,180.0,-2.280451,1025
STON,2023-04-12 12:38:47.955,46.090248091666666,11.11549427,22.748274,180.0,-2.280451,1025
SMAR,2023-04-12 12:38:47.991,46.0901647,11.1155962,351.44,344.59,1.82,null
STON,2023-04-12 12:38:47.991,46.090248091666666,11.11549427,22.784271,180.0,-2.218792,1025
SMAR,2023-04-12 12:38:48.023,46.0901647,11.1155962,351.45,344.6,1.82,null
SMAR,2023-04-12 12:38:48.067,46.0901647,11.1155962,351.44,344.6,1.82,null
SMAR,2023-04-12 12:38:48.098,46.0901647,11.1155962,351.44,344.6,1.82,null
SMAR,2023-04-12 12:38:48.127,46.0901647,11.1155962,351.45,344.6,1.82,null
SMAR,2023-04-12 12:38:48.167,46.0901647,11.1155962,351.45,344.6,1.82,null
SMAR,2023-04-12 12:38:48.205,46.0901647,11.1155962,351.45,344.6,1.82,null
SMAR,2023-04-12 12:38:48.238,46.0901647,11.1155962,351.45,344.6,1.82,null
SMAR,2023-04-12 12:38:48.265,46.0901647,11.1155962,351.45,344.6,1.82,null
STON,2023-04-12 12:38:48.265,46.090248091666666,11.11549427,22.800423,180.0,-2.389641,1025
SMAR,2023-04-12 12:38:48.298,46.0901647,11.1155962,351.45,344.6,1.82,null
SMAR,2023-04-12 12:38:48.327,46.0901647,11.1155962,351.45,344.6,1.82,null
SMAR,2023-04-12 12:38:48.36,46.0901647,11.1155962,351.45,344.6,1.82,null
SMAR,2023-04-12 12:38:48.393,46.0901647,11.1155962,351.45,344.6,1.82,null
STON,2023-04-12 12:38:48.393,46.090248091666666,11.11549427,22.826235,180.0,-2.336023,1025
SMAR,2023-04-12 12:38:48.427,46.0901647,11.1155962,351.45,344.6,1.82,null
SMAR,2023-04-12 12:38:48.467,46.0901647,11.1155962,351.45,344.6,1.82,null
SMAR,2023-04-12 12:38:48.5,46.0901647,11.1155962,351.45,344.6,1.82,null
SMAR,2023-04-12 12:38:48.531,46.0901647,11.1155962,351.45,344.6,1.82,null
SMAR,2023-04-12 12:38:48.574,46.0901647,11.1155962,351.45,344.6,1.82,null
SMAR,2023-04-12 12:38:48.595,46.0901647,11.1155962,351.45,344.6,1.82,null
STON,2023-04-12 12:38:48.595,46.090248091666666,11.11549427,22.774563,180.0,-2.331713,1025
SMAR,2023-04-12 12:38:48.629,46.0901647,11.1155962,351.45,344.6,1.81,null
SMAR,2023-04-12 12:38:48.664,46.0901647,11.1155962,351.45,344.6,1.81,null
SMAR,2023-04-12 12:38:48.694,46.0901647,11.1155962,351.45,344.6,1.81,null
SMAR,2023-04-12 12:38:48.727,46.0901647,11.1155962,351.45,344.6,1.81,null
SMAR,2023-04-12 12:38:48.766,46.0901647,11.1155962,351.45,344.6,1.81,null
SMAR,2023-04-12 12:38:48.796,46.0901647,11.1155962,351.45,344.59,1.81,null
SMAR,2023-04-12 12:38:48.831,46.0901647,11.1155962,351.45,344.6,1.81,null
STON,2023-04-12 12:38:48.831,46.090248091666666,11.11549427,22.142603,180.0,-2.59812,1025
STON,2023-04-12 12:38:48.831,46.09024797666667,11.115494211666666,22.142603,180.0,-2.59812,1025
STON,2023-04-12 12:38:48.831,46.09024797666667,11.115494211666666,22.142603,180.0,-2.59812,1025
SMAR,2023-04-12 12:38:48.856,46.0901647,11.1155962,351.45,344.6,1.81,null
SMAR,2023-04-12 12:38:48.891,46.0901647,11.1155962,351.45,344.6,1.81,null
SMAR,2023-04-12 12:38:48.926,46.0901647,11.1155962,351.45,344.6,1.81,null
SMAR,2023-04-12 12:38:48.96,46.0901647,11.1155962,351.45,344.6,1.81,null
SMAR,2023-04-12 12:38:48.989,46.0901647,11.1155962,351.45,344.59,1.81,null
SMAR,2023-04-12 12:38:49.023,46.0901647,11.1155962,351.44,344.59,1.81,null
SMAR,2023-04-12 12:38:49.055,46.0901647,11.1155962,351.44,344.6,1.81,null
STON,2023-04-12 12:38:49.055,46.09024797666667,11.115494211666666,22.308504,180.0,-2.480043,1025
SMAR,2023-04-12 12:38:49.089,46.0901647,11.1155962,351.44,344.59,1.81,null
SMAR,2023-04-12 12:38:49.123,46.0901647,11.1155962,351.44,344.6,1.81,null
SMAR,2023-04-12 12:38:49.162,46.0901647,11.1155962,351.44,344.6,1.81,null
SMAR,2023-04-12 12:38:49.197,46.0901647,11.1155962,351.44,344.6,1.81,null
SMAR,2023-04-12 12:38:49.229,46.0901647,11.1155962,351.44,344.59,1.81,null
STON,2023-04-12 12:38:49.229,46.09024797666667,11.115494211666666,22.359762,180.0,-2.520728,1025
SMAR,2023-04-12 12:38:49.261,46.0901647,11.1155962,351.44,344.59,1.81,null
SMAR,2023-04-12 12:38:49.294,46.0901647,11.1155962,351.44,344.59,1.81,null
SMAR,2023-04-12 12:38:49.327,46.0901647,11.1155962,351.44,344.59,1.81,null
SMAR,2023-04-12 12:38:49.363,46.0901647,11.1155962,351.44,344.59,1.81,null
SMAR,2023-04-12 12:38:49.394,46.0901647,11.1155962,351.44,344.59,1.81,null
SMAR,2023-04-12 12:38:49.431,46.0901647,11.1155962,351.44,344.59,1.81,null
SMAR,2023-04-12 12:38:49.468,46.0901647,11.1155962,351.44,344.59,1.81,null
SMAR,2023-04-12 12:38:49.499,46.0901647,11.1155962,351.44,344.59,1.81,null
SMAR,2023-04-12 12:38:49.532,46.0901647,11.1155962,351.44,344.59,1.81,null
SMAR,2023-04-12 12:38:49.565,46.0901647,11.1155962,351.44,344.59,1.81,null
SMAR,2023-04-12 12:38:49.6,46.0901647,11.1155962,351.44,344.59,1.81,null
SMAR,2023-04-12 12:38:49.629,46.0901647,11.1155962,351.44,344.59,1.81,null
SMAR,2023-04-12 12:38:49.664,46.0901647,11.1155962,351.44,344.59,1.81,null
SMAR,2023-04-12 12:38:49.697,46.0901647,11.1155962,351.44,344.59,1.81,null
SMAR,2023-04-12 12:38:49.732,46.0901647,11.1155962,351.44,344.59,1.81,null
STON,2023-04-12 12:38:49.732,46.09024797666667,11.115494211666666,22.555159,180.0,-2.337054,1025
SMAR,2023-04-12 12:38:49.768,46.0901647,11.1155962,351.44,344.59,1.81,null
SMAR,2023-04-12 12:38:49.8,46.0901647,11.1155962,351.44,344.59,1.81,null
SMAR,2023-04-12 12:38:49.831,46.0901647,11.1155962,351.44,344.59,1.81,null
STON,2023-04-12 12:38:49.831,46.09024797666667,11.115494211666666,22.554054,180.0,-2.341381,1025
STON,2023-04-12 12:38:49.831,46.09024782,11.115494116666667,22.554054,180.0,-2.341381,1025
STON,2023-04-12 12:38:49.831,46.09024782,11.115494116666667,22.554054,180.0,-2.341381,1025
SMAR,2023-04-12 12:38:49.861,46.0901647,11.1155962,351.44,344.59,1.81,null
SMAR,2023-04-12 12:38:49.897,46.0901647,11.1155962,351.44,344.59,1.81,null
SMAR,2023-04-12 12:38:49.94,46.0901647,11.1155962,351.44,344.59,1.81,null
SMAR,2023-04-12 12:38:49.963,46.0901647,11.1155962,351.44,344.59,1.81,null
SMAR,2023-04-12 12:38:49.993,46.0901647,11.1155962,351.44,344.59,1.81,null
SMAR,2023-04-12 12:38:50.029,46.0901647,11.1155962,351.44,344.6,1.82,null
STON,2023-04-12 12:38:50.029,46.09024782,11.115494116666667,22.567221,180.0,-2.318805,1025
SMAR,2023-04-12 12:38:50.061,46.0901647,11.1155962,351.44,344.6,1.82,null
SMAR,2023-04-12 12:38:50.09,46.0901647,11.1155962,351.44,344.59,1.82,null
SMAR,2023-04-12 12:38:50.128,46.0901647,11.1155962,351.44,344.59,1.82,null
SMAR,2023-04-12 12:38:50.171,46.0901647,11.1155962,351.44,344.59,1.82,null
SMAR,2023-04-12 12:38:50.195,46.0901647,11.1155962,351.44,344.59,1.82,null
SMAR,2023-04-12 12:38:50.227,46.0901647,11.1155962,351.44,344.59,1.81,null
SMAR,2023-04-12 12:38:50.258,46.0901647,11.1155962,351.44,344.59,1.81,null
SMAR,2023-04-12 12:38:50.295,46.0901647,11.1155962,351.44,344.59,1.81,null
STON,2023-04-12 12:38:50.295,46.09024782,11.115494116666667,22.581913,180.0,-2.323844,1025
SMAR,2023-04-12 12:38:50.327,46.0901647,11.1155962,351.44,344.6,1.81,null
SMAR,2023-04-12 12:38:50.359,46.0901647,11.1155962,351.44,344.6,1.81,null
SMAR,2023-04-12 12:38:50.396,46.0901647,11.1155962,351.44,344.6,1.81,null
SMAR,2023-04-12 12:38:50.429,46.0901647,11.1155962,351.44,344.59,1.82,null
STON,2023-04-12 12:38:50.429,46.09024782,11.115494116666667,22.589045,180.0,-2.265596,1025
SMAR,2023-04-12 12:38:50.466,46.0901647,11.1155962,351.44,344.59,1.82,null
SMAR,2023-04-12 12:38:50.497,46.0901647,11.1155962,351.44,344.6,1.82,null
SMAR,2023-04-12 12:38:50.529,46.0901647,11.1155962,351.44,344.6,1.81,null
SMAR,2023-04-12 12:38:50.568,46.0901647,11.1155962,351.44,344.6,1.81,null
SMAR,2023-04-12 12:38:50.596,46.0901647,11.1155962,351.44,344.6,1.81,null
SMAR,2023-04-12 12:38:50.627,46.0901647,11.1155962,351.44,344.6,1.82,null
STON,2023-04-12 12:38:50.627,46.09024782,11.115494116666667,22.524733,180.0,-2.379366,1025
SMAR,2023-04-12 12:38:50.66,46.0901647,11.1155962,351.44,344.6,1.82,null
SMAR,2023-04-12 12:38:50.692,46.0901647,11.1155962,351.44,344.6,1.82,null
SMAR,2023-04-12 12:38:50.731,46.0901647,11.1155962,351.44,344.6,1.82,null
SMAR,2023-04-12 12:38:50.763,46.0901647,11.1155962,351.44,344.6,1.82,null
SMAR,2023-04-12 12:38:50.798,46.0901647,11.1155962,351.44,344.6,1.82,null
STON,2023-04-12 12:38:50.798,46.09024782,11.115494116666667,22.427217,180.0,-2.491873,1025
SMAR,2023-04-12 12:38:50.832,46.0901647,11.1155962,351.44,344.6,1.82,null
STON,2023-04-12 12:38:50.832,46.09024763833333,11.115494021666667,22.427217,180.0,-2.491873,1025
SMAR,2023-04-12 12:38:50.875,46.0901647,11.1155962,351.44,344.6,1.82,null
STON,2023-04-12 12:38:50.875,46.09024763833333,11.115494021666667,22.427217,180.0,-2.491873,1025
SMAR,2023-04-12 12:38:50.908,46.0901647,11.1155962,351.44,344.6,1.81,null
SMAR,2023-04-12 12:38:50.952,46.0901647,11.1155962,351.44,344.6,1.81,null
SMAR,2023-04-12 12:38:50.978,46.0901647,11.1155962,351.44,344.6,1.82,null
SMAR,2023-04-12 12:38:51.013,46.0901647,11.1155962,351.44,344.6,1.82,null
SMAR,2023-04-12 12:38:51.042,46.0901647,11.1155962,351.44,344.6,1.82,null
STON,2023-04-12 12:38:51.042,46.09024763833333,11.115494021666667,22.451527,180.0,-2.434236,1025
SMAR,2023-04-12 12:38:51.07,46.0901647,11.1155962,351.44,344.6,1.82,null
SMAR,2023-04-12 12:38:51.107,46.0901647,11.1155962,351.44,344.6,1.81,null
SMAR,2023-04-12 12:38:51.14,46.0901647,11.1155962,351.44,344.6,1.82,null
SMAR,2023-04-12 12:38:51.171,46.0901647,11.1155962,351.44,344.6,1.82,null
SMAR,2023-04-12 12:38:51.2,46.0901647,11.1155962,351.44,344.6,1.82,null
SMAR,2023-04-12 12:38:51.232,46.0901647,11.1155962,351.44,344.6,1.81,null
SMAR,2023-04-12 12:38:51.264,46.0901647,11.1155962,351.44,344.6,1.82,null
SMAR,2023-04-12 12:38:51.298,46.0901647,11.1155962,351.44,344.6,1.82,null
STON,2023-04-12 12:38:51.298,46.09024763833333,11.115494021666667,22.64274,180.0,-2.698753,1025
SMAR,2023-04-12 12:38:51.327,46.0901647,11.1155962,351.44,344.6,1.82,null
SMAR,2023-04-12 12:38:51.363,46.0901647,11.1155962,351.44,344.6,1.82,null
SMAR,2023-04-12 12:38:51.394,46.0901647,11.1155962,351.44,344.6,1.82,null
STON,2023-04-12 12:38:51.394,46.09024763833333,11.115494021666667,22.834797,180.0,-2.445619,1025
SMAR,2023-04-12 12:38:51.427,46.0901647,11.1155962,351.44,344.6,1.82,null
SMAR,2023-04-12 12:38:51.462,46.0901647,11.1155962,351.44,344.6,1.82,null
SMAR,2023-04-12 12:38:51.498,46.0901647,11.1155962,351.44,344.6,1.82,null
SMAR,2023-04-12 12:38:51.532,46.0901647,11.1155962,351.44,344.6,1.82,null
SMAR,2023-04-12 12:38:51.567,46.0901647,11.1155962,351.44,344.6,1.82,null
SMAR,2023-04-12 12:38:51.598,46.0901647,11.1155962,351.44,344.6,1.82,null
SMAR,2023-04-12 12:38:51.631,46.0901647,11.1155962,351.44,344.6,1.82,null
STON,2023-04-12 12:38:51.631,46.09024763833333,11.115494021666667,22.854725,180.0,-2.372958,1025
SMAR,2023-04-12 12:38:51.663,46.0901647,11.1155962,351.44,344.6,1.81,null
SMAR,2023-04-12 12:38:51.697,46.0901647,11.1155962,351.44,344.6,1.81,null
SMAR,2023-04-12 12:38:51.731,46.0901647,11.1155962,351.44,344.6,1.81,null
SMAR,2023-04-12 12:38:51.774,46.0901647,11.1155962,351.44,344.6,1.81,null
SMAR,2023-04-12 12:38:51.804,46.0901647,11.1155962,351.44,344.6,1.81,null
SMAR,2023-04-12 12:38:51.835,46.0901647,11.1155962,351.44,344.6,1.82,null
STON,2023-04-12 12:38:51.835,46.09024763833333,11.115494021666667,22.73444,180.0,-2.513429,1025
SMAR,2023-04-12 12:38:51.863,46.0901647,11.1155962,351.44,344.6,1.82,null
SMAR,2023-04-12 12:38:51.898,46.0901647,11.1155962,351.44,344.6,1.82,null
SMAR,2023-04-12 12:38:51.929,46.0901647,11.1155962,351.44,344.6,1.81,null
SMAR,2023-04-12 12:38:51.962,46.0901647,11.1155962,351.44,344.6,1.81,null
SMAR,2023-04-12 12:38:51.996,46.0901647,11.1155962,351.44,344.6,1.81,null
STON,2023-04-12 12:38:51.996,46.090247535,11.115494135,22.73444,180.0,-2.513429,1025
STON,2023-04-12 12:38:51.996,46.090247535,11.115494135,22.73444,180.0,-2.513429,1025
STON,2023-04-12 12:38:51.996,46.090247535,11.115494135,22.674316,180.0,-2.464345,1025
SMAR,2023-04-12 12:38:52.031,46.0901647,11.1155962,351.44,344.6,1.81,null
SMAR,2023-04-12 12:38:52.066,46.0901647,11.1155962,351.44,344.6,1.81,null
SMAR,2023-04-12 12:38:52.099,46.0901647,11.1155962,351.44,344.6,1.81,null
SMAR,2023-04-12 12:38:52.137,46.0901647,11.1155962,351.44,344.6,1.81,null
SMAR,2023-04-12 12:38:52.17,46.0901647,11.1155962,351.44,344.6,1.81,null
SMAR,2023-04-12 12:38:52.2,46.0901647,11.1155962,351.44,344.6,1.81,null
STON,2023-04-12 12:38:52.2,46.090247535,11.115494135,22.650312,180.0,-2.532392,1025
SMAR,2023-04-12 12:38:52.232,46.0901647,11.1155962,351.44,344.6,1.81,null
SMAR,2023-04-12 12:38:52.271,46.0901647,11.1155962,351.44,344.6,1.81,null
SMAR,2023-04-12 12:38:52.304,46.0901647,11.1155962,351.44,344.6,1.81,null
SMAR,2023-04-12 12:38:52.336,46.0901647,11.1155962,351.44,344.6,1.81,null
SMAR,2023-04-12 12:38:52.37,46.0901647,11.1155962,351.44,344.6,1.81,null
SMAR,2023-04-12 12:38:52.404,46.0901647,11.1155962,351.44,344.6,1.81,null
STON,2023-04-12 12:38:52.404,46.090247535,11.115494135,22.798187,180.0,-2.36378,1025
SMAR,2023-04-12 12:38:52.433,46.0901647,11.1155962,351.44,344.6,1.81,null
SMAR,2023-04-12 12:38:52.468,46.0901647,11.1155962,351.44,344.6,1.81,null
SMAR,2023-04-12 12:38:52.505,46.0901647,11.1155962,351.44,344.6,1.81,null
SMAR,2023-04-12 12:38:52.538,46.0901647,11.1155962,351.44,344.6,1.81,null
SMAR,2023-04-12 12:38:52.573,46.0901647,11.1155962,351.44,344.6,1.81,null
SMAR,2023-04-12 12:38:52.6,46.0901647,11.1155962,351.44,344.6,1.81,null
SMAR,2023-04-12 12:38:52.632,46.0901647,11.1155962,351.44,344.6,1.81,null
SMAR,2023-04-12 12:38:52.67,46.0901647,11.1155962,351.44,344.6,1.81,null
SMAR,2023-04-12 12:38:52.704,46.0901647,11.1155962,351.44,344.6,1.81,null
STON,2023-04-12 12:38:52.704,46.090247535,11.115494135,22.799704,180.0,-2.300502,1025
SMAR,2023-04-12 12:38:52.738,46.0901647,11.1155962,351.44,344.59,1.81,null
SMAR,2023-04-12 12:38:52.766,46.0901647,11.1155962,351.44,344.59,1.81,null
SMAR,2023-04-12 12:38:52.803,46.0901647,11.1155962,351.44,344.59,1.81,null
SMAR,2023-04-12 12:38:52.837,46.0901647,11.1155962,351.44,344.59,1.81,null
STON,2023-04-12 12:38:52.837,46.090247535,11.115494135,22.75713,180.0,-2.540682,1025
STON,2023-04-12 12:38:52.837,46.09024748833333,11.115494406666667,22.75713,180.0,-2.540682,1025
STON,2023-04-12 12:38:52.837,46.09024748833333,11.115494406666667,22.75713,180.0,-2.540682,1025
SMAR,2023-04-12 12:38:52.87,46.0901647,11.1155962,351.44,344.59,1.81,null
SMAR,2023-04-12 12:38:52.903,46.0901647,11.1155962,351.44,344.59,1.81,null
SMAR,2023-04-12 12:38:52.94,46.0901647,11.1155962,351.44,344.59,1.81,null
SMAR,2023-04-12 12:38:52.969,46.0901647,11.1155962,351.44,344.59,1.81,null
SMAR,2023-04-12 12:38:53.001,46.0901647,11.1155962,351.45,344.59,1.81,null
SMAR,2023-04-12 12:38:53.038,46.0901647,11.1155962,351.44,344.59,1.81,null
SMAR,2023-04-12 12:38:53.071,46.0901647,11.1155962,351.44,344.59,1.81,null
SMAR,2023-04-12 12:38:53.104,46.0901647,11.1155962,351.44,344.59,1.81,null
SMAR,2023-04-12 12:38:53.14,46.0901647,11.1155962,351.44,344.59,1.81,null
SMAR,2023-04-12 12:38:53.177,46.0901647,11.1155962,351.44,344.59,1.81,null
SMAR,2023-04-12 12:38:53.212,46.0901647,11.1155962,351.44,344.59,1.81,null
SMAR,2023-04-12 12:38:53.246,46.0901647,11.1155962,351.44,344.59,1.81,null
SMAR,2023-04-12 12:38:53.269,46.0901647,11.1155962,351.44,344.59,1.81,null
SMAR,2023-04-12 12:38:53.304,46.0901647,11.1155962,351.44,344.59,1.81,null
SMAR,2023-04-12 12:38:53.334,46.0901647,11.1155962,351.44,344.59,1.81,null
SMAR,2023-04-12 12:38:53.367,46.0901647,11.1155962,351.44,344.59,1.81,null
STON,2023-04-12 12:38:53.367,46.09024748833333,11.115494406666667,22.525465,180.0,-2.837035,1025
STON,2023-04-12 12:38:53.367,46.09024748833333,11.115494406666667,22.892035,180.0,-2.656657,1025
SMAR,2023-04-12 12:38:53.399,46.0901647,11.1155962,351.44,344.59,1.81,null
