Input,Time,Latitude,Longitude,Pitch,Yaw,Roll,Stonex_status
SMAR,2023-05-03 15:09:35.136,46.0898517,11.115595,-1.79,25.58,0.31,null
SMAR,2023-05-03 15:09:35.175,46.0898517,11.115595,-1.79,25.58,0.29,null
STON,2023-05-03 15:09:35.175,46.08983568,11.115564603333333,-1.772179,77.549126,-0.800615,2
SMAR,2023-05-03 15:09:35.191,46.0898517,11.115595,-1.79,25.45,0.27,null
SMAR,2023-05-03 15:09:35.218,46.0898517,11.115595,-1.8,25.29,0.27,null
SMAR,2023-05-03 15:09:35.26,46.0898517,11.115595,-1.8,25.22,0.26,null
STON,2023-05-03 15:09:35.26,46.08983572333333,11.115564595,-1.772179,77.549126,-0.800615,2
SMAR,2023-05-03 15:09:35.292,46.0898517,11.115595,-1.79,25.26,0.26,null
SMAR,2023-05-03 15:09:35.325,46.0898517,11.115595,-1.8,25.33,0.26,null
STON,2023-05-03 15:09:35.325,46.08983572333333,11.115564595,-1.794346,77.341629,-0.916645,2
SMAR,2023-05-03 15:09:35.354,46.0898517,11.115595,-1.8,25.39,0.27,null
SMAR,2023-05-03 15:09:35.39,46.0898517,11.115595,-1.8,25.45,0.27,null
SMAR,2023-05-03 15:09:35.424,46.0898517,11.115595,-1.81,25.48,0.28,null
STON,2023-05-03 15:09:35.424,46.089835738333335,11.115564598333334,-1.794346,77.341629,-0.916645,2
SMAR,2023-05-03 15:09:35.455,46.0898517,11.115595,-1.8,25.47,0.31,null
SMAR,2023-05-03 15:09:35.492,46.0898517,11.115595,-1.79,25.44,0.32,null
SMAR,2023-05-03 15:09:35.524,46.0898517,11.115595,-1.78,25.43,0.34,null
STON,2023-05-03 15:09:35.524,46.089835738333335,11.115564598333334,-1.806521,77.573944,-0.902948,2
SMAR,2023-05-03 15:09:35.556,46.0898517,11.115595,-1.77,25.38,0.36,null
SMAR,2023-05-03 15:09:35.591,46.0898517,11.115595,-1.79,25.35,0.36,null
SMAR,2023-05-03 15:09:35.628,46.0898517,11.115595,-1.79,25.25,0.39,null
SMAR,2023-05-03 15:09:35.656,46.0898517,11.115595,-1.81,25.18,0.4,null
SMAR,2023-05-03 15:09:35.691,46.0898517,11.115595,-1.82,24.97,0.43,null
SMAR,2023-05-03 15:09:35.726,46.0898517,11.115595,-1.86,24.64,0.45,null
STON,2023-05-03 15:09:35.726,46.089835713333336,11.115564621666667,-1.806521,77.573944,-0.902948,2
SMAR,2023-05-03 15:09:35.763,46.0898517,11.115595,-1.91,24.23,0.49,null
STON,2023-05-03 15:09:35.763,46.089835713333336,11.115564621666667,-1.810638,77.403252,-0.793745,2
SMAR,2023-05-03 15:09:35.79,46.0898517,11.115595,-1.95,23.7,0.51,null
SMAR,2023-05-03 15:09:35.826,46.0898517,11.115595,-2.02,23.1,0.55,null
STON,2023-05-03 15:09:35.826,46.089835691666664,11.115564733333333,-1.810638,77.403252,-0.793745,2
SMAR,2023-05-03 15:09:35.86,46.0898517,11.115595,-2.09,22.37,0.58,null
SMAR,2023-05-03 15:09:35.891,46.0898517,11.115595,-2.19,21.6,0.6,null
SMAR,2023-05-03 15:09:35.93,46.0898517,11.115595,-2.29,20.79,0.64,null
SMAR,2023-05-03 15:09:35.958,46.0898517,11.115595,-2.38,19.99,0.65,null
SMAR,2023-05-03 15:09:35.992,46.0898517,11.115595,-2.46,19.29,0.67,null
SMAR,2023-05-03 15:09:36.025,46.0898517,11.115595,-2.54,18.79,0.69,null
SMAR,2023-05-03 15:09:36.064,46.0898517,11.115595,-2.57,18.58,0.69,null
STON,2023-05-03 15:09:36.064,46.089835725,11.115564935,-1.810638,77.403252,-0.793745,2
SMAR,2023-05-03 15:09:36.091,46.0898517,11.115595,-2.55,18.56,0.72,null
SMAR,2023-05-03 15:09:36.122,46.0898517,11.115595,-2.56,18.59,0.74,null
SMAR,2023-05-03 15:09:36.156,46.0898517,11.115595,-2.61,18.7,0.71,null
SMAR,2023-05-03 15:09:36.19,46.0898517,11.115595,-2.64,19.19,0.69,null
SMAR,2023-05-03 15:09:36.223,46.0898517,11.115595,-2.59,20.08,0.63,null
SMAR,2023-05-03 15:09:36.257,46.0898517,11.115595,-2.59,21.46,0.56,null
SMAR,2023-05-03 15:09:36.29,46.0898517,11.115595,-2.56,23.23,0.42,null
SMAR,2023-05-03 15:09:36.323,46.0898517,11.115595,-2.5,25.54,0.34,null
SMAR,2023-05-03 15:09:36.355,46.0898517,11.115595,-2.42,28.41,0.21,null
SMAR,2023-05-03 15:09:36.392,46.0898517,11.115595,-2.32,31.95,0.06,null
SMAR,2023-05-03 15:09:36.426,46.0898517,11.115595,-2.19,36.55,-0.04,null
SMAR,2023-05-03 15:09:36.46,46.0898517,11.115595,-1.9,42.11,-0.21,null
SMAR,2023-05-03 15:09:36.495,46.0898517,11.115595,-1.67,48.34,-0.3,null
SMAR,2023-05-03 15:09:36.526,46.0898517,11.115595,-1.37,54.63,-0.32,null
SMAR,2023-05-03 15:09:36.558,46.0898517,11.115595,-1.07,60.7,-0.36,null
STON,2023-05-03 15:09:36.558,46.089835725,11.115564935,-2.561465,71.103325,-0.463839,2
SMAR,2023-05-03 15:09:36.591,46.0898517,11.115595,-0.88,66.64,-0.35,null
SMAR,2023-05-03 15:09:36.624,46.0898517,11.115595,-0.54,72.16,-0.29,null
SMAR,2023-05-03 15:09:36.657,46.0898517,11.115595,-0.25,77.54,-0.2,null
STON,2023-05-03 15:09:36.657,46.08983572,11.115564986666667,-2.561465,71.103325,-0.463839,2
STON,2023-05-03 15:09:36.657,46.08983572,11.115564986666667,-2.624227,72.227982,-0.504895,2
STON,2023-05-03 15:09:36.657,46.089835755,11.115564825,-2.624227,72.227982,-0.504895,2
STON,2023-05-03 15:09:36.657,46.089835755,11.115564825,-2.243845,87.971359,-1.261827,2
SMAR,2023-05-03 15:09:36.697,46.0898517,11.115595,0.06,82.81,-0.03,null
SMAR,2023-05-03 15:09:36.723,46.0898517,11.115595,0.44,87.82,0.17,null
STON,2023-05-03 15:09:36.723,46.08983576833333,11.11556439,-2.243845,87.971359,-1.261827,2
STON,2023-05-03 15:09:36.723,46.08983576833333,11.11556439,-0.584441,123.389381,-1.810536,2
SMAR,2023-05-03 15:09:36.756,46.0898517,11.115595,0.73,92.42,0.34,null
SMAR,2023-05-03 15:09:36.79,46.0898517,11.115595,1.0,96.35,0.59,null
SMAR,2023-05-03 15:09:36.824,46.0898517,11.115595,1.29,99.01,0.73,null
SMAR,2023-05-03 15:09:36.857,46.0898517,11.115595,1.42,100.68,0.82,null
STON,2023-05-03 15:09:36.857,46.089835925,11.115563768333333,-0.584441,123.389381,-1.810536,2
SMAR,2023-05-03 15:09:36.889,46.0898517,11.115595,1.59,101.58,0.96,null
SMAR,2023-05-03 15:09:36.925,46.0898517,11.115595,1.78,101.93,0.99,null
STON,2023-05-03 15:09:36.925,46.089835925,11.115563768333333,1.410988,150.573975,-0.949544,2
SMAR,2023-05-03 15:09:36.958,46.0898517,11.115595,1.86,102.14,1.07,null
SMAR,2023-05-03 15:09:36.992,46.0898517,11.115595,2.0,102.26,1.09,null
SMAR,2023-05-03 15:09:37.027,46.0898517,11.115595,2.04,102.42,1.05,null
STON,2023-05-03 15:09:37.027,46.089836121666664,11.115563541666667,1.410988,150.573975,-0.949544,2
SMAR,2023-05-03 15:09:37.061,46.0898517,11.115595,2.1,102.74,1.07,null
SMAR,2023-05-03 15:09:37.092,46.0898517,11.115595,2.25,103.15,1.1,null
SMAR,2023-05-03 15:09:37.127,46.0898517,11.115595,2.31,103.49,1.06,null
SMAR,2023-05-03 15:09:37.16,46.0898517,11.115595,2.41,103.48,1.01,null
SMAR,2023-05-03 15:09:37.195,46.0898517,11.115595,2.48,103.28,0.98,null
SMAR,2023-05-03 15:09:37.229,46.0898517,11.115595,2.5,102.88,0.91,null
SMAR,2023-05-03 15:09:37.26,46.0898517,11.115595,2.57,102.43,0.85,null
STON,2023-05-03 15:09:37.26,46.08983624166667,11.115563511666666,1.410988,150.573975,-0.949544,2
SMAR,2023-05-03 15:09:37.295,46.0898517,11.115595,2.67,101.76,0.79,null
SMAR,2023-05-03 15:09:37.327,46.0898517,11.115595,2.68,100.87,0.72,null
STON,2023-05-03 15:09:37.327,46.08983624166667,11.115563511666666,2.753426,154.977798,-0.728345,2
SMAR,2023-05-03 15:09:37.363,46.0898517,11.115595,2.76,99.66,0.66,null
SMAR,2023-05-03 15:09:37.396,46.0898517,11.115595,2.79,98.23,0.55,null
SMAR,2023-05-03 15:09:37.428,46.0898517,11.115595,2.79,96.48,0.45,null
STON,2023-05-03 15:09:37.428,46.08983634333333,11.115563493333333,2.753426,154.977798,-0.728345,2
SMAR,2023-05-03 15:09:37.46,46.0898517,11.115595,2.77,94.38,0.25,null
SMAR,2023-05-03 15:09:37.493,46.0898517,11.115595,2.66,91.83,-0.01,null
SMAR,2023-05-03 15:09:37.525,46.0898517,11.115595,2.43,89.11,-0.21,null
SMAR,2023-05-03 15:09:37.563,46.0898517,11.115595,2.24,86.49,-0.43,null
STON,2023-05-03 15:09:37.563,46.08983634333333,11.115563493333333,3.065361,148.972733,-1.142264,2
SMAR,2023-05-03 15:09:37.592,46.0898517,11.115595,2.07,84.65,-0.52,null
SMAR,2023-05-03 15:09:37.626,46.0898517,11.115595,1.96,83.85,-0.56,null
SMAR,2023-05-03 15:09:37.657,46.0898517,11.115595,1.92,84.17,-0.54,null
SMAR,2023-05-03 15:09:37.691,46.0898517,11.115595,1.9,85.43,-0.51,null
SMAR,2023-05-03 15:09:37.726,46.0898517,11.115595,1.9,87.32,-0.45,null
STON,2023-05-03 15:09:37.726,46.089836291666664,11.11556375,3.065361,148.972733,-1.142264,2
SMAR,2023-05-03 15:09:37.77,46.0898517,11.115595,1.91,89.57,-0.36,null
STON,2023-05-03 15:09:37.77,46.089836291666664,11.11556375,2.201933,135.999817,-2.099195,2
SMAR,2023-05-03 15:09:37.8,46.0898517,11.115595,1.93,91.73,-0.3,null
SMAR,2023-05-03 15:09:37.832,46.0898517,11.115595,1.9,93.54,-0.23,null
SMAR,2023-05-03 15:09:37.862,46.0898517,11.115595,1.88,94.93,-0.21,null
SMAR,2023-05-03 15:09:37.897,46.0898517,11.115595,1.83,95.96,-0.2,null
STON,2023-05-03 15:09:37.897,46.089836248333334,11.11556381,2.201933,135.999817,-2.099195,2
SMAR,2023-05-03 15:09:37.933,46.0898517,11.115595,1.75,96.71,-0.17,null
STON,2023-05-03 15:09:37.933,46.089836248333334,11.11556381,2.179915,145.144409,-1.827604,2
SMAR,2023-05-03 15:09:37.965,46.0898517,11.115595,1.72,97.48,-0.17,null
SMAR,2023-05-03 15:09:37.995,46.0898517,11.115595,1.68,98.63,-0.14,null
SMAR,2023-05-03 15:09:38.028,46.0898517,11.115595,1.67,100.67,-0.06,null
SMAR,2023-05-03 15:09:38.063,46.0898517,11.115595,1.71,104.07,0.09,null
STON,2023-05-03 15:09:38.063,46.08983618,11.11556391,2.179915,145.144409,-1.827604,2
SMAR,2023-05-03 15:09:38.099,46.0898517,11.115595,1.81,108.76,0.25,null
SMAR,2023-05-03 15:09:38.132,46.0898517,11.115595,1.92,114.7,0.46,null
STON,2023-05-03 15:09:38.132,46.08983618,11.11556391,2.031833,152.066345,-1.710521,2
SMAR,2023-05-03 15:09:38.166,46.0898517,11.115595,2.07,121.38,0.7,null
SMAR,2023-05-03 15:09:38.196,46.0898517,11.115595,2.13,128.4,0.95,null
SMAR,2023-05-03 15:09:38.23,46.0898517,11.115595,2.22,135.3,1.22,null
SMAR,2023-05-03 15:09:38.259,46.0898517,11.115595,2.27,142.02,1.46,null
SMAR,2023-05-03 15:09:38.297,46.0898517,11.115595,2.23,148.62,1.7,null
STON,2023-05-03 15:09:38.297,46.08983629833333,11.11556391,2.031833,152.066345,-1.710521,2
SMAR,2023-05-03 15:09:38.334,46.0898517,11.115595,2.31,154.71,1.93,null
SMAR,2023-05-03 15:09:38.364,46.0898517,11.115595,2.25,160.7,2.15,null
SMAR,2023-05-03 15:09:38.396,46.0898517,11.115595,2.17,166.75,2.41,null
STON,2023-05-03 15:09:38.396,46.08983629833333,11.11556391,2.758598,-174.804047,-0.437266,2
SMAR,2023-05-03 15:09:38.43,46.0898517,11.115595,2.22,172.99,2.7,null
SMAR,2023-05-03 15:09:38.463,46.0898517,11.115595,2.09,179.7,2.97,null
STON,2023-05-03 15:09:38.463,46.089836445,11.115564105,2.758598,-174.804047,-0.437266,2
SMAR,2023-05-03 15:09:38.499,46.0898517,11.115595,2.06,-173.86,3.34,null
SMAR,2023-05-03 15:09:38.531,46.0898517,11.115595,1.97,-168.53,3.62,null
STON,2023-05-03 15:09:38.531,46.089836445,11.115564105,2.92597,-137.186661,1.18052,2
SMAR,2023-05-03 15:09:38.562,46.0898517,11.115595,1.89,-165.08,3.66,null
SMAR,2023-05-03 15:09:38.599,46.0898517,11.115595,1.83,-163.58,3.74,null
SMAR,2023-05-03 15:09:38.633,46.0898517,11.115595,1.8,-163.49,3.84,null
SMAR,2023-05-03 15:09:38.665,46.0898517,11.115595,1.87,-164.34,3.78,null
SMAR,2023-05-03 15:09:38.699,46.0898517,11.115595,1.83,-164.99,3.68,null
STON,2023-05-03 15:09:38.699,46.08983656833333,11.115564381666667,2.92597,-137.186661,1.18052,2
STON,2023-05-03 15:09:38.699,46.08983656833333,11.115564381666667,2.550211,-111.457787,2.526836,2
SMAR,2023-05-03 15:09:38.731,46.0898517,11.115595,1.92,-164.9,3.7,null
SMAR,2023-05-03 15:09:38.772,46.0898517,11.115595,1.93,-164.07,3.67,null
SMAR,2023-05-03 15:09:38.8,46.0898517,11.115595,1.94,-163.23,3.63,null
SMAR,2023-05-03 15:09:38.832,46.0898517,11.115595,1.98,-162.75,3.61,null
SMAR,2023-05-03 15:09:38.864,46.0898517,11.115595,1.95,-162.56,3.62,null
STON,2023-05-03 15:09:38.864,46.08983656,11.115564476666666,2.550211,-111.457787,2.526836,2
SMAR,2023-05-03 15:09:38.9,46.0898517,11.115595,1.97,-162.58,3.61,null
STON,2023-05-03 15:09:38.9,46.08983656,11.115564476666666,2.763838,-111.054207,2.339416,2
SMAR,2023-05-03 15:09:38.933,46.0898517,11.115595,1.98,-162.59,3.61,null
SMAR,2023-05-03 15:09:38.974,46.0898517,11.115595,2.0,-162.74,3.59,null
SMAR,2023-05-03 15:09:38.997,46.0898517,11.115595,2.0,-162.88,3.55,null
SMAR,2023-05-03 15:09:39.033,46.0898517,11.115595,2.02,-163.06,3.52,null
STON,2023-05-03 15:09:39.033,46.089836525,11.115564488333334,2.763838,-111.054207,2.339416,2
SMAR,2023-05-03 15:09:39.064,46.0898517,11.115595,2.0,-163.24,3.45,null
SMAR,2023-05-03 15:09:39.104,46.0898517,11.115595,1.99,-163.42,3.41,null
SMAR,2023-05-03 15:09:39.138,46.0898517,11.115595,2.0,-163.58,3.41,null
SMAR,2023-05-03 15:09:39.168,46.0898517,11.115595,1.98,-163.75,3.38,null
STON,2023-05-03 15:09:39.168,46.089836525,11.115564488333334,2.751243,-111.259384,2.273544,2
SMAR,2023-05-03 15:09:39.198,46.0898517,11.115595,1.96,-164.05,3.35,null
SMAR,2023-05-03 15:09:39.234,46.0898517,11.115595,1.94,-164.58,3.3,null
SMAR,2023-05-03 15:09:39.273,46.0898517,11.115595,1.89,-165.33,3.26,null
SMAR,2023-05-03 15:09:39.305,46.0898517,11.115595,1.8,-166.03,3.27,null
SMAR,2023-05-03 15:09:39.334,46.0898517,11.115595,1.77,-166.65,3.27,null
STON,2023-05-03 15:09:39.334,46.089836481666666,11.115564443333334,2.751243,-111.259384,2.273544,2
STON,2023-05-03 15:09:39.334,46.089836481666666,11.115564443333334,2.647117,-112.799652,2.048088,2
SMAR,2023-05-03 15:09:39.365,46.0898517,11.115595,1.76,-167.35,3.28,null
SMAR,2023-05-03 15:09:39.404,46.0898517,11.115595,1.74,-168.24,3.26,null
SMAR,2023-05-03 15:09:39.432,46.0898517,11.115595,1.71,-169.27,3.27,null
STON,2023-05-03 15:09:39.432,46.089836573333336,11.115564213333334,2.647117,-112.799652,2.048088,2
SMAR,2023-05-03 15:09:39.468,46.0898517,11.115595,1.72,-170.51,3.28,null
SMAR,2023-05-03 15:09:39.506,46.0898517,11.115595,1.69,-171.79,3.28,null
SMAR,2023-05-03 15:09:39.531,46.0898517,11.115595,1.73,-173.11,3.33,null
SMAR,2023-05-03 15:09:39.568,46.0898517,11.115595,1.75,-174.46,3.31,null
SMAR,2023-05-03 15:09:39.598,46.0898517,11.115595,1.77,-175.89,3.24,null
SMAR,2023-05-03 15:09:39.639,46.0898517,11.115595,1.73,-176.93,3.09,null
SMAR,2023-05-03 15:09:39.666,46.0898517,11.115595,1.8,-177.64,3.08,null
SMAR,2023-05-03 15:09:39.696,46.0898517,11.115595,1.79,-177.74,3.06,null
SMAR,2023-05-03 15:09:39.74,46.0898517,11.115595,1.8,-177.48,2.98,null
STON,2023-05-03 15:09:39.74,46.089836565,11.115564035,2.647117,-112.799652,2.048088,2
SMAR,2023-05-03 15:09:39.775,46.0898517,11.115595,1.75,-176.83,2.94,null
STON,2023-05-03 15:09:39.775,46.089836565,11.115564035,2.349232,-125.32605,1.783224,2
SMAR,2023-05-03 15:09:39.803,46.0898517,11.115595,1.78,-176.04,2.92,null
SMAR,2023-05-03 15:09:39.839,46.0898517,11.115595,1.76,-175.19,2.88,null
SMAR,2023-05-03 15:09:39.873,46.0898517,11.115595,1.72,-174.48,2.82,null
STON,2023-05-03 15:09:39.873,46.08983649166667,11.11556412,2.349232,-125.32605,1.783224,2
SMAR,2023-05-03 15:09:39.901,46.0898517,11.115595,1.66,-173.69,2.75,null
SMAR,2023-05-03 15:09:39.934,46.0898517,11.115595,1.61,-172.57,2.71,null
STON,2023-05-03 15:09:39.934,46.08983649166667,11.11556412,2.391232,-124.565697,1.559332,2
SMAR,2023-05-03 15:09:39.97,46.0898517,11.115595,1.49,-170.73,2.65,null
SMAR,2023-05-03 15:09:40.001,46.0898517,11.115595,1.38,-167.81,2.6,null
SMAR,2023-05-03 15:09:40.035,46.0898517,11.115595,1.25,-163.62,2.59,null
STON,2023-05-03 15:09:40.035,46.089836315,11.115564205,2.391232,-124.565697,1.559332,2
SMAR,2023-05-03 15:09:40.068,46.0898517,11.115595,1.08,-158.2,2.54,null
SMAR,2023-05-03 15:09:40.103,46.0898517,11.115595,0.94,-151.82,2.49,null
SMAR,2023-05-03 15:09:40.134,46.0898517,11.115595,0.81,-144.64,2.42,null
STON,2023-05-03 15:09:40.134,46.089836315,11.115564205,1.938638,-114.893944,1.307088,2
SMAR,2023-05-03 15:09:40.172,46.0898517,11.115595,0.75,-136.95,2.34,null
SMAR,2023-05-03 15:09:40.203,46.0898517,11.115595,0.66,-128.87,2.3,null
SMAR,2023-05-03 15:09:40.234,46.0898517,11.115595,0.74,-121.07,2.29,null
SMAR,2023-05-03 15:09:40.267,46.0898517,11.115595,0.71,-113.47,2.26,null
STON,2023-05-03 15:09:40.267,46.08983594833333,11.115564535,1.938638,-114.893944,1.307088,2
SMAR,2023-05-03 15:09:40.303,46.0898517,11.115595,0.73,-106.68,2.28,null
SMAR,2023-05-03 15:09:40.335,46.0898517,11.115595,0.76,-101.08,2.31,null
STON,2023-05-03 15:09:40.335,46.08983594833333,11.115564535,1.291019,-74.434769,1.144278,2
SMAR,2023-05-03 15:09:40.37,46.0898517,11.115595,0.69,-95.95,2.32,null
SMAR,2023-05-03 15:09:40.401,46.0898517,11.115595,0.73,-91.37,2.38,null
SMAR,2023-05-03 15:09:40.437,46.0898517,11.115595,0.74,-87.52,2.37,null
SMAR,2023-05-03 15:09:40.468,46.0898517,11.115595,0.77,-84.12,2.42,null
STON,2023-05-03 15:09:40.468,46.08983567,11.11556476,1.291019,-74.434769,1.144278,2
SMAR,2023-05-03 15:09:40.503,46.0898517,11.115595,0.91,-81.42,2.49,null
SMAR,2023-05-03 15:09:40.537,46.0898517,11.115595,1.0,-79.51,2.49,null
SMAR,2023-05-03 15:09:40.569,46.0898517,11.115595,1.15,-78.22,2.61,null
SMAR,2023-05-03 15:09:40.603,46.0898517,11.115595,1.3,-77.61,2.71,null
SMAR,2023-05-03 15:09:40.642,46.0898517,11.115595,1.39,-77.69,2.73,null
SMAR,2023-05-03 15:09:40.671,46.0898517,11.115595,1.5,-78.14,2.82,null
SMAR,2023-05-03 15:09:40.703,46.0898517,11.115595,1.56,-78.43,2.91,null
SMAR,2023-05-03 15:09:40.739,46.0898517,11.115595,1.63,-78.43,3.0,null
SMAR,2023-05-03 15:09:40.771,46.0898517,11.115595,1.71,-78.05,3.1,null
SMAR,2023-05-03 15:09:40.803,46.0898517,11.115595,1.8,-77.71,3.15,null
SMAR,2023-05-03 15:09:40.836,46.0898517,11.115595,1.85,-77.65,3.16,null
SMAR,2023-05-03 15:09:40.869,46.0898517,11.115595,1.89,-77.97,3.18,null
STON,2023-05-03 15:09:40.869,46.08983543,11.115565038333333,1.291019,-74.434769,1.144278,2
STON,2023-05-03 15:09:40.869,46.08983543,11.115565038333333,1.809368,-28.189457,1.637743,2
STON,2023-05-03 15:09:40.869,46.089835316666665,11.115565256666667,1.809368,-28.189457,1.637743,2
SMAR,2023-05-03 15:09:40.902,46.0898517,11.115595,1.9,-78.44,3.17,null
SMAR,2023-05-03 15:09:40.936,46.0898517,11.115595,1.88,-78.89,3.14,null
SMAR,2023-05-03 15:09:40.972,46.0898517,11.115595,1.85,-79.19,3.12,null
STON,2023-05-03 15:09:40.972,46.089835316666665,11.115565256666667,2.306976,-28.411739,2.024454,2
SMAR,2023-05-03 15:09:41.006,46.0898517,11.115595,1.79,-79.22,3.08,null
SMAR,2023-05-03 15:09:41.047,46.0898517,11.115595,1.74,-78.92,3.06,null
SMAR,2023-05-03 15:09:41.075,46.0898517,11.115595,1.65,-78.39,3.04,null
SMAR,2023-05-03 15:09:41.106,46.0898517,11.115595,1.55,-77.86,2.99,null
STON,2023-05-03 15:09:41.106,46.08983534666667,11.11556521,2.306976,-28.411739,2.024454,2
SMAR,2023-05-03 15:09:41.137,46.0898517,11.115595,1.47,-77.49,2.95,null
STON,2023-05-03 15:09:41.137,46.08983534666667,11.11556521,2.228664,-29.976152,1.922577,2
SMAR,2023-05-03 15:09:41.176,46.0898517,11.115595,1.36,-77.41,2.89,null
SMAR,2023-05-03 15:09:41.209,46.0898517,11.115595,1.23,-77.51,2.81,null
SMAR,2023-05-03 15:09:41.243,46.0898517,11.115595,1.09,-77.62,2.76,null
SMAR,2023-05-03 15:09:41.272,46.0898517,11.115595,0.97,-77.8,2.73,null
SMAR,2023-05-03 15:09:41.304,46.0898517,11.115595,0.81,-78.06,2.69,null
STON,2023-05-03 15:09:41.304,46.08983552,11.11556497,2.228664,-29.976152,1.922577,2
SMAR,2023-05-03 15:09:41.338,46.0898517,11.115595,0.67,-78.45,2.64,null
SMAR,2023-05-03 15:09:41.374,46.0898517,11.115595,0.51,-78.84,2.58,null
SMAR,2023-05-03 15:09:41.408,46.0898517,11.115595,0.39,-79.32,2.54,null
SMAR,2023-05-03 15:09:41.442,46.0898517,11.115595,0.19,-79.65,2.49,null
SMAR,2023-05-03 15:09:41.47,46.0898517,11.115595,0.06,-79.99,2.46,null
STON,2023-05-03 15:09:41.47,46.08983574,11.115564676666667,2.228664,-29.976152,1.922577,2
SMAR,2023-05-03 15:09:41.505,46.0898517,11.115595,-0.14,-80.0,2.42,null
SMAR,2023-05-03 15:09:41.542,46.0898517,11.115595,-0.23,-79.73,2.35,null
SMAR,2023-05-03 15:09:41.58,46.0898517,11.115595,-0.3,-79.15,2.18,null
STON,2023-05-03 15:09:41.58,46.08983574,11.115564676666667,0.729869,-30.532728,1.361516,2
SMAR,2023-05-03 15:09:41.612,46.0898517,11.115595,-0.41,-78.24,2.07,null
SMAR,2023-05-03 15:09:41.639,46.0898517,11.115595,-0.49,-76.79,2.0,null
SMAR,2023-05-03 15:09:41.672,46.0898517,11.115595,-0.56,-74.32,1.95,null
SMAR,2023-05-03 15:09:41.704,46.0898517,11.115595,-0.57,-70.77,1.87,null
SMAR,2023-05-03 15:09:41.738,46.0898517,11.115595,-0.6,-66.19,1.79,null
SMAR,2023-05-03 15:09:41.773,46.0898517,11.115595,-0.56,-60.93,1.74,null
SMAR,2023-05-03 15:09:41.803,46.0898517,11.115595,-0.58,-55.11,1.69,null
SMAR,2023-05-03 15:09:41.84,46.0898517,11.115595,-0.54,-49.11,1.67,null
SMAR,2023-05-03 15:09:41.874,46.0898517,11.115595,-0.53,-42.92,1.69,null
SMAR,2023-05-03 15:09:41.905,46.0898517,11.115595,-0.52,-36.24,1.64,null
SMAR,2023-05-03 15:09:41.938,46.0898517,11.115595,-0.43,-29.09,1.71,null
STON,2023-05-03 15:09:41.938,46.08983584333333,11.115564366666666,0.729869,-30.532728,1.361516,2
STON,2023-05-03 15:09:41.938,46.08983584333333,11.115564366666666,-0.017098,-28.765717,0.87097,2
SMAR,2023-05-03 15:09:41.976,46.0898517,11.115595,-0.45,-21.34,1.79,null
SMAR,2023-05-03 15:09:42.007,46.0898517,11.115595,-0.46,-13.08,1.87,null
STON,2023-05-03 15:09:42.007,46.089835748333336,11.115564316666667,-0.017098,-28.765717,0.87097,2
STON,2023-05-03 15:09:42.007,46.089835748333336,11.115564316666667,-0.167538,-3.750801,0.506609,2
SMAR,2023-05-03 15:09:42.044,46.0898517,11.115595,-0.43,-4.64,2.03,null
SMAR,2023-05-03 15:09:42.074,46.0898517,11.115595,-0.53,2.93,2.08,null
STON,2023-05-03 15:09:42.074,46.08983546,11.115564336666667,-0.167538,-3.750801,0.506609,2
SMAR,2023-05-03 15:09:42.11,46.0898517,11.115595,-0.62,9.83,2.24,null
SMAR,2023-05-03 15:09:42.14,46.0898517,11.115595,-0.58,15.43,2.37,null
SMAR,2023-05-03 15:09:42.174,46.0898517,11.115595,-0.64,19.61,2.4,null
STON,2023-05-03 15:09:42.174,46.08983546,11.115564336666667,-0.062317,38.903168,0.76722,2
SMAR,2023-05-03 15:09:42.206,46.0898517,11.115595,-0.69,22.25,2.59,null
SMAR,2023-05-03 15:09:42.238,46.0898517,11.115595,-0.66,23.3,2.69,null
STON,2023-05-03 15:09:42.238,46.089835183333335,11.11556426,-0.062317,38.903168,0.76722,2
SMAR,2023-05-03 15:09:42.272,46.0898517,11.115595,-0.66,23.28,2.77,null
SMAR,2023-05-03 15:09:42.307,46.0898517,11.115595,-0.61,23.0,2.96,null
SMAR,2023-05-03 15:09:42.345,46.0898517,11.115595,-0.51,22.88,3.05,null
SMAR,2023-05-03 15:09:42.376,46.0898517,11.115595,-0.43,23.29,3.15,null
STON,2023-05-03 15:09:42.376,46.089835183333335,11.11556426,-0.34275,70.992073,1.429906,2
SMAR,2023-05-03 15:09:42.407,46.0898517,11.115595,-0.33,23.87,3.28,null
SMAR,2023-05-03 15:09:42.441,46.0898517,11.115595,-0.24,24.15,3.31,null
SMAR,2023-05-03 15:09:42.473,46.0898517,11.115595,-0.17,24.08,3.38,null
SMAR,2023-05-03 15:09:42.511,46.0898517,11.115595,-0.09,23.69,3.41,null
STON,2023-05-03 15:09:42.511,46.089834931666665,11.115564168333334,-0.34275,70.992073,1.429906,2
SMAR,2023-05-03 15:09:42.541,46.0898517,11.115595,-0.02,23.11,3.33,null
SMAR,2023-05-03 15:09:42.575,46.0898517,11.115595,0.02,22.74,3.31,null
SMAR,2023-05-03 15:09:42.61,46.0898517,11.115595,0.07,22.71,3.25,null
SMAR,2023-05-03 15:09:42.651,46.0898517,11.115595,0.07,22.98,3.15,null
SMAR,2023-05-03 15:09:42.685,46.0898517,11.115595,0.09,23.46,3.18,null
SMAR,2023-05-03 15:09:42.715,46.0898517,11.115595,0.09,23.88,3.2,null
SMAR,2023-05-03 15:09:42.737,46.0898517,11.115595,0.08,23.98,3.2,null
STON,2023-05-03 15:09:42.737,46.089834895,11.115564046666666,-0.34275,70.992073,1.429906,2
STON,2023-05-03 15:09:42.737,46.089834895,11.115564046666666,0.404951,71.00473,2.015843,2
SMAR,2023-05-03 15:09:42.776,46.0898517,11.115595,0.07,23.85,3.21,null
SMAR,2023-05-03 15:09:42.818,46.0898517,11.115595,0.05,23.58,3.17,null
SMAR,2023-05-03 15:09:42.861,46.0898517,11.115595,0.02,23.19,3.15,null
SMAR,2023-05-03 15:09:42.88,46.0898517,11.115595,-0.05,22.91,3.11,null
STON,2023-05-03 15:09:42.88,46.08983490333333,11.11556404,0.404951,71.00473,2.015843,2
SMAR,2023-05-03 15:09:42.909,46.0898517,11.115595,-0.08,22.73,3.11,null
SMAR,2023-05-03 15:09:42.948,46.0898517,11.115595,-0.12,22.73,3.09,null
SMAR,2023-05-03 15:09:42.979,46.0898517,11.115595,-0.14,22.75,3.12,null
STON,2023-05-03 15:09:42.979,46.08983490333333,11.11556404,0.382802,71.728149,2.002145,2
SMAR,2023-05-03 15:09:43.008,46.0898517,11.115595,-0.2,22.81,3.13,null
SMAR,2023-05-03 15:09:43.045,46.0898517,11.115595,-0.22,22.74,3.18,null
SMAR,2023-05-03 15:09:43.078,46.0898517,11.115595,-0.29,22.78,3.19,null
STON,2023-05-03 15:09:43.078,46.08983492833333,11.115564128333334,0.382802,71.728149,2.002145,2
SMAR,2023-05-03 15:09:43.11,46.0898517,11.115595,-0.3,22.76,3.16,null
SMAR,2023-05-03 15:09:43.143,46.0898517,11.115595,-0.36,22.86,3.16,null
SMAR,2023-05-03 15:09:43.174,46.0898517,11.115595,-0.37,22.87,3.07,null
STON,2023-05-03 15:09:43.174,46.08983492833333,11.115564128333334,0.149645,71.076653,1.967026,2
SMAR,2023-05-03 15:09:43.209,46.0898517,11.115595,-0.44,23.03,3.04,null
SMAR,2023-05-03 15:09:43.247,46.0898517,11.115595,-0.41,23.28,2.97,null
SMAR,2023-05-03 15:09:43.284,46.0898517,11.115595,-0.37,23.76,2.88,null
STON,2023-05-03 15:09:43.284,46.08983499666667,11.115564168333334,0.149645,71.076653,1.967026,2
SMAR,2023-05-03 15:09:43.318,46.0898517,11.115595,-0.31,24.3,2.73,null
SMAR,2023-05-03 15:09:43.351,46.0898517,11.115595,-0.31,24.94,2.65,null
SMAR,2023-05-03 15:09:43.38,46.0898517,11.115595,-0.32,25.97,2.61,null
STON,2023-05-03 15:09:43.38,46.08983499666667,11.115564168333334,-0.077075,71.393021,1.849418,2
SMAR,2023-05-03 15:09:43.415,46.0898517,11.115595,-0.26,27.57,2.51,null
SMAR,2023-05-03 15:09:43.456,46.0898517,11.115595,-0.22,30.05,2.4,null
STON,2023-05-03 15:09:43.456,46.08983512333333,11.115563983333333,-0.077075,71.393021,1.849418,2
SMAR,2023-05-03 15:09:43.48,46.0898517,11.115595,-0.19,33.87,2.28,null
SMAR,2023-05-03 15:09:43.512,46.0898517,11.115595,-0.13,39.02,2.22,null
SMAR,2023-05-03 15:09:43.546,46.0898517,11.115595,-0.1,45.13,2.17,null
STON,2023-05-03 15:09:43.546,46.08983512333333,11.115563983333333,0.122854,76.540741,1.275314,2
SMAR,2023-05-03 15:09:43.58,46.0898517,11.115595,-0.04,51.56,2.16,null
SMAR,2023-05-03 15:09:43.614,46.0898517,11.115595,-0.08,57.84,2.18,null
SMAR,2023-05-03 15:09:43.647,46.0898517,11.115595,-0.13,64.1,2.15,null
SMAR,2023-05-03 15:09:43.684,46.0898517,11.115595,-0.19,71.02,2.16,null
SMAR,2023-05-03 15:09:43.71,46.0898517,11.115595,-0.32,79.16,2.13,null
SMAR,2023-05-03 15:09:43.739,46.0898517,11.115595,-0.39,88.12,2.12,null
SMAR,2023-05-03 15:09:43.777,46.0898517,11.115595,-0.55,97.22,2.06,null
STON,2023-05-03 15:09:43.777,46.08983526833333,11.115563613333334,0.122854,76.540741,1.275314,2
STON,2023-05-03 15:09:43.777,46.08983526833333,11.115563613333334,0.259343,108.015854,0.948496,2
SMAR,2023-05-03 15:09:43.813,46.0898517,11.115595,-0.67,105.64,1.9,null
SMAR,2023-05-03 15:09:43.845,46.0898517,11.115595,-0.7,112.54,1.79,null
STON,2023-05-03 15:09:43.845,46.08983540333333,11.11556351,0.259343,108.015854,0.948496,2
SMAR,2023-05-03 15:09:43.879,46.0898517,11.115595,-0.76,117.26,1.68,null
SMAR,2023-05-03 15:09:43.91,46.0898517,11.115595,-0.75,119.36,1.65,null
SMAR,2023-05-03 15:09:43.941,46.0898517,11.115595,-0.74,119.58,1.71,null
SMAR,2023-05-03 15:09:43.979,46.0898517,11.115595,-0.72,118.85,1.81,null
STON,2023-05-03 15:09:43.979,46.08983540333333,11.11556351,-0.324317,155.859924,0.566984,2
SMAR,2023-05-03 15:09:44.009,46.0898517,11.115595,-0.67,117.79,1.9,null
SMAR,2023-05-03 15:09:44.047,46.0898517,11.115595,-0.63,116.98,1.97,null
SMAR,2023-05-03 15:09:44.08,46.0898517,11.115595,-0.58,116.67,2.02,null
SMAR,2023-05-03 15:09:44.115,46.0898517,11.115595,-0.51,116.69,2.05,null
STON,2023-05-03 15:09:44.115,46.08983544,11.115563446666666,-0.324317,155.859924,0.566984,2
SMAR,2023-05-03 15:09:44.154,46.0898517,11.115595,-0.46,117.06,2.0,null
SMAR,2023-05-03 15:09:44.183,46.0898517,11.115595,-0.33,117.58,2.06,null
STON,2023-05-03 15:09:44.183,46.08983544,11.115563446666666,-0.296158,165.732056,0.598909,2
SMAR,2023-05-03 15:09:44.21,46.0898517,11.115595,-0.24,117.88,2.12,null
SMAR,2023-05-03 15:09:44.246,46.0898517,11.115595,-0.13,117.67,2.16,null
SMAR,2023-05-03 15:09:44.278,46.0898517,11.115595,-0.03,116.99,2.2,null
SMAR,2023-05-03 15:09:44.318,46.0898517,11.115595,0.03,116.06,2.13,null
SMAR,2023-05-03 15:09:44.353,46.0898517,11.115595,0.08,115.61,2.11,null
STON,2023-05-03 15:09:44.353,46.089835585,11.115563363333333,-0.296158,165.732056,0.598909,2
STON,2023-05-03 15:09:44.353,46.089835585,11.115563363333333,0.159979,166.287567,0.816981,2
SMAR,2023-05-03 15:09:44.387,46.0898517,11.115595,0.15,115.27,2.12,null
SMAR,2023-05-03 15:09:44.415,46.0898517,11.115595,0.22,115.15,2.09,null
SMAR,2023-05-03 15:09:44.453,46.0898517,11.115595,0.3,115.25,2.05,null
SMAR,2023-05-03 15:09:44.488,46.0898517,11.115595,0.39,115.39,2.01,null
STON,2023-05-03 15:09:44.488,46.0898357,11.115563355,0.159979,166.287567,0.816981,2
SMAR,2023-05-03 15:09:44.517,46.0898517,11.115595,0.48,115.46,1.98,null
SMAR,2023-05-03 15:09:44.552,46.0898517,11.115595,0.52,115.42,1.96,null
SMAR,2023-05-03 15:09:44.585,46.0898517,11.115595,0.54,115.5,1.93,null
STON,2023-05-03 15:09:44.585,46.0898357,11.115563355,0.608751,163.431473,0.761288,2
SMAR,2023-05-03 15:09:44.618,46.0898517,11.115595,0.59,115.77,1.91,null
SMAR,2023-05-03 15:09:44.651,46.0898517,11.115595,0.61,116.2,1.87,null
SMAR,2023-05-03 15:09:44.683,46.0898517,11.115595,0.62,116.61,1.86,null
SMAR,2023-05-03 15:09:44.719,46.0898517,11.115595,0.62,117.02,1.82,null
STON,2023-05-03 15:09:44.719,46.089835815,11.115563366666667,0.608751,163.431473,0.761288,2
SMAR,2023-05-03 15:09:44.746,46.0898517,11.115595,0.64,117.4,1.82,null
SMAR,2023-05-03 15:09:44.784,46.0898517,11.115595,0.65,117.8,1.79,null
STON,2023-05-03 15:09:44.784,46.089835815,11.115563366666667,1.006435,164.166199,0.593709,2
SMAR,2023-05-03 15:09:44.816,46.0898517,11.115595,0.68,118.2,1.74,null
SMAR,2023-05-03 15:09:44.85,46.0898517,11.115595,0.7,118.65,1.68,null
SMAR,2023-05-03 15:09:44.884,46.0898517,11.115595,0.73,119.21,1.6,null
STON,2023-05-03 15:09:44.884,46.08983588,11.11556343,1.006435,164.166199,0.593709,2
SMAR,2023-05-03 15:09:44.915,46.0898517,11.115595,0.79,120.02,1.58,null
SMAR,2023-05-03 15:09:44.952,46.0898517,11.115595,0.91,120.99,1.55,null
SMAR,2023-05-03 15:09:44.984,46.0898517,11.115595,1.04,122.04,1.49,null
STON,2023-05-03 15:09:44.984,46.08983588,11.11556343,1.133092,166.588608,0.425472,2
SMAR,2023-05-03 15:09:45.022,46.0898517,11.115595,1.14,123.03,1.5,null
SMAR,2023-05-03 15:09:45.05,46.0898517,11.115595,1.23,123.95,1.53,null
SMAR,2023-05-03 15:09:45.088,46.0898517,11.115595,1.32,124.99,1.56,null
STON,2023-05-03 15:09:45.088,46.08983605666667,11.115563523333334,1.133092,166.588608,0.425472,2
SMAR,2023-05-03 15:09:45.117,46.0898517,11.115595,1.42,126.31,1.64,null
SMAR,2023-05-03 15:09:45.15,46.0898517,11.115595,1.48,128.37,1.71,null
STON,2023-05-03 15:09:45.15,46.08983605666667,11.115563523333334,1.6344,171.524597,0.188821,2
SMAR,2023-05-03 15:09:45.189,46.0898517,11.115595,1.54,131.6,1.87,null
SMAR,2023-05-03 15:09:45.215,46.0898517,11.115595,1.51,136.91,2.03,null
SMAR,2023-05-03 15:09:45.249,46.0898517,11.115595,1.57,144.49,2.34,null
SMAR,2023-05-03 15:09:45.282,46.0898517,11.115595,1.45,153.79,2.74,null
SMAR,2023-05-03 15:09:45.318,46.0898517,11.115595,1.27,163.69,3.06,null
STON,2023-05-03 15:09:45.318,46.089836235,11.115563421666666,1.6344,171.524597,0.188821,2
SMAR,2023-05-03 15:09:45.35,46.0898517,11.115595,1.07,173.18,3.43,null
SMAR,2023-05-03 15:09:45.385,46.0898517,11.115595,0.73,-178.02,3.64,null
STON,2023-05-03 15:09:45.385,46.089836235,11.115563421666666,2.044946,-173.745972,0.771482,2
SMAR,2023-05-03 15:09:45.418,46.0898517,11.115595,0.38,-170.5,3.82,null
SMAR,2023-05-03 15:09:45.451,46.0898517,11.115595,0.02,-164.65,3.98,null
STON,2023-05-03 15:09:45.451,46.08983652166667,11.115563423333333,2.044946,-173.745972,0.771482,2
SMAR,2023-05-03 15:09:45.484,46.0898517,11.115595,-0.3,-160.6,4.02,null
SMAR,2023-05-03 15:09:45.518,46.0898517,11.115595,-0.54,-158.28,4.11,null
SMAR,2023-05-03 15:09:45.55,46.0898517,11.115595,-0.69,-157.56,4.2,null
SMAR,2023-05-03 15:09:45.582,46.0898517,11.115595,-0.8,-157.53,4.22,null
SMAR,2023-05-03 15:09:45.616,46.0898517,11.115595,-0.91,-157.13,4.29,null
SMAR,2023-05-03 15:09:45.655,46.0898517,11.115595,-1.01,-156.14,4.34,null
STON,2023-05-03 15:09:45.655,46.08983652166667,11.115563423333333,0.871773,-121.637146,2.648556,2
SMAR,2023-05-03 15:09:45.685,46.0898517,11.115595,-1.15,-154.68,4.33,null
SMAR,2023-05-03 15:09:45.719,46.0898517,11.115595,-1.32,-152.73,4.33,null
STON,2023-05-03 15:09:45.719,46.089836553333335,11.11556318,0.871773,-121.637146,2.648556,2
SMAR,2023-05-03 15:09:45.753,46.0898517,11.115595,-1.45,-150.58,4.29,null
SMAR,2023-05-03 15:09:45.787,46.0898517,11.115595,-1.6,-148.59,4.25,null
STON,2023-05-03 15:09:45.787,46.089836553333335,11.11556318,-0.437518,-109.071564,3.123858,2
SMAR,2023-05-03 15:09:45.819,46.0898517,11.115595,-1.73,-146.92,4.24,null
SMAR,2023-05-03 15:09:45.849,46.0898517,11.115595,-1.79,-145.79,4.25,null
SMAR,2023-05-03 15:09:45.881,46.0898517,11.115595,-1.84,-145.14,4.24,null
SMAR,2023-05-03 15:09:45.92,46.0898517,11.115595,-1.86,-144.89,4.22,null
SMAR,2023-05-03 15:09:45.949,46.0898517,11.115595,-1.86,-144.83,4.2,null
STON,2023-05-03 15:09:45.949,46.089836575,11.11556311,-0.437518,-109.071564,3.123858,2
STON,2023-05-03 15:09:45.949,46.089836575,11.11556311,-1.248532,-98.910797,3.07579,2
SMAR,2023-05-03 15:09:45.983,46.0898517,11.115595,-1.84,-144.9,4.19,null
SMAR,2023-05-03 15:09:46.019,46.0898517,11.115595,-1.84,-145.01,4.17,null
SMAR,2023-05-03 15:09:46.054,46.0898517,11.115595,-1.87,-145.0,4.15,null
SMAR,2023-05-03 15:09:46.083,46.0898517,11.115595,-1.84,-144.88,4.08,null
STON,2023-05-03 15:09:46.083,46.089836555,11.115563116666667,-1.248532,-98.910797,3.07579,2
SMAR,2023-05-03 15:09:46.116,46.0898517,11.115595,-1.86,-144.68,4.04,null
SMAR,2023-05-03 15:09:46.151,46.0898517,11.115595,-1.83,-144.62,4.02,null
SMAR,2023-05-03 15:09:46.192,46.0898517,11.115595,-1.84,-144.57,3.99,null
SMAR,2023-05-03 15:09:46.222,46.0898517,11.115595,-1.82,-144.69,3.98,null
SMAR,2023-05-03 15:09:46.25,46.0898517,11.115595,-1.85,-144.82,3.98,null
STON,2023-05-03 15:09:46.25,46.089836555,11.115563116666667,-1.341252,-97.136169,2.983093,2
SMAR,2023-05-03 15:09:46.281,46.0898517,11.115595,-1.86,-144.95,4.01,null
SMAR,2023-05-03 15:09:46.317,46.0898517,11.115595,-1.93,-144.79,3.97,null
STON,2023-05-03 15:09:46.317,46.08983651,11.115563145,-1.341252,-97.136169,2.983093,2
SMAR,2023-05-03 15:09:46.35,46.0898517,11.115595,-1.89,-144.56,4.12,null
SMAR,2023-05-03 15:09:46.386,46.0898517,11.115595,-1.95,-144.15,4.2,null
SMAR,2023-05-03 15:09:46.418,46.0898517,11.115595,-1.85,-143.97,4.27,null
STON,2023-05-03 15:09:46.418,46.08983651,11.115563145,-1.28074,-96.810295,2.760858,2
SMAR,2023-05-03 15:09:46.449,46.0898517,11.115595,-1.74,-143.73,4.36,null
SMAR,2023-05-03 15:09:46.486,46.0898517,11.115595,-1.58,-143.5,4.4,null
SMAR,2023-05-03 15:09:46.516,46.0898517,11.115595,-1.41,-143.14,4.53,null
STON,2023-05-03 15:09:46.516,46.08983659333333,11.115563158333334,-1.28074,-96.810295,2.760858,2
SMAR,2023-05-03 15:09:46.55,46.0898517,11.115595,-1.22,-142.71,4.56,null
SMAR,2023-05-03 15:09:46.585,46.0898517,11.115595,-1.05,-142.18,4.66,null
STON,2023-05-03 15:09:46.585,46.08983659333333,11.115563158333334,-1.310644,-96.08268,3.042607,2
SMAR,2023-05-03 15:09:46.615,46.0898517,11.115595,-0.88,-141.56,4.69,null
SMAR,2023-05-03 15:09:46.655,46.0898517,11.115595,-0.72,-140.84,4.71,null
SMAR,2023-05-03 15:09:46.682,46.0898517,11.115595,-0.54,-140.08,4.71,null
SMAR,2023-05-03 15:09:46.715,46.0898517,11.115595,-0.39,-139.3,4.68,null
SMAR,2023-05-03 15:09:46.75,46.0898517,11.115595,-0.28,-138.47,4.67,null
STON,2023-05-03 15:09:46.75,46.08983675333333,11.115563548333334,-1.310644,-96.08268,3.042607,2
STON,2023-05-03 15:09:46.75,46.08983675333333,11.115563548333334,-0.328174,-93.556648,3.466784,2
SMAR,2023-05-03 15:09:46.784,46.0898517,11.115595,-0.22,-137.34,4.61,null
SMAR,2023-05-03 15:09:46.819,46.0898517,11.115595,-0.2,-135.5,4.59,null
SMAR,2023-05-03 15:09:46.85,46.0898517,11.115595,-0.35,-132.1,4.54,null
SMAR,2023-05-03 15:09:46.881,46.0898517,11.115595,-0.56,-126.28,4.44,null
SMAR,2023-05-03 15:09:46.915,46.0898517,11.115595,-0.84,-117.8,4.39,null
STON,2023-05-03 15:09:46.915,46.089836723333335,11.115564008333333,-0.328174,-93.556648,3.466784,2
SMAR,2023-05-03 15:09:46.942,46.0898517,11.115595,-1.15,-107.81,4.27,null
SMAR,2023-05-03 15:09:46.985,46.0898517,11.115595,-1.45,-97.47,4.14,null
STON,2023-05-03 15:09:46.985,46.089836723333335,11.115564008333333,0.342948,-87.38446,3.386242,2
SMAR,2023-05-03 15:09:47.019,46.0898517,11.115595,-1.73,-87.43,3.95,null
SMAR,2023-05-03 15:09:47.053,46.0898517,11.115595,-1.9,-78.3,3.82,null
SMAR,2023-05-03 15:09:47.085,46.0898517,11.115595,-2.07,-70.91,3.73,null
SMAR,2023-05-03 15:09:47.122,46.0898517,11.115595,-2.18,-66.06,3.68,null
SMAR,2023-05-03 15:09:47.155,46.0898517,11.115595,-2.19,-64.01,3.78,null
SMAR,2023-05-03 15:09:47.188,46.0898517,11.115595,-2.15,-64.02,3.85,null
SMAR,2023-05-03 15:09:47.221,46.0898517,11.115595,-2.01,-65.26,4.01,null
SMAR,2023-05-03 15:09:47.253,46.0898517,11.115595,-1.87,-66.86,4.13,null
SMAR,2023-05-03 15:09:47.287,46.0898517,11.115595,-1.73,-68.17,4.22,null
SMAR,2023-05-03 15:09:47.321,46.0898517,11.115595,-1.56,-68.87,4.32,null
SMAR,2023-05-03 15:09:47.353,46.0898517,11.115595,-1.43,-68.93,4.34,null
SMAR,2023-05-03 15:09:47.389,46.0898517,11.115595,-1.3,-68.5,4.38,null
SMAR,2023-05-03 15:09:47.425,46.0898517,11.115595,-1.16,-67.77,4.39,null
STON,2023-05-03 15:09:47.425,46.089836438333336,11.115564556666667,0.342948,-87.38446,3.386242,2
STON,2023-05-03 15:09:47.425,46.089836438333336,11.115564556666667,-1.224793,-39.386086,2.820112,2
STON,2023-05-03 15:09:47.425,46.089836256666665,11.115564908333333,-1.224793,-39.386086,2.820112,2
STON,2023-05-03 15:09:47.425,46.089836256666665,11.115564908333333,-1.56159,-17.699963,2.898315,2
SMAR,2023-05-03 15:09:47.451,46.0898517,11.115595,-0.95,-67.18,4.39,null
STON,2023-05-03 15:09:47.451,46.089836085,11.115565093333334,-1.56159,-17.699963,2.898315,2
SMAR,2023-05-03 15:09:47.489,46.0898517,11.115595,-0.8,-66.9,4.39,null
STON,2023-05-03 15:09:47.489,46.089836085,11.115565093333334,-0.69945,-20.078867,3.253196,2
SMAR,2023-05-03 15:09:47.525,46.0898517,11.115595,-0.66,-67.02,4.38,null
SMAR,2023-05-03 15:09:47.56,46.0898517,11.115595,-0.48,-67.5,4.37,null
SMAR,2023-05-03 15:09:47.596,46.0898517,11.115595,-0.31,-68.15,4.29,null
SMAR,2023-05-03 15:09:47.627,46.0898517,11.115595,-0.11,-68.91,4.23,null
SMAR,2023-05-03 15:09:47.658,46.0898517,11.115595,0.05,-69.67,4.15,null
SMAR,2023-05-03 15:09:47.693,46.0898517,11.115595,0.24,-70.44,4.06,null
STON,2023-05-03 15:09:47.693,46.08983580833333,11.115565161666666,-0.69945,-20.078867,3.253196,2
SMAR,2023-05-03 15:09:47.725,46.0898517,11.115595,0.42,-71.16,3.95,null
STON,2023-05-03 15:09:47.725,46.08983580833333,11.115565161666666,0.269049,-21.094398,3.076217,2
SMAR,2023-05-03 15:09:47.758,46.0898517,11.115595,0.57,-71.91,3.84,null
SMAR,2023-05-03 15:09:47.793,46.0898517,11.115595,0.74,-72.73,3.74,null
SMAR,2023-05-03 15:09:47.83,46.0898517,11.115595,0.89,-73.68,3.61,null
STON,2023-05-03 15:09:47.83,46.08983556166667,11.115565091666667,0.269049,-21.094398,3.076217,2
SMAR,2023-05-03 15:09:47.872,46.0898517,11.115595,1.0,-74.82,3.49,null
SMAR,2023-05-03 15:09:47.893,46.0898517,11.115595,1.11,-76.12,3.37,null
SMAR,2023-05-03 15:09:47.924,46.0898517,11.115595,1.24,-77.53,3.25,null
SMAR,2023-05-03 15:09:47.956,46.0898517,11.115595,1.33,-78.84,3.18,null
SMAR,2023-05-03 15:09:47.995,46.0898517,11.115595,1.44,-80.03,3.09,null
SMAR,2023-05-03 15:09:48.028,46.0898517,11.115595,1.52,-80.95,3.06,null
SMAR,2023-05-03 15:09:48.071,46.0898517,11.115595,1.62,-81.67,3.01,null
STON,2023-05-03 15:09:48.071,46.089835465,11.115564973333333,0.269049,-21.094398,3.076217,2
SMAR,2023-05-03 15:09:48.096,46.0898517,11.115595,1.68,-82.08,2.99,null
SMAR,2023-05-03 15:09:48.131,46.0898517,11.115595,1.78,-82.22,2.91,null
STON,2023-05-03 15:09:48.131,46.089835465,11.115564973333333,1.94104,-32.952099,1.902617,2
SMAR,2023-05-03 15:09:48.157,46.0898517,11.115595,1.88,-82.07,2.85,null
SMAR,2023-05-03 15:09:48.191,46.0898517,11.115595,1.99,-81.82,2.74,null
SMAR,2023-05-03 15:09:48.223,46.0898517,11.115595,2.06,-81.52,2.62,null
SMAR,2023-05-03 15:09:48.255,46.0898517,11.115595,2.14,-81.23,2.52,null
SMAR,2023-05-03 15:09:48.289,46.0898517,11.115595,2.19,-80.81,2.43,null
STON,2023-05-03 15:09:48.289,46.08983527,11.115564923333332,1.94104,-32.952099,1.902617,2
STON,2023-05-03 15:09:48.289,46.08983527,11.115564923333332,2.475902,-33.539982,1.465513,2
SMAR,2023-05-03 15:09:48.322,46.0898517,11.115595,2.27,-80.35,2.36,null
SMAR,2023-05-03 15:09:48.36,46.0898517,11.115595,2.3,-79.77,2.27,null
SMAR,2023-05-03 15:09:48.392,46.0898517,11.115595,2.36,-79.0,2.18,null
SMAR,2023-05-03 15:09:48.428,46.0898517,11.115595,2.39,-77.58,2.13,null
SMAR,2023-05-03 15:09:48.462,46.0898517,11.115595,2.45,-75.26,2.14,null
STON,2023-05-03 15:09:48.462,46.089835125,11.115564731666666,2.475902,-33.539982,1.465513,2
SMAR,2023-05-03 15:09:48.494,46.0898517,11.115595,2.5,-71.82,2.23,null
SMAR,2023-05-03 15:09:48.526,46.0898517,11.115595,2.55,-67.42,2.4,null
STON,2023-05-03 15:09:48.526,46.089835125,11.115564731666666,2.817876,-29.694796,0.981291,2
SMAR,2023-05-03 15:09:48.568,46.0898517,11.115595,2.59,-62.12,2.59,null
SMAR,2023-05-03 15:09:48.594,46.0898517,11.115595,2.58,-55.89,2.92,null
SMAR,2023-05-03 15:09:48.62,46.0898517,11.115595,2.53,-48.91,3.29,null
SMAR,2023-05-03 15:09:48.661,46.0898517,11.115595,2.41,-41.46,3.68,null
SMAR,2023-05-03 15:09:48.692,46.0898517,11.115595,2.21,-33.67,4.05,null
STON,2023-05-03 15:09:48.692,46.08983476666667,11.115564713333333,2.817876,-29.694796,0.981291,2
SMAR,2023-05-03 15:09:48.728,46.0898517,11.115595,1.8,-25.12,4.42,null
SMAR,2023-05-03 15:09:48.759,46.0898517,11.115595,1.47,-16.54,4.81,null
STON,2023-05-03 15:09:48.759,46.08983476666667,11.115564713333333,2.945047,-1.562574,2.099465,2
SMAR,2023-05-03 15:09:48.791,46.0898517,11.115595,1.04,-8.4,5.01,null
SMAR,2023-05-03 15:09:48.823,46.0898517,11.115595,0.58,-1.07,5.19,null
SMAR,2023-05-03 15:09:48.859,46.0898517,11.115595,0.16,4.98,5.34,null
STON,2023-05-03 15:09:48.859,46.08983447,11.115564685,2.945047,-1.562574,2.099465,2
SMAR,2023-05-03 15:09:48.892,46.0898517,11.115595,-0.2,9.4,5.4,null
SMAR,2023-05-03 15:09:48.927,46.0898517,11.115595,-0.48,11.95,5.48,null
STON,2023-05-03 15:09:48.927,46.08983447,11.115564685,1.009463,45.920238,3.938799,2
SMAR,2023-05-03 15:09:48.955,46.0898517,11.115595,-0.52,12.56,5.49,null
SMAR,2023-05-03 15:09:48.99,46.0898517,11.115595,-0.45,11.67,5.49,null
SMAR,2023-05-03 15:09:49.025,46.0898517,11.115595,-0.38,10.18,5.51,null
SMAR,2023-05-03 15:09:49.055,46.0898517,11.115595,-0.28,8.79,5.5,null
STON,2023-05-03 15:09:49.055,46.089834423333336,11.115564746666667,1.009463,45.920238,3.938799,2
SMAR,2023-05-03 15:09:49.093,46.0898517,11.115595,-0.13,7.97,5.47,null
SMAR,2023-05-03 15:09:49.13,46.0898517,11.115595,-0.07,7.96,5.41,null
STON,2023-05-03 15:09:49.13,46.089834423333336,11.115564746666667,-0.043958,58.176907,4.272413,2
SMAR,2023-05-03 15:09:49.157,46.0898517,11.115595,0.0,8.54,5.36,null
SMAR,2023-05-03 15:09:49.193,46.0898517,11.115595,0.07,9.46,5.33,null
SMAR,2023-05-03 15:09:49.227,46.0898517,11.115595,0.2,10.31,5.29,null
SMAR,2023-05-03 15:09:49.258,46.0898517,11.115595,0.3,10.96,5.25,null
STON,2023-05-03 15:09:49.258,46.089834378333336,11.115564543333333,-0.043958,58.176907,4.272413,2
SMAR,2023-05-03 15:09:49.294,46.0898517,11.115595,0.4,11.27,5.27,null
SMAR,2023-05-03 15:09:49.33,46.0898517,11.115595,0.49,11.24,5.29,null
SMAR,2023-05-03 15:09:49.37,46.0898517,11.115595,0.57,10.91,5.31,null
STON,2023-05-03 15:09:49.37,46.089834378333336,11.115564543333333,0.524976,58.129669,4.073672,2
SMAR,2023-05-03 15:09:49.4,46.0898517,11.115595,0.65,10.56,5.33,null
SMAR,2023-05-03 15:09:49.423,46.0898517,11.115595,0.76,10.21,5.34,null
SMAR,2023-05-03 15:09:49.465,46.0898517,11.115595,0.86,9.9,5.31,null
SMAR,2023-05-03 15:09:49.494,46.0898517,11.115595,1.0,9.53,5.28,null
STON,2023-05-03 15:09:49.494,46.08983428,11.115564355,0.524976,58.129669,4.073672,2
SMAR,2023-05-03 15:09:49.53,46.0898517,11.115595,1.13,9.1,5.24,null
SMAR,2023-05-03 15:09:49.56,46.0898517,11.115595,1.25,8.63,5.2,null
SMAR,2023-05-03 15:09:49.595,46.0898517,11.115595,1.37,8.29,5.15,null
STON,2023-05-03 15:09:49.595,46.08983428,11.115564355,1.082989,58.344707,4.130634,2
SMAR,2023-05-03 15:09:49.626,46.0898517,11.115595,1.51,8.15,5.09,null
SMAR,2023-05-03 15:09:49.667,46.0898517,11.115595,1.62,8.26,5.02,null
SMAR,2023-05-03 15:09:49.692,46.0898517,11.115595,1.76,8.45,4.93,null
SMAR,2023-05-03 15:09:49.73,46.0898517,11.115595,1.9,8.61,4.84,null
SMAR,2023-05-03 15:09:49.766,46.0898517,11.115595,2.02,8.6,4.75,null
STON,2023-05-03 15:09:49.766,46.089834233333335,11.115564121666667,1.082989,58.344707,4.130634,2
STON,2023-05-03 15:09:49.766,46.089834233333335,11.115564121666667,1.848535,56.340416,3.899473,2
SMAR,2023-05-03 15:09:49.79,46.0898517,11.115595,2.16,8.44,4.65,null
SMAR,2023-05-03 15:09:49.827,46.0898517,11.115595,2.3,8.26,4.51,null
STON,2023-05-03 15:09:49.827,46.089834235,11.1155637,1.848535,56.340416,3.899473,2
SMAR,2023-05-03 15:09:49.861,46.0898517,11.115595,2.44,8.17,4.37,null
SMAR,2023-05-03 15:09:49.9,46.0898517,11.115595,2.57,8.18,4.2,null
STON,2023-05-03 15:09:49.9,46.089834235,11.1155637,2.674375,56.549038,3.3153,2
SMAR,2023-05-03 15:09:49.928,46.0898517,11.115595,2.71,8.2,4.03,null
SMAR,2023-05-03 15:09:49.963,46.0898517,11.115595,2.81,8.15,3.87,null
SMAR,2023-05-03 15:09:49.997,46.0898517,11.115595,2.89,8.08,3.73,null
SMAR,2023-05-03 15:09:50.029,46.0898517,11.115595,2.98,8.02,3.61,null
STON,2023-05-03 15:09:50.029,46.08983437166667,11.115563265,2.674375,56.549038,3.3153,2
SMAR,2023-05-03 15:09:50.06,46.0898517,11.115595,3.01,7.97,3.51,null
SMAR,2023-05-03 15:09:50.098,46.0898517,11.115595,3.03,7.96,3.4,null
SMAR,2023-05-03 15:09:50.13,46.0898517,11.115595,3.03,8.1,3.32,null
STON,2023-05-03 15:09:50.13,46.08983437166667,11.115563265,3.36725,56.318851,2.39589,2
SMAR,2023-05-03 15:09:50.167,46.0898517,11.115595,3.0,8.37,3.28,null
SMAR,2023-05-03 15:09:50.197,46.0898517,11.115595,2.94,8.86,3.27,null
SMAR,2023-05-03 15:09:50.232,46.0898517,11.115595,2.88,9.57,3.29,null
STON,2023-05-03 15:09:50.232,46.089834493333335,11.115563135,3.36725,56.318851,2.39589,2
SMAR,2023-05-03 15:09:50.272,46.0898517,11.115595,2.8,10.55,3.31,null
SMAR,2023-05-03 15:09:50.305,46.0898517,11.115595,2.69,11.82,3.38,null
SMAR,2023-05-03 15:09:50.34,46.0898517,11.115595,2.51,13.81,3.48,null
SMAR,2023-05-03 15:09:50.378,46.0898517,11.115595,2.26,17.48,3.63,null
SMAR,2023-05-03 15:09:50.411,46.0898517,11.115595,2.02,23.39,3.87,null
STON,2023-05-03 15:09:50.411,46.089834493333335,11.115563135,3.325457,57.694977,2.016002,2
SMAR,2023-05-03 15:09:50.438,46.0898517,11.115595,1.66,31.13,4.19,null
SMAR,2023-05-03 15:09:50.472,46.0898517,11.115595,1.22,39.91,4.39,null
SMAR,2023-05-03 15:09:50.5,46.0898517,11.115595,0.75,49.18,4.56,null
STON,2023-05-03 15:09:50.5,46.08983455166667,11.115563191666666,3.325457,57.694977,2.016002,2
SMAR,2023-05-03 15:09:50.535,46.0898517,11.115595,0.23,58.8,4.7,null
SMAR,2023-05-03 15:09:50.564,46.0898517,11.115595,-0.2,68.15,4.73,null
STON,2023-05-03 15:09:50.564,46.08983455166667,11.115563191666666,2.214325,77.450813,2.880638,2
SMAR,2023-05-03 15:09:50.59,46.0898517,11.115595,-0.66,77.4,4.63,null
SMAR,2023-05-03 15:09:50.629,46.0898517,11.115595,-1.07,86.52,4.43,null
SMAR,2023-05-03 15:09:50.66,46.0898517,11.115595,-1.37,95.33,4.28,null
SMAR,2023-05-03 15:09:50.688,46.0898517,11.115595,-1.56,103.11,4.08,null
STON,2023-05-03 15:09:50.688,46.089834685,11.115562931666666,2.214325,77.450813,2.880638,2
STON,2023-05-03 15:09:50.688,46.089834685,11.115562931666666,-0.528851,132.204285,3.256296,2
SMAR,2023-05-03 15:09:50.727,46.0898517,11.115595,-1.64,109.27,3.88,null
SMAR,2023-05-03 15:09:50.76,46.0898517,11.115595,-1.73,113.13,3.82,null
SMAR,2023-05-03 15:09:50.795,46.0898517,11.115595,-1.69,114.44,3.79,null
SMAR,2023-05-03 15:09:50.828,46.0898517,11.115595,-1.58,113.78,3.77,null
STON,2023-05-03 15:09:50.828,46.089834985,11.115562825,-0.528851,132.204285,3.256296,2
SMAR,2023-05-03 15:09:50.862,46.0898517,11.115595,-1.42,111.96,3.8,null
SMAR,2023-05-03 15:09:50.893,46.0898517,11.115595,-1.23,109.79,3.79,null
STON,2023-05-03 15:09:50.893,46.089834985,11.115562825,-1.173149,161.795929,2.534669,2
SMAR,2023-05-03 15:09:50.927,46.0898517,11.115595,-1.02,107.71,3.77,null
SMAR,2023-05-03 15:09:50.961,46.0898517,11.115595,-0.81,106.05,3.72,null
SMAR,2023-05-03 15:09:50.995,46.0898517,11.115595,-0.57,104.62,3.65,null
SMAR,2023-05-03 15:09:51.03,46.0898517,11.115595,-0.34,103.45,3.57,null
STON,2023-05-03 15:09:51.03,46.089835225,11.115562883333334,-1.173149,161.795929,2.534669,2
SMAR,2023-05-03 15:09:51.067,46.0898517,11.115595,-0.15,102.58,3.46,null
SMAR,2023-05-03 15:09:51.094,46.0898517,11.115595,0.03,101.74,3.35,null
STON,2023-05-03 15:09:51.094,46.089835225,11.115562883333334,0.055979,151.555557,2.344758,2
SMAR,2023-05-03 15:09:51.135,46.0898517,11.115595,0.2,100.92,3.18,null
SMAR,2023-05-03 15:09:51.164,46.0898517,11.115595,0.33,100.4,3.01,null
SMAR,2023-05-03 15:09:51.197,46.0898517,11.115595,0.46,99.94,2.84,null
SMAR,2023-05-03 15:09:51.231,46.0898517,11.115595,0.56,99.71,2.67,null
SMAR,2023-05-03 15:09:51.266,46.0898517,11.115595,0.66,99.62,2.49,null
STON,2023-05-03 15:09:51.266,46.08983551,11.115563066666667,0.055979,151.555557,2.344758,2
SMAR,2023-05-03 15:09:51.296,46.0898517,11.115595,0.76,99.54,2.3,null
SMAR,2023-05-03 15:09:51.33,46.0898517,11.115595,0.85,99.51,2.12,null
STON,2023-05-03 15:09:51.33,46.08983551,11.115563066666667,0.960915,147.416794,1.458901,2
SMAR,2023-05-03 15:09:51.365,46.0898517,11.115595,0.9,99.6,1.97,null
SMAR,2023-05-03 15:09:51.398,46.0898517,11.115595,0.97,99.73,1.82,null
SMAR,2023-05-03 15:09:51.434,46.0898517,11.115595,1.01,99.97,1.68,null
STON,2023-05-03 15:09:51.434,46.089835726666664,11.11556332,0.960915,147.416794,1.458901,2
SMAR,2023-05-03 15:09:51.465,46.0898517,11.115595,1.04,100.37,1.55,null
SMAR,2023-05-03 15:09:51.496,46.0898517,11.115595,1.08,100.83,1.44,null
SMAR,2023-05-03 15:09:51.531,46.0898517,11.115595,1.13,101.37,1.35,null
SMAR,2023-05-03 15:09:51.565,46.0898517,11.115595,1.18,101.96,1.29,null
SMAR,2023-05-03 15:09:51.598,46.0898517,11.115595,1.22,102.52,1.26,null
SMAR,2023-05-03 15:09:51.633,46.0898517,11.115595,1.25,103.09,1.21,null
SMAR,2023-05-03 15:09:51.666,46.0898517,11.115595,1.28,103.74,1.18,null
SMAR,2023-05-03 15:09:51.701,46.0898517,11.115595,1.31,104.53,1.2,null
SMAR,2023-05-03 15:09:51.734,46.0898517,11.115595,1.35,105.4,1.24,null
STON,2023-05-03 15:09:51.734,46.08983586666667,11.115563446666666,0.960915,147.416794,1.458901,2
SMAR,2023-05-03 15:09:51.763,46.0898517,11.115595,1.4,106.28,1.27,null
SMAR,2023-05-03 15:09:51.796,46.0898517,11.115595,1.45,107.01,1.28,null
SMAR,2023-05-03 15:09:51.831,46.0898517,11.115595,1.49,107.57,1.25,null
STON,2023-05-03 15:09:51.831,46.08983586666667,11.115563446666666,1.700213,150.261353,-0.037403,2
STON,2023-05-03 15:09:51.831,46.089835941666664,11.115563433333334,1.700213,150.261353,-0.037403,2
SMAR,2023-05-03 15:09:51.866,46.0898517,11.115595,1.49,108.1,1.21,null
SMAR,2023-05-03 15:09:51.897,46.0898517,11.115595,1.49,108.85,1.17,null
SMAR,2023-05-03 15:09:51.931,46.0898517,11.115595,1.47,110.25,1.15,null
SMAR,2023-05-03 15:09:51.963,46.0898517,11.115595,1.45,113.21,1.13,null
STON,2023-05-03 15:09:51.963,46.089835941666664,11.115563433333334,1.936144,154.639603,-3.31E-4,2
SMAR,2023-05-03 15:09:51.996,46.0898517,11.115595,1.51,118.29,1.25,null
SMAR,2023-05-03 15:09:52.028,46.0898517,11.115595,1.58,125.4,1.43,null
SMAR,2023-05-03 15:09:52.066,46.0898517,11.115595,1.65,133.86,1.61,null
STON,2023-05-03 15:09:52.066,46.089836053333336,11.115563543333334,1.936144,154.639603,-3.31E-4,2
SMAR,2023-05-03 15:09:52.098,46.0898517,11.115595,1.64,143.03,1.85,null
SMAR,2023-05-03 15:09:52.133,46.0898517,11.115595,1.61,152.24,2.08,null
STON,2023-05-03 15:09:52.133,46.089836053333336,11.115563543333334,2.024356,169.929535,0.141979,2
SMAR,2023-05-03 15:09:52.169,46.0898517,11.115595,1.58,161.17,2.32,null
SMAR,2023-05-03 15:09:52.199,46.0898517,11.115595,1.5,169.54,2.53,null
SMAR,2023-05-03 15:09:52.234,46.0898517,11.115595,1.38,176.92,2.67,null
SMAR,2023-05-03 15:09:52.267,46.0898517,11.115595,1.33,-177.17,2.86,null
SMAR,2023-05-03 15:09:52.297,46.0898517,11.115595,1.26,-172.96,2.94,null
STON,2023-05-03 15:09:52.297,46.08983628666667,11.115563748333333,2.024356,169.929535,0.141979,2
STON,2023-05-03 15:09:52.297,46.08983628666667,11.115563748333333,1.878529,-138.861481,1.398359,2
SMAR,2023-05-03 15:09:52.34,46.0898517,11.115595,1.21,-170.47,2.95,null
SMAR,2023-05-03 15:09:52.369,46.0898517,11.115595,1.18,-169.45,2.96,null
SMAR,2023-05-03 15:09:52.399,46.0898517,11.115595,1.2,-169.36,2.86,null
SMAR,2023-05-03 15:09:52.434,46.0898517,11.115595,1.23,-169.74,2.79,null
SMAR,2023-05-03 15:09:52.466,46.0898517,11.115595,1.25,-170.13,2.69,null
SMAR,2023-05-03 15:09:52.498,46.0898517,11.115595,1.35,-170.35,2.6,null
SMAR,2023-05-03 15:09:52.534,46.0898517,11.115595,1.48,-170.31,2.5,null
SMAR,2023-05-03 15:09:52.566,46.0898517,11.115595,1.61,-170.18,2.4,null
SMAR,2023-05-03 15:09:52.597,46.0898517,11.115595,1.73,-170.02,2.32,null
SMAR,2023-05-03 15:09:52.632,46.0898517,11.115595,1.87,-169.96,2.22,null
SMAR,2023-05-03 15:09:52.669,46.0898517,11.115595,1.98,-169.92,2.1,null
SMAR,2023-05-03 15:09:52.702,46.0898517,11.115595,2.09,-169.82,1.99,null
SMAR,2023-05-03 15:09:52.736,46.0898517,11.115595,2.22,-169.83,1.88,null
SMAR,2023-05-03 15:09:52.766,46.0898517,11.115595,2.28,-169.89,1.71,null
SMAR,2023-05-03 15:09:52.798,46.0898517,11.115595,2.36,-170.04,1.56,null
SMAR,2023-05-03 15:09:52.831,46.0898517,11.115595,2.39,-170.19,1.4,null
SMAR,2023-05-03 15:09:52.868,46.0898517,11.115595,2.36,-170.14,1.24,null
STON,2023-05-03 15:09:52.868,46.089836258333335,11.115563921666666,1.878529,-138.861481,1.398359,2
STON,2023-05-03 15:09:52.868,46.089836258333335,11.115563921666666,1.636733,-122.971611,1.571739,2
SMAR,2023-05-03 15:09:52.898,46.0898517,11.115595,2.38,-169.84,1.11,null
SMAR,2023-05-03 15:09:52.935,46.0898517,11.115595,2.37,-169.27,0.97,null
STON,2023-05-03 15:09:52.935,46.089836178333336,11.115564258333333,1.636733,-122.971611,1.571739,2
SMAR,2023-05-03 15:09:52.966,46.0898517,11.115595,2.37,-168.65,0.86,null
STON,2023-05-03 15:09:52.966,46.089836178333336,11.115564258333333,2.235746,-123.379288,1.030469,2
STON,2023-05-03 15:09:52.966,46.08983602333333,11.115564636666667,2.235746,-123.379288,1.030469,2
STON,2023-05-03 15:09:52.966,46.08983602333333,11.115564636666667,2.810824,-123.598938,0.235949,2
SMAR,2023-05-03 15:09:53.002,46.0898517,11.115595,2.32,-167.9,0.75,null
SMAR,2023-05-03 15:09:53.042,46.0898517,11.115595,2.3,-167.15,0.64,null
SMAR,2023-05-03 15:09:53.068,46.0898517,11.115595,2.24,-166.39,0.57,null
STON,2023-05-03 15:09:53.068,46.08983577833333,11.115564786666667,2.810824,-123.598938,0.235949,2
SMAR,2023-05-03 15:09:53.099,46.0898517,11.115595,2.18,-165.71,0.49,null
SMAR,2023-05-03 15:09:53.139,46.0898517,11.115595,2.09,-165.06,0.43,null
STON,2023-05-03 15:09:53.139,46.08983577833333,11.115564786666667,2.716291,-120.969643,-0.55021,2
SMAR,2023-05-03 15:09:53.169,46.0898517,11.115595,2.01,-164.52,0.38,null
SMAR,2023-05-03 15:09:53.203,46.0898517,11.115595,1.9,-164.04,0.33,null
SMAR,2023-05-03 15:09:53.239,46.0898517,11.115595,1.79,-163.66,0.3,null
SMAR,2023-05-03 15:09:53.269,46.0898517,11.115595,1.65,-163.29,0.28,null
SMAR,2023-05-03 15:09:53.3,46.0898517,11.115595,1.55,-162.87,0.25,null
SMAR,2023-05-03 15:09:53.338,46.0898517,11.115595,1.44,-162.27,0.24,null
SMAR,2023-05-03 15:09:53.369,46.0898517,11.115595,1.37,-161.43,0.28,null
STON,2023-05-03 15:09:53.369,46.08983562833333,11.1155647,2.716291,-120.969643,-0.55021,2
STON,2023-05-03 15:09:53.369,46.08983562833333,11.1155647,2.248313,-117.366135,-0.937674,2
SMAR,2023-05-03 15:09:53.401,46.0898517,11.115595,1.32,-160.4,0.34,null
SMAR,2023-05-03 15:09:53.438,46.0898517,11.115595,1.29,-159.4,0.37,null
SMAR,2023-05-03 15:09:53.467,46.0898517,11.115595,1.24,-158.53,0.41,null
STON,2023-05-03 15:09:53.467,46.08983557166667,11.115564481666667,2.248313,-117.366135,-0.937674,2
SMAR,2023-05-03 15:09:53.504,46.0898517,11.115595,1.18,-157.69,0.44,null
SMAR,2023-05-03 15:09:53.544,46.0898517,11.115595,1.16,-156.79,0.49,null
SMAR,2023-05-03 15:09:53.573,46.0898517,11.115595,1.17,-155.77,0.54,null
SMAR,2023-05-03 15:09:53.602,46.0898517,11.115595,1.22,-154.79,0.55,null
STON,2023-05-03 15:09:53.602,46.08983557166667,11.115564481666667,1.71302,-113.393356,-0.888485,2
SMAR,2023-05-03 15:09:53.633,46.0898517,11.115595,1.25,-153.95,0.59,null
SMAR,2023-05-03 15:09:53.672,46.0898517,11.115595,1.22,-153.0,0.6,null
SMAR,2023-05-03 15:09:53.7,46.0898517,11.115595,1.22,-151.68,0.64,null
SMAR,2023-05-03 15:09:53.734,46.0898517,11.115595,1.14,-149.49,0.7,null
STON,2023-05-03 15:09:53.734,46.089835575,11.115564423333334,1.71302,-113.393356,-0.888485,2
SMAR,2023-05-03 15:09:53.768,46.0898517,11.115595,1.04,-145.93,0.84,null
STON,2023-05-03 15:09:53.768,46.089835575,11.115564423333334,1.656572,-107.885086,-0.666186,2
SMAR,2023-05-03 15:09:53.805,46.0898517,11.115595,0.97,-140.65,1.06,null
SMAR,2023-05-03 15:09:53.84,46.0898517,11.115595,0.82,-133.52,1.3,null
SMAR,2023-05-03 15:09:53.866,46.0898517,11.115595,0.69,-125.03,1.57,null
STON,2023-05-03 15:09:53.866,46.089835613333335,11.115564295,1.656572,-107.885086,-0.666186,2
SMAR,2023-05-03 15:09:53.898,46.0898517,11.115595,0.54,-115.54,1.76,null
SMAR,2023-05-03 15:09:53.94,46.0898517,11.115595,0.37,-105.61,1.84,null
SMAR,2023-05-03 15:09:53.971,46.0898517,11.115595,0.3,-96.03,1.97,null
STON,2023-05-03 15:09:53.971,46.089835613333335,11.115564295,1.3343,-90.748245,-0.041237,2
SMAR,2023-05-03 15:09:54.008,46.0898517,11.115595,0.18,-87.52,1.97,null
SMAR,2023-05-03 15:09:54.046,46.0898517,11.115595,0.04,-80.83,1.89,null
SMAR,2023-05-03 15:09:54.077,46.0898517,11.115595,-0.07,-76.42,1.87,null
SMAR,2023-05-03 15:09:54.105,46.0898517,11.115595,-0.2,-74.11,1.74,null
STON,2023-05-03 15:09:54.105,46.08983560666667,11.115564275,1.3343,-90.748245,-0.041237,2
SMAR,2023-05-03 15:09:54.14,46.0898517,11.115595,-0.26,-73.57,1.59,null
SMAR,2023-05-03 15:09:54.175,46.0898517,11.115595,-0.29,-74.21,1.43,null
STON,2023-05-03 15:09:54.175,46.08983560666667,11.115564275,0.54091,-37.538349,0.693284,2
SMAR,2023-05-03 15:09:54.217,46.0898517,11.115595,-0.33,-75.45,1.24,null
SMAR,2023-05-03 15:09:54.24,46.0898517,11.115595,-0.34,-76.9,1.09,null
STON,2023-05-03 15:09:54.24,46.08983558333333,11.115563935,0.54091,-37.538349,0.693284,2
SMAR,2023-05-03 15:09:54.281,46.0898517,11.115595,-0.36,-78.19,0.91,null
SMAR,2023-05-03 15:09:54.306,46.0898517,11.115595,-0.35,-79.18,0.75,null
SMAR,2023-05-03 15:09:54.346,46.0898517,11.115595,-0.36,-79.84,0.62,null
SMAR,2023-05-03 15:09:54.372,46.0898517,11.115595,-0.35,-80.25,0.43,null
STON,2023-05-03 15:09:54.372,46.08983558333333,11.115563935,0.048771,-29.648697,-0.069834,2
SMAR,2023-05-03 15:09:54.406,46.0898517,11.115595,-0.33,-80.38,0.24,null
SMAR,2023-05-03 15:09:54.442,46.0898517,11.115595,-0.32,-80.17,0.04,null
SMAR,2023-05-03 15:09:54.481,46.0898517,11.115595,-0.27,-79.57,-0.13,null
SMAR,2023-05-03 15:09:54.508,46.0898517,11.115595,-0.21,-78.58,-0.3,null
SMAR,2023-05-03 15:09:54.539,46.0898517,11.115595,-0.14,-77.42,-0.45,null
STON,2023-05-03 15:09:54.539,46.089835431666664,11.115563596666666,0.048771,-29.648697,-0.069834,2
STON,2023-05-03 15:09:54.539,46.089835431666664,11.115563596666666,0.039361,-33.783253,-1.054058,2
SMAR,2023-05-03 15:09:54.572,46.0898517,11.115595,-0.12,-76.28,-0.57,null
SMAR,2023-05-03 15:09:54.607,46.0898517,11.115595,-0.11,-75.25,-0.68,null
SMAR,2023-05-03 15:09:54.642,46.0898517,11.115595,-0.13,-74.27,-0.77,null
SMAR,2023-05-03 15:09:54.678,46.0898517,11.115595,-0.14,-73.16,-0.84,null
SMAR,2023-05-03 15:09:54.713,46.0898517,11.115595,-0.12,-71.9,-0.88,null
SMAR,2023-05-03 15:09:54.74,46.0898517,11.115595,-0.08,-70.45,-0.93,null
SMAR,2023-05-03 15:09:54.774,46.0898517,11.115595,-0.03,-68.87,-0.89,null
STON,2023-05-03 15:09:54.774,46.08983531333333,11.115563285,0.039361,-33.783253,-1.054058,2
STON,2023-05-03 15:09:54.774,46.08983531333333,11.115563285,0.25325,-28.26647,-1.94711,2
