Input,Time,Latitude,Longitude,Pitch,Yaw,Roll,Stonex_status
SMAR,2023-05-03 15:10:01.832,46.0898517,11.115595,0.48,9.46,2.27,null
SMAR,2023-05-03 15:10:01.864,46.0898517,11.115595,0.54,9.75,2.33,null
STON,2023-05-03 15:10:01.864,46.089835095,11.115563733333333,0.426228,56.265244,0.480573,2
SMAR,2023-05-03 15:10:01.904,46.0898517,11.115595,0.57,9.85,2.37,null
SMAR,2023-05-03 15:10:01.932,46.0898517,11.115595,0.6,9.79,2.4,null
SMAR,2023-05-03 15:10:01.963,46.0898517,11.115595,0.64,9.65,2.43,null
STON,2023-05-03 15:10:01.963,46.089835095,11.115563733333333,0.945617,57.234352,0.873606,2
SMAR,2023-05-03 15:10:01.992,46.0898517,11.115595,0.63,9.5,2.44,null
SMAR,2023-05-03 15:10:02.024,46.0898517,11.115595,0.65,9.49,2.42,null
SMAR,2023-05-03 15:10:02.059,46.0898517,11.115595,0.68,9.54,2.41,null
STON,2023-05-03 15:10:02.059,46.089835015,11.115563705,0.945617,57.234352,0.873606,2
SMAR,2023-05-03 15:10:02.099,46.0898517,11.115595,0.7,9.45,2.35,null
SMAR,2023-05-03 15:10:02.128,46.0898517,11.115595,0.71,9.3,2.29,null
STON,2023-05-03 15:10:02.128,46.089835015,11.115563705,1.127132,57.275597,1.039618,2
SMAR,2023-05-03 15:10:02.162,46.0898517,11.115595,0.74,9.14,2.22,null
SMAR,2023-05-03 15:10:02.194,46.0898517,11.115595,0.74,9.13,2.13,null
SMAR,2023-05-03 15:10:02.228,46.0898517,11.115595,0.76,9.14,2.05,null
STON,2023-05-03 15:10:02.228,46.08983511666667,11.115563628333334,1.127132,57.275597,1.039618,2
SMAR,2023-05-03 15:10:02.268,46.0898517,11.115595,0.77,9.24,1.99,null
SMAR,2023-05-03 15:10:02.3,46.0898517,11.115595,0.77,9.26,1.93,null
SMAR,2023-05-03 15:10:02.332,46.0898517,11.115595,0.79,9.19,1.88,null
STON,2023-05-03 15:10:02.332,46.08983511666667,11.115563628333334,1.24597,56.893108,0.685882,2
SMAR,2023-05-03 15:10:02.36,46.0898517,11.115595,0.8,9.21,1.86,null
SMAR,2023-05-03 15:10:02.393,46.0898517,11.115595,0.84,9.27,1.83,null
SMAR,2023-05-03 15:10:02.427,46.0898517,11.115595,0.87,9.28,1.84,null
SMAR,2023-05-03 15:10:02.459,46.0898517,11.115595,0.9,9.29,1.84,null
SMAR,2023-05-03 15:10:02.494,46.0898517,11.115595,0.96,9.3,1.86,null
STON,2023-05-03 15:10:02.494,46.08983514,11.11556352,1.24597,56.893108,0.685882,2
STON,2023-05-03 15:10:02.494,46.08983514,11.11556352,1.368054,57.063957,0.466661,2
SMAR,2023-05-03 15:10:02.524,46.0898517,11.115595,1.01,9.28,1.9,null
SMAR,2023-05-03 15:10:02.559,46.0898517,11.115595,1.04,9.31,1.93,null
SMAR,2023-05-03 15:10:02.594,46.0898517,11.115595,1.08,9.34,1.98,null
SMAR,2023-05-03 15:10:02.629,46.0898517,11.115595,1.1,9.36,2.06,null
SMAR,2023-05-03 15:10:02.662,46.0898517,11.115595,1.11,9.37,2.11,null
SMAR,2023-05-03 15:10:02.695,46.0898517,11.115595,1.11,9.36,2.19,null
SMAR,2023-05-03 15:10:02.722,46.0898517,11.115595,1.07,9.45,2.28,null
SMAR,2023-05-03 15:10:02.762,46.0898517,11.115595,1.02,9.61,2.38,null
STON,2023-05-03 15:10:02.762,46.089835075,11.115563485,1.368054,57.063957,0.466661,2
STON,2023-05-03 15:10:02.762,46.089835075,11.115563485,1.619722,57.181171,0.675173,2
SMAR,2023-05-03 15:10:02.794,46.0898517,11.115595,0.94,9.76,2.49,null
SMAR,2023-05-03 15:10:02.826,46.0898517,11.115595,0.83,9.94,2.61,null
SMAR,2023-05-03 15:10:02.859,46.0898517,11.115595,0.72,10.2,2.75,null
STON,2023-05-03 15:10:02.859,46.08983495333333,11.115563671666667,1.619722,57.181171,0.675173,2
SMAR,2023-05-03 15:10:02.892,46.0898517,11.115595,0.61,10.49,2.92,null
SMAR,2023-05-03 15:10:02.921,46.0898517,11.115595,0.44,10.91,3.1,null
STON,2023-05-03 15:10:02.921,46.08983495333333,11.115563671666667,1.39162,57.763866,1.226918,2
SMAR,2023-05-03 15:10:02.958,46.0898517,11.115595,0.3,11.44,3.28,null
SMAR,2023-05-03 15:10:02.993,46.0898517,11.115595,0.17,11.97,3.46,null
SMAR,2023-05-03 15:10:03.026,46.0898517,11.115595,0.03,12.42,3.61,null
SMAR,2023-05-03 15:10:03.063,46.0898517,11.115595,-0.09,12.66,3.75,null
STON,2023-05-03 15:10:03.063,46.089834795,11.115564093333333,1.39162,57.763866,1.226918,2
SMAR,2023-05-03 15:10:03.093,46.0898517,11.115595,-0.22,12.73,3.89,null
SMAR,2023-05-03 15:10:03.128,46.0898517,11.115595,-0.34,12.67,3.99,null
SMAR,2023-05-03 15:10:03.161,46.0898517,11.115595,-0.45,12.48,4.08,null
SMAR,2023-05-03 15:10:03.196,46.0898517,11.115595,-0.58,12.19,4.16,null
SMAR,2023-05-03 15:10:03.227,46.0898517,11.115595,-0.71,11.84,4.21,null
SMAR,2023-05-03 15:10:03.259,46.0898517,11.115595,-0.86,11.45,4.28,null
STON,2023-05-03 15:10:03.259,46.089834735,11.115564521666666,1.39162,57.763866,1.226918,2
SMAR,2023-05-03 15:10:03.294,46.0898517,11.115595,-1.03,11.13,4.31,null
SMAR,2023-05-03 15:10:03.327,46.0898517,11.115595,-1.2,10.91,4.32,null
STON,2023-05-03 15:10:03.327,46.089834735,11.115564521666666,-0.15293,59.964546,2.855791,2
SMAR,2023-05-03 15:10:03.359,46.0898517,11.115595,-1.39,10.79,4.32,null
SMAR,2023-05-03 15:10:03.392,46.0898517,11.115595,-1.57,10.67,4.32,null
SMAR,2023-05-03 15:10:03.427,46.0898517,11.115595,-1.8,10.49,4.29,null
SMAR,2023-05-03 15:10:03.46,46.0898517,11.115595,-2.05,10.42,4.27,null
SMAR,2023-05-03 15:10:03.493,46.0898517,11.115595,-2.28,10.47,4.22,null
SMAR,2023-05-03 15:10:03.527,46.0898517,11.115595,-2.56,10.52,4.19,null
SMAR,2023-05-03 15:10:03.562,46.0898517,11.115595,-2.85,10.41,4.14,null
SMAR,2023-05-03 15:10:03.593,46.0898517,11.115595,-3.15,10.05,4.08,null
SMAR,2023-05-03 15:10:03.63,46.0898517,11.115595,-3.51,9.61,4.01,null
SMAR,2023-05-03 15:10:03.659,46.0898517,11.115595,-3.85,9.29,3.94,null
SMAR,2023-05-03 15:10:03.695,46.0898517,11.115595,-4.22,9.15,3.84,null
SMAR,2023-05-03 15:10:03.73,46.0898517,11.115595,-4.64,9.21,3.73,null
SMAR,2023-05-03 15:10:03.765,46.0898517,11.115595,-5.03,9.33,3.6,null
SMAR,2023-05-03 15:10:03.797,46.0898517,11.115595,-5.46,9.22,3.46,null
STON,2023-05-03 15:10:03.797,46.089834853333336,11.115565046666667,-0.15293,59.964546,2.855791,2
STON,2023-05-03 15:10:03.797,46.089834853333336,11.115565046666667,-1.226168,58.777584,2.951668,2
SMAR,2023-05-03 15:10:03.833,46.0898517,11.115595,-5.89,8.8,3.36,null
SMAR,2023-05-03 15:10:03.863,46.0898517,11.115595,-6.31,8.19,3.3,null
STON,2023-05-03 15:10:03.863,46.089835148333336,11.11556555,-1.226168,58.777584,2.951668,2
SMAR,2023-05-03 15:10:03.911,46.0898517,11.115595,-6.78,7.59,3.21,null
STON,2023-05-03 15:10:03.911,46.089835148333336,11.11556555,-2.914735,58.223473,2.691345,2
STON,2023-05-03 15:10:03.911,46.08983577833333,11.115566215,-2.914735,58.223473,2.691345,2
SMAR,2023-05-03 15:10:03.936,46.0898517,11.115595,-7.2,7.28,3.13,null
STON,2023-05-03 15:10:03.936,46.08983577833333,11.115566215,-5.304057,57.557064,2.061949,2
SMAR,2023-05-03 15:10:03.96,46.0898517,11.115595,-7.61,7.17,3.02,null
SMAR,2023-05-03 15:10:03.994,46.0898517,11.115595,-8.07,7.17,2.89,null
SMAR,2023-05-03 15:10:04.031,46.0898517,11.115595,-8.48,7.2,2.77,null
STON,2023-05-03 15:10:04.031,46.08983628833333,11.11556703,-5.304057,57.557064,2.061949,2
SMAR,2023-05-03 15:10:04.061,46.0898517,11.115595,-8.9,7.25,2.67,null
SMAR,2023-05-03 15:10:04.096,46.0898517,11.115595,-9.31,7.27,2.59,null
SMAR,2023-05-03 15:10:04.131,46.0898517,11.115595,-9.71,7.32,2.52,null
STON,2023-05-03 15:10:04.131,46.08983628833333,11.11556703,-7.920109,56.12281,1.494938,2
SMAR,2023-05-03 15:10:04.162,46.0898517,11.115595,-10.12,7.46,2.43,null
SMAR,2023-05-03 15:10:04.199,46.0898517,11.115595,-10.49,7.7,2.34,null
SMAR,2023-05-03 15:10:04.233,46.0898517,11.115595,-10.84,8.05,2.23,null
STON,2023-05-03 15:10:04.233,46.089836823333336,11.115567716666666,-7.920109,56.12281,1.494938,2
SMAR,2023-05-03 15:10:04.267,46.0898517,11.115595,-11.2,8.31,2.15,null
SMAR,2023-05-03 15:10:04.301,46.0898517,11.115595,-11.54,8.37,2.1,null
SMAR,2023-05-03 15:10:04.332,46.0898517,11.115595,-11.89,8.31,2.08,null
SMAR,2023-05-03 15:10:04.366,46.0898517,11.115595,-12.22,8.37,2.02,null
STON,2023-05-03 15:10:04.366,46.089836823333336,11.115567716666666,-10.303858,57.195751,0.981901,2
SMAR,2023-05-03 15:10:04.4,46.0898517,11.115595,-12.54,8.54,1.92,null
SMAR,2023-05-03 15:10:04.432,46.0898517,11.115595,-12.89,8.64,1.86,null
SMAR,2023-05-03 15:10:04.467,46.0898517,11.115595,-13.25,8.74,1.81,null
STON,2023-05-03 15:10:04.467,46.089837145,11.115568398333334,-10.303858,57.195751,0.981901,2
SMAR,2023-05-03 15:10:04.51,46.0898517,11.115595,-13.62,8.79,1.79,null
SMAR,2023-05-03 15:10:04.531,46.0898517,11.115595,-14.03,9.01,1.75,null
STON,2023-05-03 15:10:04.531,46.089837145,11.115568398333334,-12.353992,58.166687,0.603956,2
SMAR,2023-05-03 15:10:04.566,46.0898517,11.115595,-14.44,9.57,1.61,null
SMAR,2023-05-03 15:10:04.602,46.0898517,11.115595,-14.82,10.39,1.41,null
SMAR,2023-05-03 15:10:04.633,46.0898517,11.115595,-15.23,11.34,1.21,null
SMAR,2023-05-03 15:10:04.664,46.0898517,11.115595,-15.67,11.83,1.06,null
SMAR,2023-05-03 15:10:04.708,46.0898517,11.115595,-16.17,11.66,1.13,null
SMAR,2023-05-03 15:10:04.742,46.0898517,11.115595,-16.67,11.29,1.29,null
STON,2023-05-03 15:10:04.742,46.089837491666664,11.115569165,-12.353992,58.166687,0.603956,2
SMAR,2023-05-03 15:10:04.775,46.0898517,11.115595,-17.16,11.05,1.38,null
SMAR,2023-05-03 15:10:04.805,46.0898517,11.115595,-17.68,11.37,1.34,null
STON,2023-05-03 15:10:04.805,46.089837491666664,11.115569165,-14.696361,60.882336,-2.39E-4,2
SMAR,2023-05-03 15:10:04.838,46.0898517,11.115595,-18.1,11.77,1.23,null
SMAR,2023-05-03 15:10:04.865,46.0898517,11.115595,-18.61,12.04,1.21,null
SMAR,2023-05-03 15:10:04.899,46.0898517,11.115595,-19.1,11.93,1.31,null
STON,2023-05-03 15:10:04.899,46.08983782333333,11.115570263333334,-14.696361,60.882336,-2.39E-4,2
SMAR,2023-05-03 15:10:04.934,46.0898517,11.115595,-19.62,11.67,1.44,null
STON,2023-05-03 15:10:04.934,46.08983782333333,11.115570263333334,-17.569551,61.602802,0.01049,2
SMAR,2023-05-03 15:10:04.963,46.0898517,11.115595,-20.12,11.85,1.47,null
SMAR,2023-05-03 15:10:05.0,46.0898517,11.115595,-20.53,12.23,1.36,null
SMAR,2023-05-03 15:10:05.038,46.0898517,11.115595,-21.03,12.62,1.31,null
STON,2023-05-03 15:10:05.038,46.08983806,11.115571241666666,-17.569551,61.602802,0.01049,2
SMAR,2023-05-03 15:10:05.068,46.0898517,11.115595,-21.49,12.5,1.42,null
SMAR,2023-05-03 15:10:05.1,46.0898517,11.115595,-22.03,12.3,1.59,null
SMAR,2023-05-03 15:10:05.133,46.0898517,11.115595,-22.47,12.33,1.68,null
STON,2023-05-03 15:10:05.133,46.08983806,11.115571241666666,-20.461042,62.533543,0.086377,2
SMAR,2023-05-03 15:10:05.166,46.0898517,11.115595,-22.91,12.43,1.7,null
SMAR,2023-05-03 15:10:05.201,46.0898517,11.115595,-23.38,12.49,1.78,null
SMAR,2023-05-03 15:10:05.231,46.0898517,11.115595,-23.83,12.46,1.84,null
SMAR,2023-05-03 15:10:05.264,46.0898517,11.115595,-24.33,12.8,1.74,null
STON,2023-05-03 15:10:05.264,46.08983826833333,11.11557231,-20.461042,62.533543,0.086377,2
SMAR,2023-05-03 15:10:05.302,46.0898517,11.115595,-24.65,13.68,1.45,null
SMAR,2023-05-03 15:10:05.334,46.0898517,11.115595,-24.96,14.68,1.08,null
SMAR,2023-05-03 15:10:05.367,46.0898517,11.115595,-25.3,15.08,0.95,null
STON,2023-05-03 15:10:05.367,46.08983826833333,11.11557231,-23.253202,62.380322,0.656603,2
SMAR,2023-05-03 15:10:05.403,46.0898517,11.115595,-25.6,15.05,0.98,null
SMAR,2023-05-03 15:10:05.436,46.0898517,11.115595,-25.87,15.05,1.01,null
STON,2023-05-03 15:10:05.436,46.089838385,11.115573108333333,-23.253202,62.380322,0.656603,2
SMAR,2023-05-03 15:10:05.465,46.0898517,11.115595,-26.1,15.21,0.94,null
SMAR,2023-05-03 15:10:05.502,46.0898517,11.115595,-26.35,15.01,1.01,null
SMAR,2023-05-03 15:10:05.536,46.0898517,11.115595,-26.67,14.63,1.16,null
STON,2023-05-03 15:10:05.536,46.089838385,11.115573108333333,-25.381468,65.426476,-0.219291,2
SMAR,2023-05-03 15:10:05.565,46.0898517,11.115595,-26.91,14.64,1.08,null
SMAR,2023-05-03 15:10:05.603,46.0898517,11.115595,-27.19,14.73,0.94,null
SMAR,2023-05-03 15:10:05.64,46.0898517,11.115595,-27.5,14.66,0.88,null
SMAR,2023-05-03 15:10:05.668,46.0898517,11.115595,-27.79,14.51,0.82,null
SMAR,2023-05-03 15:10:05.699,46.0898517,11.115595,-28.16,14.46,0.7,null
STON,2023-05-03 15:10:05.699,46.08983865333333,11.115573446666666,-25.381468,65.426476,-0.219291,2
SMAR,2023-05-03 15:10:05.733,46.0898517,11.115595,-28.42,14.48,0.58,null
STON,2023-05-03 15:10:05.733,46.08983865333333,11.115573446666666,-27.027763,65.162857,-0.392879,2
SMAR,2023-05-03 15:10:05.77,46.0898517,11.115595,-28.76,14.4,0.49,null
SMAR,2023-05-03 15:10:05.807,46.0898517,11.115595,-29.13,14.23,0.46,null
SMAR,2023-05-03 15:10:05.837,46.0898517,11.115595,-29.45,14.13,0.42,null
SMAR,2023-05-03 15:10:05.871,46.0898517,11.115595,-29.83,14.13,0.29,null
SMAR,2023-05-03 15:10:05.899,46.0898517,11.115595,-30.17,14.07,0.22,null
STON,2023-05-03 15:10:05.899,46.08983895666667,11.115573938333334,-27.027763,65.162857,-0.392879,2
STON,2023-05-03 15:10:05.899,46.08983895666667,11.115573938333334,-28.912294,64.802048,-0.87725,2
SMAR,2023-05-03 15:10:05.936,46.0898517,11.115595,-30.6,13.97,0.21,null
SMAR,2023-05-03 15:10:05.973,46.0898517,11.115595,-31.0,13.87,0.17,null
SMAR,2023-05-03 15:10:06.003,46.0898517,11.115595,-31.42,13.84,0.11,null
SMAR,2023-05-03 15:10:06.04,46.0898517,11.115595,-31.87,13.89,0.01,null
SMAR,2023-05-03 15:10:06.071,46.0898517,11.115595,-32.27,13.98,-0.11,null
SMAR,2023-05-03 15:10:06.111,46.0898517,11.115595,-32.72,14.16,-0.28,null
SMAR,2023-05-03 15:10:06.15,46.0898517,11.115595,-33.14,14.27,-0.42,null
SMAR,2023-05-03 15:10:06.174,46.0898517,11.115595,-33.57,14.24,-0.44,null
SMAR,2023-05-03 15:10:06.197,46.0898517,11.115595,-34.03,14.21,-0.49,null
STON,2023-05-03 15:10:06.197,46.08983932666667,11.115574646666667,-28.912294,64.802048,-0.87725,2
STON,2023-05-03 15:10:06.197,46.08983932666667,11.115574646666667,-31.266462,64.712654,-1.335281,2
SMAR,2023-05-03 15:10:06.235,46.0898517,11.115595,-34.44,14.29,-0.63,null
SMAR,2023-05-03 15:10:06.266,46.0898517,11.115595,-34.89,14.53,-0.83,null
STON,2023-05-03 15:10:06.266,46.0898397,11.115575431666667,-31.266462,64.712654,-1.335281,2
SMAR,2023-05-03 15:10:06.301,46.0898517,11.115595,-35.31,14.72,-1.08,null
SMAR,2023-05-03 15:10:06.339,46.0898517,11.115595,-35.75,14.82,-1.21,null
SMAR,2023-05-03 15:10:06.371,46.0898517,11.115595,-36.22,14.84,-1.28,null
STON,2023-05-03 15:10:06.371,46.0898397,11.115575431666667,-33.85051,65.371597,-2.025604,2
SMAR,2023-05-03 15:10:06.401,46.0898517,11.115595,-36.65,14.8,-1.34,null
SMAR,2023-05-03 15:10:06.436,46.0898517,11.115595,-37.09,14.97,-1.5,null
STON,2023-05-03 15:10:06.436,46.089840083333335,11.115576203333333,-33.85051,65.371597,-2.025604,2
SMAR,2023-05-03 15:10:06.468,46.0898517,11.115595,-37.5,15.11,-1.69,null
SMAR,2023-05-03 15:10:06.501,46.0898517,11.115595,-37.88,15.15,-1.77,null
SMAR,2023-05-03 15:10:06.536,46.0898517,11.115595,-38.27,15.15,-1.82,null
STON,2023-05-03 15:10:06.536,46.089840083333335,11.115576203333333,-36.489777,66.593147,-3.095593,2
SMAR,2023-05-03 15:10:06.569,46.0898517,11.115595,-38.62,14.99,-1.77,null
SMAR,2023-05-03 15:10:06.603,46.0898517,11.115595,-38.98,14.88,-1.71,null
SMAR,2023-05-03 15:10:06.639,46.0898517,11.115595,-39.29,14.74,-1.73,null
SMAR,2023-05-03 15:10:06.671,46.0898517,11.115595,-39.62,14.81,-1.86,null
SMAR,2023-05-03 15:10:06.7,46.0898517,11.115595,-39.9,14.94,-2.08,null
STON,2023-05-03 15:10:06.7,46.089840475,11.115576535,-36.489777,66.593147,-3.095593,2
SMAR,2023-05-03 15:10:06.735,46.0898517,11.115595,-40.24,15.04,-2.31,null
SMAR,2023-05-03 15:10:06.768,46.0898517,11.115595,-40.6,15.08,-2.42,null
STON,2023-05-03 15:10:06.768,46.089840475,11.115576535,-38.740784,66.747948,-3.50568,2
SMAR,2023-05-03 15:10:06.803,46.0898517,11.115595,-40.94,15.07,-2.55,null
SMAR,2023-05-03 15:10:06.836,46.0898517,11.115595,-41.31,15.24,-2.79,null
SMAR,2023-05-03 15:10:06.869,46.0898517,11.115595,-41.65,15.39,-3.08,null
STON,2023-05-03 15:10:06.869,46.089840735,11.115577048333334,-38.740784,66.747948,-3.50568,2
SMAR,2023-05-03 15:10:06.901,46.0898517,11.115595,-42.02,15.56,-3.36,null
SMAR,2023-05-03 15:10:06.937,46.0898517,11.115595,-42.35,15.64,-3.53,null
STON,2023-05-03 15:10:06.937,46.089840735,11.115577048333334,-40.695896,67.938301,-4.869818,2
SMAR,2023-05-03 15:10:06.969,46.0898517,11.115595,-42.71,15.73,-3.78,null
SMAR,2023-05-03 15:10:07.001,46.0898517,11.115595,-43.01,16.0,-4.15,null
SMAR,2023-05-03 15:10:07.037,46.0898517,11.115595,-43.28,16.21,-4.49,null
STON,2023-05-03 15:10:07.037,46.08984096166667,11.115577566666667,-40.695896,67.938301,-4.869818,2
SMAR,2023-05-03 15:10:07.067,46.0898517,11.115595,-43.6,16.37,-4.77,null
SMAR,2023-05-03 15:10:07.101,46.0898517,11.115595,-43.9,16.32,-4.87,null
SMAR,2023-05-03 15:10:07.136,46.0898517,11.115595,-44.19,16.37,-5.02,null
SMAR,2023-05-03 15:10:07.171,46.0898517,11.115595,-44.45,16.41,-5.22,null
STON,2023-05-03 15:10:07.171,46.08984096166667,11.115577566666667,-42.606274,70.384552,-7.195626,2
SMAR,2023-05-03 15:10:07.203,46.0898517,11.115595,-44.75,16.49,-5.41,null
SMAR,2023-05-03 15:10:07.238,46.0898517,11.115595,-44.98,16.68,-5.67,null
SMAR,2023-05-03 15:10:07.271,46.0898517,11.115595,-45.21,16.84,-5.94,null
STON,2023-05-03 15:10:07.271,46.089841085,11.11557812,-42.606274,70.384552,-7.195626,2
SMAR,2023-05-03 15:10:07.304,46.0898517,11.115595,-45.42,17.01,-6.15,null
SMAR,2023-05-03 15:10:07.337,46.0898517,11.115595,-45.61,16.94,-6.17,null
SMAR,2023-05-03 15:10:07.372,46.0898517,11.115595,-45.91,16.7,-6.01,null
SMAR,2023-05-03 15:10:07.404,46.0898517,11.115595,-46.12,16.5,-5.88,null
STON,2023-05-03 15:10:07.404,46.089841085,11.11557812,-44.224091,71.806602,-8.997508,2
SMAR,2023-05-03 15:10:07.438,46.0898517,11.115595,-46.34,16.58,-6.04,null
SMAR,2023-05-03 15:10:07.472,46.0898517,11.115595,-46.53,16.82,-6.35,null
STON,2023-05-03 15:10:07.472,46.08984125,11.115578473333333,-44.224091,71.806602,-8.997508,2
SMAR,2023-05-03 15:10:07.505,46.0898517,11.115595,-46.69,17.05,-6.61,null
SMAR,2023-05-03 15:10:07.537,46.0898517,11.115595,-46.85,17.34,-6.92,null
STON,2023-05-03 15:10:07.537,46.08984125,11.115578473333333,-45.536083,71.981895,-9.665795,2
SMAR,2023-05-03 15:10:07.574,46.0898517,11.115595,-46.9,17.55,-7.15,null
SMAR,2023-05-03 15:10:07.604,46.0898517,11.115595,-46.96,17.69,-7.23,null
SMAR,2023-05-03 15:10:07.639,46.0898517,11.115595,-46.89,17.75,-7.24,null
SMAR,2023-05-03 15:10:07.67,46.0898517,11.115595,-46.84,17.65,-7.07,null
SMAR,2023-05-03 15:10:07.702,46.0898517,11.115595,-46.74,17.55,-6.89,null
SMAR,2023-05-03 15:10:07.738,46.0898517,11.115595,-46.55,17.45,-6.72,null
STON,2023-05-03 15:10:07.738,46.08984126833333,11.11557873,-45.536083,71.981895,-9.665795,2
STON,2023-05-03 15:10:07.738,46.08984126833333,11.11557873,-46.120453,74.465355,-11.640854,2
SMAR,2023-05-03 15:10:07.771,46.0898517,11.115595,-46.42,17.29,-6.5,null
SMAR,2023-05-03 15:10:07.803,46.0898517,11.115595,-46.18,17.24,-6.39,null
SMAR,2023-05-03 15:10:07.837,46.0898517,11.115595,-45.91,17.29,-6.35,null
STON,2023-05-03 15:10:07.837,46.089841228333334,11.115578481666667,-46.120453,74.465355,-11.640854,2
SMAR,2023-05-03 15:10:07.871,46.0898517,11.115595,-45.72,17.23,-6.24,null
SMAR,2023-05-03 15:10:07.905,46.0898517,11.115595,-45.43,17.19,-6.1,null
SMAR,2023-05-03 15:10:07.938,46.0898517,11.115595,-45.18,17.09,-5.89,null
STON,2023-05-03 15:10:07.938,46.089841228333334,11.115578481666667,-45.364468,72.73526,-10.249181,2
SMAR,2023-05-03 15:10:07.968,46.0898517,11.115595,-44.96,17.06,-5.77,null
SMAR,2023-05-03 15:10:08.002,46.0898517,11.115595,-44.65,17.24,-5.82,null
SMAR,2023-05-03 15:10:08.038,46.0898517,11.115595,-44.35,17.45,-5.87,null
SMAR,2023-05-03 15:10:08.072,46.0898517,11.115595,-44.01,17.6,-5.88,null
SMAR,2023-05-03 15:10:08.105,46.0898517,11.115595,-43.67,17.76,-5.88,null
STON,2023-05-03 15:10:08.105,46.08984099166667,11.115578175,-45.364468,72.73526,-10.249181,2
SMAR,2023-05-03 15:10:08.137,46.0898517,11.115595,-43.32,17.85,-5.79,null
STON,2023-05-03 15:10:08.137,46.08984099166667,11.115578175,-43.905849,71.847923,-9.309512,2
SMAR,2023-05-03 15:10:08.173,46.0898517,11.115595,-42.92,18.05,-5.8,null
SMAR,2023-05-03 15:10:08.214,46.0898517,11.115595,-42.52,18.19,-5.81,null
SMAR,2023-05-03 15:10:08.249,46.0898517,11.115595,-42.1,18.27,-5.71,null
SMAR,2023-05-03 15:10:08.273,46.0898517,11.115595,-41.63,18.39,-5.67,null
STON,2023-05-03 15:10:08.273,46.08984056,11.115577923333333,-43.905849,71.847923,-9.309512,2
SMAR,2023-05-03 15:10:08.305,46.0898517,11.115595,-41.14,18.44,-5.55,null
SMAR,2023-05-03 15:10:08.341,46.0898517,11.115595,-40.64,18.64,-5.56,null
SMAR,2023-05-03 15:10:08.38,46.0898517,11.115595,-40.08,18.77,-5.59,null
STON,2023-05-03 15:10:08.38,46.08984056,11.115577923333333,-41.775051,71.974075,-8.881811,2
SMAR,2023-05-03 15:10:08.412,46.0898517,11.115595,-39.56,18.84,-5.47,null
SMAR,2023-05-03 15:10:08.446,46.0898517,11.115595,-39.01,18.87,-5.41,null
SMAR,2023-05-03 15:10:08.476,46.0898517,11.115595,-38.41,18.98,-5.37,null
SMAR,2023-05-03 15:10:08.507,46.0898517,11.115595,-37.83,19.16,-5.33,null
STON,2023-05-03 15:10:08.507,46.089840456666664,11.115577155,-41.775051,71.974075,-8.881811,2
SMAR,2023-05-03 15:10:08.541,46.0898517,11.115595,-37.23,19.3,-5.37,null
SMAR,2023-05-03 15:10:08.576,46.0898517,11.115595,-36.67,19.47,-5.33,null
STON,2023-05-03 15:10:08.576,46.089840456666664,11.115577155,-38.818211,71.89724,-8.165154,2
SMAR,2023-05-03 15:10:08.615,46.0898517,11.115595,-36.07,19.71,-5.35,null
SMAR,2023-05-03 15:10:08.649,46.0898517,11.115595,-35.45,20.01,-5.48,null
SMAR,2023-05-03 15:10:08.675,46.0898517,11.115595,-34.86,20.18,-5.42,null
SMAR,2023-05-03 15:10:08.711,46.0898517,11.115595,-34.26,20.39,-5.42,null
SMAR,2023-05-03 15:10:08.744,46.0898517,11.115595,-33.63,20.61,-5.47,null
STON,2023-05-03 15:10:08.744,46.089839981666664,11.115576565,-38.818211,71.89724,-8.165154,2
SMAR,2023-05-03 15:10:08.775,46.0898517,11.115595,-33.03,20.78,-5.42,null
SMAR,2023-05-03 15:10:08.813,46.0898517,11.115595,-32.41,20.98,-5.4,null
STON,2023-05-03 15:10:08.813,46.089839981666664,11.115576565,-35.313545,72.261589,-7.830903,2
SMAR,2023-05-03 15:10:08.846,46.0898517,11.115595,-31.81,21.05,-5.35,null
SMAR,2023-05-03 15:10:08.876,46.0898517,11.115595,-31.25,21.13,-5.28,null
STON,2023-05-03 15:10:08.876,46.089839595,11.115575266666667,-35.313545,72.261589,-7.830903,2
SMAR,2023-05-03 15:10:08.911,46.0898517,11.115595,-30.63,21.42,-5.35,null
SMAR,2023-05-03 15:10:08.944,46.0898517,11.115595,-30.01,21.67,-5.38,null
SMAR,2023-05-03 15:10:08.977,46.0898517,11.115595,-29.42,21.84,-5.35,null
SMAR,2023-05-03 15:10:09.006,46.0898517,11.115595,-28.8,21.92,-5.31,null
SMAR,2023-05-03 15:10:09.045,46.0898517,11.115595,-28.23,21.86,-5.15,null
SMAR,2023-05-03 15:10:09.078,46.0898517,11.115595,-27.64,21.76,-4.95,null
SMAR,2023-05-03 15:10:09.113,46.0898517,11.115595,-27.04,21.79,-4.85,null
SMAR,2023-05-03 15:10:09.142,46.0898517,11.115595,-26.46,21.75,-4.72,null
STON,2023-05-03 15:10:09.142,46.089839595,11.115575266666667,-31.671299,72.964355,-7.573997,2
STON,2023-05-03 15:10:09.142,46.08983926,11.115574001666667,-31.671299,72.964355,-7.573997,2
STON,2023-05-03 15:10:09.142,46.08983926,11.115574001666667,-28.094271,73.421478,-7.236065,2
SMAR,2023-05-03 15:10:09.177,46.0898517,11.115595,-25.9,21.76,-4.57,null
SMAR,2023-05-03 15:10:09.21,46.0898517,11.115595,-25.32,21.96,-4.54,null
SMAR,2023-05-03 15:10:09.246,46.0898517,11.115595,-24.74,22.29,-4.58,null
SMAR,2023-05-03 15:10:09.275,46.0898517,11.115595,-24.16,22.64,-4.59,null
SMAR,2023-05-03 15:10:09.306,46.0898517,11.115595,-23.6,22.84,-4.55,null
STON,2023-05-03 15:10:09.306,46.089838926666665,11.115572863333334,-28.094271,73.421478,-7.236065,2
SMAR,2023-05-03 15:10:09.341,46.0898517,11.115595,-23.1,22.8,-4.41,null
SMAR,2023-05-03 15:10:09.377,46.0898517,11.115595,-22.6,22.65,-4.22,null
STON,2023-05-03 15:10:09.377,46.089838926666665,11.115572863333334,-24.63961,73.024689,-6.340528,2
SMAR,2023-05-03 15:10:09.411,46.0898517,11.115595,-22.09,22.75,-4.16,null
SMAR,2023-05-03 15:10:09.444,46.0898517,11.115595,-21.55,22.97,-4.14,null
SMAR,2023-05-03 15:10:09.478,46.0898517,11.115595,-21.02,23.2,-4.09,null
STON,2023-05-03 15:10:09.478,46.08983844666667,11.115571808333334,-24.63961,73.024689,-6.340528,2
SMAR,2023-05-03 15:10:09.508,46.0898517,11.115595,-20.53,23.42,-4.07,null
SMAR,2023-05-03 15:10:09.543,46.0898517,11.115595,-20.07,23.36,-3.95,null
SMAR,2023-05-03 15:10:09.577,46.0898517,11.115595,-19.67,23.06,-3.73,null
STON,2023-05-03 15:10:09.577,46.08983844666667,11.115571808333334,-21.44639,73.376923,-5.811436,2
SMAR,2023-05-03 15:10:09.606,46.0898517,11.115595,-19.28,22.6,-3.48,null
SMAR,2023-05-03 15:10:09.647,46.0898517,11.115595,-18.9,22.02,-3.2,null
SMAR,2023-05-03 15:10:09.678,46.0898517,11.115595,-18.54,21.51,-2.96,null
SMAR,2023-05-03 15:10:09.713,46.0898517,11.115595,-18.13,21.28,-2.79,null
STON,2023-05-03 15:10:09.713,46.089838075,11.115570855,-21.44639,73.376923,-5.811436,2
SMAR,2023-05-03 15:10:09.748,46.0898517,11.115595,-17.73,21.1,-2.66,null
SMAR,2023-05-03 15:10:09.784,46.0898517,11.115595,-17.36,20.99,-2.55,null
STON,2023-05-03 15:10:09.784,46.089838075,11.115570855,-18.705303,72.53614,-4.95758,16
SMAR,2023-05-03 15:10:09.813,46.0898517,11.115595,-16.93,20.85,-2.4,null
SMAR,2023-05-03 15:10:09.847,46.0898517,11.115595,-16.57,20.61,-2.25,null
SMAR,2023-05-03 15:10:09.88,46.0898517,11.115595,-16.18,20.32,-2.07,null
SMAR,2023-05-03 15:10:09.913,46.0898517,11.115595,-15.77,19.74,-1.8,null
SMAR,2023-05-03 15:10:09.945,46.0898517,11.115595,-15.47,18.95,-1.51,null
STON,2023-05-03 15:10:09.945,46.08983787166667,11.115569563333333,-18.705303,72.53614,-4.95758,16
STON,2023-05-03 15:10:09.945,46.08983787166667,11.115569563333333,-16.376249,70.545784,-3.896995,2
SMAR,2023-05-03 15:10:09.977,46.0898517,11.115595,-15.08,18.28,-1.26,null
SMAR,2023-05-03 15:10:10.013,46.0898517,11.115595,-14.69,18.21,-1.16,null
SMAR,2023-05-03 15:10:10.047,46.0898517,11.115595,-14.29,18.54,-1.2,null
SMAR,2023-05-03 15:10:10.078,46.0898517,11.115595,-13.86,19.09,-1.27,null
STON,2023-05-03 15:10:10.078,46.08983745166667,11.115568825,-16.376249,70.545784,-3.896995,2
SMAR,2023-05-03 15:10:10.113,46.0898517,11.115595,-13.43,19.3,-1.26,null
SMAR,2023-05-03 15:10:10.146,46.0898517,11.115595,-13.05,18.94,-1.16,null
SMAR,2023-05-03 15:10:10.179,46.0898517,11.115595,-12.63,18.28,-0.97,null
STON,2023-05-03 15:10:10.179,46.08983745166667,11.115568825,-14.152066,67.674881,-2.657904,2
SMAR,2023-05-03 15:10:10.212,46.0898517,11.115595,-12.19,17.52,-0.76,null
SMAR,2023-05-03 15:10:10.246,46.0898517,11.115595,-11.75,16.81,-0.59,null
STON,2023-05-03 15:10:10.246,46.089837186666664,11.115567978333333,-14.152066,67.674881,-2.657904,2
SMAR,2023-05-03 15:10:10.279,46.0898517,11.115595,-11.26,16.41,-0.47,null
SMAR,2023-05-03 15:10:10.314,46.0898517,11.115595,-10.74,16.48,-0.41,null
SMAR,2023-05-03 15:10:10.343,46.0898517,11.115595,-10.2,16.89,-0.43,null
SMAR,2023-05-03 15:10:10.38,46.0898517,11.115595,-9.64,17.25,-0.46,null
STON,2023-05-03 15:10:10.38,46.089837186666664,11.115567978333333,-11.66916,66.634697,-2.214525,2
SMAR,2023-05-03 15:10:10.412,46.0898517,11.115595,-9.13,17.25,-0.43,null
SMAR,2023-05-03 15:10:10.447,46.0898517,11.115595,-8.64,16.75,-0.34,null
SMAR,2023-05-03 15:10:10.478,46.0898517,11.115595,-8.21,15.98,-0.22,null
STON,2023-05-03 15:10:10.478,46.08983671,11.115566883333333,-11.66916,66.634697,-2.214525,2
SMAR,2023-05-03 15:10:10.51,46.0898517,11.115595,-7.81,15.32,-0.1,null
SMAR,2023-05-03 15:10:10.545,46.0898517,11.115595,-7.36,15.01,-0.06,null
SMAR,2023-05-03 15:10:10.576,46.0898517,11.115595,-6.92,15.11,-0.1,null
STON,2023-05-03 15:10:10.576,46.08983671,11.115566883333333,-8.566201,66.413254,-1.946225,2
SMAR,2023-05-03 15:10:10.61,46.0898517,11.115595,-6.45,15.56,-0.16,null
SMAR,2023-05-03 15:10:10.648,46.0898517,11.115595,-5.97,16.17,-0.26,null
SMAR,2023-05-03 15:10:10.679,46.0898517,11.115595,-5.5,16.68,-0.37,null
SMAR,2023-05-03 15:10:10.717,46.0898517,11.115595,-5.06,16.95,-0.45,null
SMAR,2023-05-03 15:10:10.749,46.0898517,11.115595,-4.58,16.95,-0.55,null
SMAR,2023-05-03 15:10:10.784,46.0898517,11.115595,-4.12,16.79,-0.67,null
SMAR,2023-05-03 15:10:10.816,46.0898517,11.115595,-3.65,16.61,-0.85,null
SMAR,2023-05-03 15:10:10.854,46.0898517,11.115595,-3.16,16.53,-1.01,null
SMAR,2023-05-03 15:10:10.88,46.0898517,11.115595,-2.67,16.52,-1.2,null
STON,2023-05-03 15:10:10.88,46.089836483333336,11.115565851666666,-8.566201,66.413254,-1.946225,2
STON,2023-05-03 15:10:10.88,46.089836483333336,11.115565851666666,-5.888421,64.923592,-1.750043,2
SMAR,2023-05-03 15:10:10.912,46.0898517,11.115595,-2.2,16.56,-1.42,null
SMAR,2023-05-03 15:10:10.948,46.0898517,11.115595,-1.7,16.48,-1.64,null
STON,2023-05-03 15:10:10.948,46.08983627333333,11.115564713333333,-5.888421,64.923592,-1.750043,2
STON,2023-05-03 15:10:10.948,46.08983627333333,11.115564713333333,-3.06712,65.87236,-2.457181,2
SMAR,2023-05-03 15:10:10.983,46.0898517,11.115595,-1.27,16.4,-1.86,null
SMAR,2023-05-03 15:10:11.014,46.0898517,11.115595,-0.81,16.49,-2.07,null
SMAR,2023-05-03 15:10:11.049,46.0898517,11.115595,-0.35,16.86,-2.35,null
STON,2023-05-03 15:10:11.049,46.08983632666666,11.11556337,-3.06712,65.87236,-2.457181,2
SMAR,2023-05-03 15:10:11.084,46.0898517,11.115595,0.12,17.6,-2.55,null
SMAR,2023-05-03 15:10:11.12,46.0898517,11.115595,0.65,18.4,-2.74,null
SMAR,2023-05-03 15:10:11.15,46.0898517,11.115595,1.06,19.41,-2.92,null
STON,2023-05-03 15:10:11.15,46.08983632666666,11.11556337,-0.205208,65.790581,-3.698776,2
SMAR,2023-05-03 15:10:11.179,46.0898517,11.115595,1.56,20.02,-3.04,null
SMAR,2023-05-03 15:10:11.214,46.0898517,11.115595,1.84,20.54,-3.14,null
SMAR,2023-05-03 15:10:11.25,46.0898517,11.115595,2.21,20.58,-3.2,null
SMAR,2023-05-03 15:10:11.279,46.0898517,11.115595,2.51,20.43,-3.25,null
SMAR,2023-05-03 15:10:11.313,46.0898517,11.115595,2.8,20.01,-3.31,null
SMAR,2023-05-03 15:10:11.345,46.0898517,11.115595,3.07,19.23,-3.35,null
SMAR,2023-05-03 15:10:11.383,46.0898517,11.115595,3.27,18.59,-3.41,null
STON,2023-05-03 15:10:11.383,46.089836461666664,11.115562296666667,-0.205208,65.790581,-3.698776,2
STON,2023-05-03 15:10:11.383,46.089836461666664,11.115562296666667,2.41788,69.711708,-4.782658,2
SMAR,2023-05-03 15:10:11.42,46.0898517,11.115595,3.54,18.17,-3.4,null
SMAR,2023-05-03 15:10:11.452,46.0898517,11.115595,3.85,18.03,-3.4,null
SMAR,2023-05-03 15:10:11.486,46.0898517,11.115595,4.12,18.13,-3.35,null
SMAR,2023-05-03 15:10:11.514,46.0898517,11.115595,4.43,18.41,-3.29,null
SMAR,2023-05-03 15:10:11.544,46.0898517,11.115595,4.77,19.04,-3.18,null
STON,2023-05-03 15:10:11.544,46.08983632,11.115561591666667,2.41788,69.711708,-4.782658,2
SMAR,2023-05-03 15:10:11.583,46.0898517,11.115595,5.21,19.86,-3.02,null
SMAR,2023-05-03 15:10:11.618,46.0898517,11.115595,5.69,20.63,-2.91,null
SMAR,2023-05-03 15:10:11.653,46.0898517,11.115595,6.11,21.08,-2.9,null
SMAR,2023-05-03 15:10:11.681,46.0898517,11.115595,6.59,21.44,-2.84,null
SMAR,2023-05-03 15:10:11.722,46.0898517,11.115595,7.15,21.79,-2.76,null
SMAR,2023-05-03 15:10:11.758,46.0898517,11.115595,7.72,22.15,-2.64,null
SMAR,2023-05-03 15:10:11.786,46.0898517,11.115595,8.34,22.24,-2.57,null
SMAR,2023-05-03 15:10:11.818,46.0898517,11.115595,8.82,21.69,-2.64,null
SMAR,2023-05-03 15:10:11.849,46.0898517,11.115595,9.19,20.56,-2.77,null
STON,2023-05-03 15:10:11.849,46.08983602333333,11.115560861666667,2.41788,69.711708,-4.782658,2
STON,2023-05-03 15:10:11.849,46.08983602333333,11.115560861666667,6.246097,69.754318,-4.577519,2
SMAR,2023-05-03 15:10:11.881,46.0898517,11.115595,9.57,19.34,-2.98,null
SMAR,2023-05-03 15:10:11.918,46.0898517,11.115595,9.91,18.26,-3.21,null
SMAR,2023-05-03 15:10:11.952,46.0898517,11.115595,10.3,17.55,-3.31,null
SMAR,2023-05-03 15:10:11.99,46.0898517,11.115595,10.69,17.28,-3.42,null
STON,2023-05-03 15:10:11.99,46.08983570833333,11.115559663333332,6.246097,69.754318,-4.577519,2
STON,2023-05-03 15:10:11.99,46.08983570833333,11.115559663333332,9.413702,70.577362,-4.354419,2
SMAR,2023-05-03 15:10:12.026,46.0898517,11.115595,11.04,17.44,-3.44,null
SMAR,2023-05-03 15:10:12.058,46.0898517,11.115595,11.54,18.44,-3.27,null
STON,2023-05-03 15:10:12.058,46.089835488333335,11.115558698333333,9.413702,70.577362,-4.354419,2
SMAR,2023-05-03 15:10:12.086,46.0898517,11.115595,12.13,20.07,-2.95,null
SMAR,2023-05-03 15:10:12.119,46.0898517,11.115595,12.71,21.79,-2.59,null
SMAR,2023-05-03 15:10:12.152,46.0898517,11.115595,13.28,23.37,-2.27,null
SMAR,2023-05-03 15:10:12.186,46.0898517,11.115595,13.85,24.65,-1.96,null
STON,2023-05-03 15:10:12.186,46.089835488333335,11.115558698333333,11.684978,66.482803,-5.175907,2
SMAR,2023-05-03 15:10:12.217,46.0898517,11.115595,14.36,25.46,-1.75,null
SMAR,2023-05-03 15:10:12.249,46.0898517,11.115595,14.81,25.42,-1.75,null
SMAR,2023-05-03 15:10:12.287,46.0898517,11.115595,15.12,24.43,-2.03,null
SMAR,2023-05-03 15:10:12.32,46.0898517,11.115595,15.35,22.74,-2.55,null
SMAR,2023-05-03 15:10:12.348,46.0898517,11.115595,15.56,20.7,-3.14,null
STON,2023-05-03 15:10:12.348,46.08983533333333,11.115557591666667,11.684978,66.482803,-5.175907,2
STON,2023-05-03 15:10:12.348,46.08983533333333,11.115557591666667,15.053041,74.661095,-3.482168,2
SMAR,2023-05-03 15:10:12.386,46.0898517,11.115595,15.73,18.81,-3.73,null
SMAR,2023-05-03 15:10:12.423,46.0898517,11.115595,15.98,17.43,-4.2,null
SMAR,2023-05-03 15:10:12.454,46.0898517,11.115595,16.33,16.76,-4.49,null
SMAR,2023-05-03 15:10:12.486,46.0898517,11.115595,16.75,16.74,-4.58,null
SMAR,2023-05-03 15:10:12.516,46.0898517,11.115595,17.26,17.1,-4.55,null
STON,2023-05-03 15:10:12.516,46.089835155,11.115556765000001,15.053041,74.661095,-3.482168,2
SMAR,2023-05-03 15:10:12.552,46.0898517,11.115595,17.77,17.58,-4.48,null
SMAR,2023-05-03 15:10:12.592,46.0898517,11.115595,18.29,18.03,-4.42,null
STON,2023-05-03 15:10:12.592,46.089835155,11.115556765000001,16.58069,65.854942,-6.042671,2
SMAR,2023-05-03 15:10:12.622,46.0898517,11.115595,18.8,18.38,-4.31,null
SMAR,2023-05-03 15:10:12.662,46.0898517,11.115595,19.31,18.38,-4.37,null
SMAR,2023-05-03 15:10:12.692,46.0898517,11.115595,19.76,17.65,-4.63,null
SMAR,2023-05-03 15:10:12.72,46.0898517,11.115595,20.13,16.62,-5.05,null
STON,2023-05-03 15:10:12.72,46.089835068333336,11.115555728333334,16.58069,65.854942,-6.042671,2
SMAR,2023-05-03 15:10:12.75,46.0898517,11.115595,20.57,15.6,-5.43,null
STON,2023-05-03 15:10:12.75,46.089835068333336,11.115555728333334,19.38826,66.668144,-6.185233,2
SMAR,2023-05-03 15:10:12.786,46.0898517,11.115595,20.98,15.08,-5.63,null
SMAR,2023-05-03 15:10:12.818,46.0898517,11.115595,21.52,15.31,-5.67,null
SMAR,2023-05-03 15:10:12.853,46.0898517,11.115595,22.12,15.59,-5.57,null
SMAR,2023-05-03 15:10:12.888,46.0898517,11.115595,22.61,15.78,-5.56,null
STON,2023-05-03 15:10:12.888,46.08983475,11.115554673333333,19.38826,66.668144,-6.185233,2
SMAR,2023-05-03 15:10:12.919,46.0898517,11.115595,23.11,15.48,-5.69,null
SMAR,2023-05-03 15:10:12.952,46.0898517,11.115595,23.55,14.84,-6.03,null
STON,2023-05-03 15:10:12.952,46.08983475,11.115554673333333,22.034918,62.73674,-7.713413,2
SMAR,2023-05-03 15:10:12.985,46.0898517,11.115595,23.97,14.26,-6.37,null
SMAR,2023-05-03 15:10:13.019,46.0898517,11.115595,24.45,13.78,-6.67,null
SMAR,2023-05-03 15:10:13.051,46.0898517,11.115595,24.99,13.68,-6.84,null
SMAR,2023-05-03 15:10:13.084,46.0898517,11.115595,25.58,13.92,-6.82,null
STON,2023-05-03 15:10:13.084,46.08983447,11.11555353,22.034918,62.73674,-7.713413,2
SMAR,2023-05-03 15:10:13.119,46.0898517,11.115595,26.33,14.22,-6.72,null
SMAR,2023-05-03 15:10:13.152,46.0898517,11.115595,26.98,14.54,-6.69,null
STON,2023-05-03 15:10:13.152,46.08983447,11.11555353,24.954914,60.396198,-8.978195,2
SMAR,2023-05-03 15:10:13.187,46.0898517,11.115595,27.6,14.47,-6.86,null
SMAR,2023-05-03 15:10:13.22,46.0898517,11.115595,28.21,14.14,-7.16,null
SMAR,2023-05-03 15:10:13.252,46.0898517,11.115595,28.77,13.63,-7.61,null
SMAR,2023-05-03 15:10:13.285,46.0898517,11.115595,29.34,13.14,-8.03,null
SMAR,2023-05-03 15:10:13.319,46.0898517,11.115595,29.9,12.92,-8.31,null
STON,2023-05-03 15:10:13.319,46.089834275,11.115552331666667,24.954914,60.396198,-8.978195,2
SMAR,2023-05-03 15:10:13.355,46.0898517,11.115595,30.55,13.06,-8.35,null
SMAR,2023-05-03 15:10:13.386,46.0898517,11.115595,31.23,13.27,-8.4,null
STON,2023-05-03 15:10:13.386,46.089834275,11.115552331666667,28.481569,59.915272,-9.906019,2
SMAR,2023-05-03 15:10:13.419,46.0898517,11.115595,31.82,13.43,-8.46,null
SMAR,2023-05-03 15:10:13.45,46.0898517,11.115595,32.43,13.35,-8.65,null
STON,2023-05-03 15:10:13.45,46.089833993333336,11.115551056666666,28.481569,59.915272,-9.906019,2
SMAR,2023-05-03 15:10:13.484,46.0898517,11.115595,33.01,13.27,-8.9,null
SMAR,2023-05-03 15:10:13.52,46.0898517,11.115595,33.59,13.31,-8.99,null
STON,2023-05-03 15:10:13.52,46.089833993333336,11.115551056666666,31.97484,57.814499,-11.772241,2
SMAR,2023-05-03 15:10:13.551,46.0898517,11.115595,34.18,13.43,-9.05,null
SMAR,2023-05-03 15:10:13.585,46.0898517,11.115595,34.77,13.77,-8.93,null
SMAR,2023-05-03 15:10:13.62,46.0898517,11.115595,35.43,14.2,-8.74,null
SMAR,2023-05-03 15:10:13.655,46.0898517,11.115595,36.04,14.38,-8.73,null
SMAR,2023-05-03 15:10:13.686,46.0898517,11.115595,36.57,14.38,-8.83,null
SMAR,2023-05-03 15:10:13.719,46.0898517,11.115595,37.11,14.26,-8.97,null
STON,2023-05-03 15:10:13.719,46.089833765,11.115550006666666,31.97484,57.814499,-11.772241,2
SMAR,2023-05-03 15:10:13.753,46.0898517,11.115595,37.62,14.05,-9.21,null
SMAR,2023-05-03 15:10:13.787,46.0898517,11.115595,38.16,13.95,-9.36,null
STON,2023-05-03 15:10:13.787,46.089833765,11.115550006666666,35.452118,57.642246,-12.526651,2
SMAR,2023-05-03 15:10:13.818,46.0898517,11.115595,38.64,13.85,-9.46,null
SMAR,2023-05-03 15:10:13.852,46.0898517,11.115595,39.17,13.79,-9.6,null
STON,2023-05-03 15:10:13.852,46.08983349333333,11.115549075,35.452118,57.642246,-12.526651,2
SMAR,2023-05-03 15:10:13.885,46.0898517,11.115595,39.74,13.87,-9.62,null
SMAR,2023-05-03 15:10:13.919,46.0898517,11.115595,40.26,13.92,-9.69,null
SMAR,2023-05-03 15:10:13.95,46.0898517,11.115595,40.76,13.81,-9.84,null
SMAR,2023-05-03 15:10:13.988,46.0898517,11.115595,41.27,13.76,-9.97,null
SMAR,2023-05-03 15:10:14.02,46.0898517,11.115595,41.75,13.73,-10.07,null
SMAR,2023-05-03 15:10:14.054,46.0898517,11.115595,42.25,13.78,-10.12,null
SMAR,2023-05-03 15:10:14.092,46.0898517,11.115595,42.78,13.98,-10.03,null
STON,2023-05-03 15:10:14.092,46.08983319,11.115548238333334,35.452118,57.642246,-12.526651,2
SMAR,2023-05-03 15:10:14.119,46.0898517,11.115595,43.3,14.17,-9.94,null
SMAR,2023-05-03 15:10:14.152,46.0898517,11.115595,43.81,14.28,-9.99,null
SMAR,2023-05-03 15:10:14.185,46.0898517,11.115595,44.23,14.19,-10.16,null
SMAR,2023-05-03 15:10:14.22,46.0898517,11.115595,44.56,13.82,-10.69,null
SMAR,2023-05-03 15:10:14.253,46.0898517,11.115595,44.89,13.48,-11.11,null
SMAR,2023-05-03 15:10:14.287,46.0898517,11.115595,45.27,13.42,-11.2,null
SMAR,2023-05-03 15:10:14.319,46.0898517,11.115595,45.67,13.56,-11.14,null
SMAR,2023-05-03 15:10:14.351,46.0898517,11.115595,46.12,13.91,-10.86,null
SMAR,2023-05-03 15:10:14.391,46.0898517,11.115595,46.53,14.19,-10.62,null
SMAR,2023-05-03 15:10:14.423,46.0898517,11.115595,46.87,14.27,-10.58,null
SMAR,2023-05-03 15:10:14.455,46.0898517,11.115595,47.16,14.22,-10.72,null
SMAR,2023-05-03 15:10:14.489,46.0898517,11.115595,47.37,14.03,-10.98,null
SMAR,2023-05-03 15:10:14.519,46.0898517,11.115595,47.51,13.84,-11.25,null
SMAR,2023-05-03 15:10:14.558,46.0898517,11.115595,47.57,13.67,-11.43,null
STON,2023-05-03 15:10:14.558,46.08983319,11.115548238333334,41.466888,54.388371,-15.340476,2
SMAR,2023-05-03 15:10:14.595,46.0898517,11.115595,47.59,13.6,-11.48,null
STON,2023-05-03 15:10:14.595,46.089832985,11.115547551666667,41.466888,54.388371,-15.340476,2
STON,2023-05-03 15:10:14.595,46.089832985,11.115547551666667,44.095432,53.010132,-16.73362,2
STON,2023-05-03 15:10:14.595,46.08983279,11.115546986666667,44.095432,53.010132,-16.73362,2
STON,2023-05-03 15:10:14.595,46.08983279,11.115546986666667,46.35458,52.654316,-17.285006,2
SMAR,2023-05-03 15:10:14.626,46.0898517,11.115595,47.66,13.85,-11.22,null
SMAR,2023-05-03 15:10:14.66,46.0898517,11.115595,47.66,14.17,-10.81,null
SMAR,2023-05-03 15:10:14.7,46.0898517,11.115595,47.55,14.35,-10.61,null
SMAR,2023-05-03 15:10:14.732,46.0898517,11.115595,47.43,14.49,-10.5,null
SMAR,2023-05-03 15:10:14.764,46.0898517,11.115595,47.18,14.43,-10.54,null
STON,2023-05-03 15:10:14.764,46.089832781666665,11.11554683,46.35458,52.654316,-17.285006,2
SMAR,2023-05-03 15:10:14.791,46.0898517,11.115595,46.87,14.36,-10.58,null
STON,2023-05-03 15:10:14.791,46.089832781666665,11.11554683,46.994934,51.237003,-18.424034,2
SMAR,2023-05-03 15:10:14.828,46.0898517,11.115595,46.59,14.5,-10.4,null
STON,2023-05-03 15:10:14.828,46.08983284833333,11.115547155,46.994934,51.237003,-18.424034,2
SMAR,2023-05-03 15:10:14.86,46.0898517,11.115595,46.28,14.73,-10.12,null
SMAR,2023-05-03 15:10:14.892,46.0898517,11.115595,45.87,14.85,-9.9,null
SMAR,2023-05-03 15:10:14.927,46.0898517,11.115595,45.4,14.87,-9.8,null
SMAR,2023-05-03 15:10:14.955,46.0898517,11.115595,44.97,14.88,-9.72,null
STON,2023-05-03 15:10:14.955,46.08983284833333,11.115547155,46.089985,53.199825,-16.871492,2
SMAR,2023-05-03 15:10:14.991,46.0898517,11.115595,44.47,14.77,-9.73,null
SMAR,2023-05-03 15:10:15.027,46.0898517,11.115595,43.96,14.71,-9.7,null
STON,2023-05-03 15:10:15.027,46.08983305333334,11.115547823333333,46.089985,53.199825,-16.871492,2
SMAR,2023-05-03 15:10:15.062,46.0898517,11.115595,43.46,14.9,-9.39,null
SMAR,2023-05-03 15:10:15.09,46.0898517,11.115595,42.96,15.15,-9.0,null
SMAR,2023-05-03 15:10:15.125,46.0898517,11.115595,42.4,15.42,-8.58,null
STON,2023-05-03 15:10:15.125,46.08983305333334,11.115547823333333,43.767445,55.183712,-15.162629,2
SMAR,2023-05-03 15:10:15.161,46.0898517,11.115595,41.75,15.48,-8.34,null
SMAR,2023-05-03 15:10:15.194,46.0898517,11.115595,41.05,15.24,-8.39,null
SMAR,2023-05-03 15:10:15.225,46.0898517,11.115595,40.3,15.16,-8.29,null
SMAR,2023-05-03 15:10:15.258,46.0898517,11.115595,39.52,15.41,-7.79,null
STON,2023-05-03 15:10:15.258,46.08983336833333,11.115549116666667,43.767445,55.183712,-15.162629,2
SMAR,2023-05-03 15:10:15.291,46.0898517,11.115595,38.85,15.6,-7.53,null
SMAR,2023-05-03 15:10:15.325,46.0898517,11.115595,38.14,15.61,-7.27,null
STON,2023-05-03 15:10:15.325,46.08983336833333,11.115549116666667,40.444794,57.999317,-12.489857,2
SMAR,2023-05-03 15:10:15.354,46.0898517,11.115595,37.25,15.72,-6.98,null
SMAR,2023-05-03 15:10:15.391,46.0898517,11.115595,36.45,15.72,-6.77,null
SMAR,2023-05-03 15:10:15.426,46.0898517,11.115595,35.62,15.67,-6.56,null
SMAR,2023-05-03 15:10:15.457,46.0898517,11.115595,34.73,15.48,-6.43,null
STON,2023-05-03 15:10:15.457,46.08983362833333,11.115550676666667,40.444794,57.999317,-12.489857,2
SMAR,2023-05-03 15:10:15.491,46.0898517,11.115595,33.87,15.26,-6.33,null
STON,2023-05-03 15:10:15.491,46.08983362833333,11.115550676666667,35.953823,60.856529,-9.698998,2
SMAR,2023-05-03 15:10:15.534,46.0898517,11.115595,32.99,15.16,-6.16,null
SMAR,2023-05-03 15:10:15.555,46.0898517,11.115595,32.09,14.98,-6.01,null
SMAR,2023-05-03 15:10:15.59,46.0898517,11.115595,31.17,14.88,-5.88,null
SMAR,2023-05-03 15:10:15.623,46.0898517,11.115595,30.25,14.94,-5.62,null
SMAR,2023-05-03 15:10:15.658,46.0898517,11.115595,29.31,15.07,-5.26,null
SMAR,2023-05-03 15:10:15.688,46.0898517,11.115595,28.37,15.32,-4.92,null
SMAR,2023-05-03 15:10:15.725,46.0898517,11.115595,27.44,15.34,-4.69,null
STON,2023-05-03 15:10:15.725,46.08983390666667,11.115552491666667,35.953823,60.856529,-9.698998,2
STON,2023-05-03 15:10:15.725,46.08983390666667,11.115552491666667,30.747431,61.514931,-8.132209,2
SMAR,2023-05-03 15:10:15.756,46.0898517,11.115595,26.38,14.72,-4.75,null
SMAR,2023-05-03 15:10:15.797,46.0898517,11.115595,25.25,13.82,-4.96,null
SMAR,2023-05-03 15:10:15.826,46.0898517,11.115595,24.12,13.09,-5.04,null
SMAR,2023-05-03 15:10:15.858,46.0898517,11.115595,23.08,12.75,-4.91,null
STON,2023-05-03 15:10:15.858,46.089834205,11.115554658333334,30.747431,61.514931,-8.132209,2
SMAR,2023-05-03 15:10:15.897,46.0898517,11.115595,22.13,13.01,-4.58,null
SMAR,2023-05-03 15:10:15.927,46.0898517,11.115595,21.28,13.65,-4.09,null
STON,2023-05-03 15:10:15.927,46.089834205,11.115554658333334,24.753014,60.878113,-7.017267,2
SMAR,2023-05-03 15:10:15.956,46.0898517,11.115595,20.45,14.13,-3.7,null
SMAR,2023-05-03 15:10:15.992,46.0898517,11.115595,19.58,14.19,-3.5,null
STON,2023-05-03 15:10:15.992,46.08983453333333,11.115556766666666,24.753014,60.878113,-7.017267,2
SMAR,2023-05-03 15:10:16.025,46.0898517,11.115595,18.69,13.8,-3.45,null
SMAR,2023-05-03 15:10:16.056,46.0898517,11.115595,17.79,13.13,-3.46,null
SMAR,2023-05-03 15:10:16.089,46.0898517,11.115595,16.93,12.36,-3.49,null
STON,2023-05-03 15:10:16.089,46.08983453333333,11.115556766666666,19.348198,62.715603,-5.095181,2
SMAR,2023-05-03 15:10:16.123,46.0898517,11.115595,16.05,11.49,-3.48,null
SMAR,2023-05-03 15:10:16.16,46.0898517,11.115595,15.21,10.69,-3.41,null
SMAR,2023-05-03 15:10:16.192,46.0898517,11.115595,14.43,10.13,-3.29,null
SMAR,2023-05-03 15:10:16.225,46.0898517,11.115595,13.65,9.91,-3.1,null
STON,2023-05-03 15:10:16.225,46.08983472833334,11.115558735,19.348198,62.715603,-5.095181,2
SMAR,2023-05-03 15:10:16.264,46.0898517,11.115595,12.94,10.08,-2.75,null
SMAR,2023-05-03 15:10:16.291,46.0898517,11.115595,12.25,10.45,-2.38,null
SMAR,2023-05-03 15:10:16.326,46.0898517,11.115595,11.53,10.91,-2.01,null
STON,2023-05-03 15:10:16.326,46.08983472833334,11.115558735,14.329338,59.210007,-4.661039,2
SMAR,2023-05-03 15:10:16.362,46.0898517,11.115595,10.82,11.37,-1.62,null
SMAR,2023-05-03 15:10:16.398,46.0898517,11.115595,10.11,11.6,-1.26,null
SMAR,2023-05-03 15:10:16.43,46.0898517,11.115595,9.29,11.44,-0.96,null
SMAR,2023-05-03 15:10:16.46,46.0898517,11.115595,8.52,11.01,-0.69,null
STON,2023-05-03 15:10:16.46,46.08983486333333,11.115560685,14.329338,59.210007,-4.661039,2
SMAR,2023-05-03 15:10:16.499,46.0898517,11.115595,7.76,10.25,-0.43,null
SMAR,2023-05-03 15:10:16.531,46.0898517,11.115595,6.91,9.08,-0.23,null
STON,2023-05-03 15:10:16.531,46.08983486333333,11.115560685,10.066737,61.402775,-2.436318,2
SMAR,2023-05-03 15:10:16.56,46.0898517,11.115595,6.14,7.94,-0.01,null
SMAR,2023-05-03 15:10:16.599,46.0898517,11.115595,5.43,7.01,0.29,null
SMAR,2023-05-03 15:10:16.633,46.0898517,11.115595,4.68,6.6,0.56,null
SMAR,2023-05-03 15:10:16.662,46.0898517,11.115595,4.03,6.93,0.88,null
SMAR,2023-05-03 15:10:16.693,46.0898517,11.115595,3.4,7.84,1.28,null
STON,2023-05-03 15:10:16.693,46.08983492666667,11.115562696666666,10.066737,61.402775,-2.436318,2
SMAR,2023-05-03 15:10:16.739,46.0898517,11.115595,2.76,9.2,1.52,null
SMAR,2023-05-03 15:10:16.769,46.0898517,11.115595,2.17,10.65,1.8,null
SMAR,2023-05-03 15:10:16.802,46.0898517,11.115595,1.55,11.78,2.07,null
STON,2023-05-03 15:10:16.802,46.08983492666667,11.115562696666666,5.58446,56.832355,-0.8775,2
SMAR,2023-05-03 15:10:16.836,46.0898517,11.115595,0.97,12.27,2.18,null
SMAR,2023-05-03 15:10:16.873,46.0898517,11.115595,0.37,12.12,2.34,null
SMAR,2023-05-03 15:10:16.903,46.0898517,11.115595,-0.26,11.6,2.49,null
STON,2023-05-03 15:10:16.903,46.08983507833333,11.115564305,5.58446,56.832355,-0.8775,2
SMAR,2023-05-03 15:10:16.938,46.0898517,11.115595,-0.81,10.97,2.62,null
SMAR,2023-05-03 15:10:16.963,46.0898517,11.115595,-1.46,10.71,2.65,null
STON,2023-05-03 15:10:16.963,46.08983507833333,11.115564305,1.847313,62.390636,0.884536,2
SMAR,2023-05-03 15:10:16.995,46.0898517,11.115595,-2.08,10.76,2.73,null
SMAR,2023-05-03 15:10:17.028,46.0898517,11.115595,-2.7,10.85,2.89,null
SMAR,2023-05-03 15:10:17.062,46.0898517,11.115595,-3.41,11.07,2.95,null
SMAR,2023-05-03 15:10:17.093,46.0898517,11.115595,-4.08,11.41,2.98,null
STON,2023-05-03 15:10:17.093,46.089835396666665,11.115565795,1.847313,62.390636,0.884536,2
SMAR,2023-05-03 15:10:17.133,46.0898517,11.115595,-4.81,11.95,3.0,null
STON,2023-05-03 15:10:17.133,46.089835396666665,11.115565795,-1.83173,60.841324,1.547864,2
SMAR,2023-05-03 15:10:17.162,46.0898517,11.115595,-5.55,12.47,3.0,null
SMAR,2023-05-03 15:10:17.199,46.0898517,11.115595,-6.28,12.85,2.99,null
SMAR,2023-05-03 15:10:17.23,46.0898517,11.115595,-7.01,13.2,3.02,null
SMAR,2023-05-03 15:10:17.264,46.0898517,11.115595,-7.68,13.61,2.97,null
STON,2023-05-03 15:10:17.264,46.089835881666666,11.115567363333334,-1.83173,60.841324,1.547864,2
SMAR,2023-05-03 15:10:17.297,46.0898517,11.115595,-8.36,14.11,2.88,null
SMAR,2023-05-03 15:10:17.328,46.0898517,11.115595,-9.01,14.59,2.82,null
STON,2023-05-03 15:10:17.328,46.089835881666666,11.115567363333334,-6.110053,62.874405,1.703877,2
SMAR,2023-05-03 15:10:17.361,46.0898517,11.115595,-9.65,14.97,2.7,null
SMAR,2023-05-03 15:10:17.393,46.0898517,11.115595,-10.26,15.09,2.62,null
SMAR,2023-05-03 15:10:17.431,46.0898517,11.115595,-10.94,15.18,2.52,null
STON,2023-05-03 15:10:17.431,46.089836418333334,11.115568748333333,-6.110053,62.874405,1.703877,2
SMAR,2023-05-03 15:10:17.463,46.0898517,11.115595,-11.59,15.3,2.42,null
SMAR,2023-05-03 15:10:17.495,46.0898517,11.115595,-12.21,15.33,2.34,null
SMAR,2023-05-03 15:10:17.528,46.0898517,11.115595,-12.85,15.31,2.2,null
STON,2023-05-03 15:10:17.528,46.089836418333334,11.115568748333333,-9.988608,64.777916,1.241707,2
SMAR,2023-05-03 15:10:17.56,46.0898517,11.115595,-13.48,15.35,2.07,null
SMAR,2023-05-03 15:10:17.597,46.0898517,11.115595,-14.12,15.54,1.91,null
SMAR,2023-05-03 15:10:17.631,46.0898517,11.115595,-14.76,16.03,1.65,null
SMAR,2023-05-03 15:10:17.663,46.0898517,11.115595,-15.35,16.72,1.38,null
SMAR,2023-05-03 15:10:17.697,46.0898517,11.115595,-16.0,17.49,1.04,null
STON,2023-05-03 15:10:17.697,46.089836985,11.115570025,-9.988608,64.777916,1.241707,2
SMAR,2023-05-03 15:10:17.726,46.0898517,11.115595,-16.6,18.3,0.68,null
SMAR,2023-05-03 15:10:17.762,46.0898517,11.115595,-17.21,19.18,0.23,null
STON,2023-05-03 15:10:17.762,46.089836985,11.115570025,-13.813899,65.522583,0.48389,2
SMAR,2023-05-03 15:10:17.796,46.0898517,11.115595,-17.82,19.86,-0.16,null
SMAR,2023-05-03 15:10:17.829,46.0898517,11.115595,-18.43,20.37,-0.51,null
SMAR,2023-05-03 15:10:17.864,46.0898517,11.115595,-19.06,20.71,-0.87,null
STON,2023-05-03 15:10:17.864,46.089837583333335,11.115571295,-13.813899,65.522583,0.48389,2
SMAR,2023-05-03 15:10:17.9,46.0898517,11.115595,-19.69,20.8,-1.11,null
SMAR,2023-05-03 15:10:17.934,46.0898517,11.115595,-20.36,20.77,-1.37,null
STON,2023-05-03 15:10:17.934,46.089837583333335,11.115571295,-17.466415,70.409996,-1.651791,2
SMAR,2023-05-03 15:10:17.962,46.0898517,11.115595,-21.03,20.75,-1.59,null
SMAR,2023-05-03 15:10:17.996,46.0898517,11.115595,-21.73,20.68,-1.82,null
STON,2023-05-03 15:10:17.996,46.08983824166667,11.115572556666667,-17.466415,70.409996,-1.651791,2
SMAR,2023-05-03 15:10:18.03,46.0898517,11.115595,-22.47,20.53,-2.03,null
SMAR,2023-05-03 15:10:18.063,46.0898517,11.115595,-23.22,20.36,-2.21,null
SMAR,2023-05-03 15:10:18.095,46.0898517,11.115595,-24.02,20.1,-2.37,null
SMAR,2023-05-03 15:10:18.133,46.0898517,11.115595,-24.85,19.73,-2.47,null
STON,2023-05-03 15:10:18.133,46.08983824166667,11.115572556666667,-21.44174,71.451561,-3.315012,2
SMAR,2023-05-03 15:10:18.166,46.0898517,11.115595,-25.7,19.31,-2.56,null
SMAR,2023-05-03 15:10:18.198,46.0898517,11.115595,-26.56,18.86,-2.59,null
SMAR,2023-05-03 15:10:18.23,46.0898517,11.115595,-27.4,18.53,-2.62,null
SMAR,2023-05-03 15:10:18.265,46.0898517,11.115595,-28.25,18.3,-2.7,null
STON,2023-05-03 15:10:18.265,46.089839025,11.115574188333333,-21.44174,71.451561,-3.315012,2
SMAR,2023-05-03 15:10:18.297,46.0898517,11.115595,-29.06,18.21,-2.84,null
SMAR,2023-05-03 15:10:18.328,46.0898517,11.115595,-29.83,18.39,-3.11,null
STON,2023-05-03 15:10:18.328,46.089839025,11.115574188333333,-26.317207,69.990273,-4.119556,16
SMAR,2023-05-03 15:10:18.363,46.0898517,11.115595,-30.6,18.69,-3.45,null
SMAR,2023-05-03 15:10:18.398,46.0898517,11.115595,-31.33,18.99,-3.76,null
SMAR,2023-05-03 15:10:18.434,46.0898517,11.115595,-31.99,19.19,-3.96,null
STON,2023-05-03 15:10:18.434,46.089839635,11.115575613333334,-26.317207,69.990273,-4.119556,16
SMAR,2023-05-03 15:10:18.466,46.0898517,11.115595,-32.76,19.08,-4.03,null
SMAR,2023-05-03 15:10:18.502,46.0898517,11.115595,-33.48,18.8,-3.92,null
SMAR,2023-05-03 15:10:18.532,46.0898517,11.115595,-34.18,18.44,-3.72,null
STON,2023-05-03 15:10:18.532,46.089839635,11.115575613333334,-30.994675,71.380348,-5.731284,16
SMAR,2023-05-03 15:10:18.567,46.0898517,11.115595,-34.89,18.04,-3.49,null
SMAR,2023-05-03 15:10:18.602,46.0898517,11.115595,-35.58,17.9,-3.39,null
SMAR,2023-05-03 15:10:18.633,46.0898517,11.115595,-36.22,18.02,-3.47,null
SMAR,2023-05-03 15:10:18.665,46.0898517,11.115595,-36.82,18.34,-3.7,null
SMAR,2023-05-03 15:10:18.697,46.0898517,11.115595,-37.43,18.68,-3.92,null
STON,2023-05-03 15:10:18.697,46.08983993,11.115576818333333,-30.994675,71.380348,-5.731284,16
STON,2023-05-03 15:10:18.697,46.08983993,11.115576818333333,-35.252151,70.203239,-5.391497,16
SMAR,2023-05-03 15:10:18.736,46.0898517,11.115595,-38.02,18.93,-4.09,null
SMAR,2023-05-03 15:10:18.769,46.0898517,11.115595,-38.64,19.12,-4.25,null
SMAR,2023-05-03 15:10:18.801,46.0898517,11.115595,-39.25,19.22,-4.33,null
SMAR,2023-05-03 15:10:18.835,46.0898517,11.115595,-39.88,19.18,-4.32,null
SMAR,2023-05-03 15:10:18.868,46.0898517,11.115595,-40.5,19.19,-4.38,null
STON,2023-05-03 15:10:18.868,46.08984018833333,11.115578043333333,-35.252151,70.203239,-5.391497,16
SMAR,2023-05-03 15:10:18.897,46.0898517,11.115595,-41.06,19.42,-4.65,null
SMAR,2023-05-03 15:10:18.939,46.0898517,11.115595,-41.6,19.84,-5.08,null
SMAR,2023-05-03 15:10:18.968,46.0898517,11.115595,-42.12,20.22,-5.5,null
STON,2023-05-03 15:10:18.968,46.08984018833333,11.115578043333333,-38.865738,72.437073,-6.699109,16
SMAR,2023-05-03 15:10:18.998,46.0898517,11.115595,-42.63,20.42,-5.76,null
SMAR,2023-05-03 15:10:19.037,46.0898517,11.115595,-43.15,20.44,-5.86,null
STON,2023-05-03 15:10:19.037,46.089840503333335,11.115578793333333,-38.865738,72.437073,-6.699109,16
SMAR,2023-05-03 15:10:19.069,46.0898517,11.115595,-43.65,20.25,-5.76,null
SMAR,2023-05-03 15:10:19.103,46.0898517,11.115595,-44.16,20.08,-5.68,null
SMAR,2023-05-03 15:10:19.134,46.0898517,11.115595,-44.62,20.02,-5.71,null
STON,2023-05-03 15:10:19.134,46.089840503333335,11.115578793333333,-42.059914,75.444305,-8.973695,20
SMAR,2023-05-03 15:10:19.165,46.0898517,11.115595,-45.07,20.07,-5.84,null
SMAR,2023-05-03 15:10:19.201,46.0898517,11.115595,-45.52,20.36,-6.23,null
SMAR,2023-05-03 15:10:19.232,46.0898517,11.115595,-45.86,20.9,-6.85,null
SMAR,2023-05-03 15:10:19.267,46.0898517,11.115595,-46.21,21.49,-7.52,null
STON,2023-05-03 15:10:19.267,46.089840755,11.115579503333333,-42.059914,75.444305,-8.973695,20
SMAR,2023-05-03 15:10:19.301,46.0898517,11.115595,-46.57,21.88,-7.99,null
SMAR,2023-05-03 15:10:19.334,46.0898517,11.115595,-46.96,21.85,-8.02,null
STON,2023-05-03 15:10:19.334,46.089840755,11.115579503333333,-44.730434,76.872787,-10.344895,20
SMAR,2023-05-03 15:10:19.367,46.0898517,11.115595,-47.43,21.38,-7.53,null
SMAR,2023-05-03 15:10:19.403,46.0898517,11.115595,-47.92,20.74,-6.86,null
SMAR,2023-05-03 15:10:19.434,46.0898517,11.115595,-48.37,20.22,-6.29,null
SMAR,2023-05-03 15:10:19.469,46.0898517,11.115595,-48.82,19.92,-5.89,null
STON,2023-05-03 15:10:19.469,46.08984089166667,11.115579996666666,-44.730434,76.872787,-10.344895,20
SMAR,2023-05-03 15:10:19.5,46.0898517,11.115595,-49.23,19.96,-5.91,null
SMAR,2023-05-03 15:10:19.532,46.0898517,11.115595,-49.56,20.28,-6.22,null
SMAR,2023-05-03 15:10:19.563,46.0898517,11.115595,-49.88,20.6,-6.48,null
SMAR,2023-05-03 15:10:19.599,46.0898517,11.115595,-50.22,20.63,-6.46,null
SMAR,2023-05-03 15:10:19.633,46.0898517,11.115595,-50.53,20.49,-6.18,null
SMAR,2023-05-03 15:10:19.666,46.0898517,11.115595,-50.8,20.34,-5.84,null
SMAR,2023-05-03 15:10:19.7,46.0898517,11.115595,-50.98,20.51,-5.9,null
SMAR,2023-05-03 15:10:19.737,46.0898517,11.115595,-51.03,21.0,-6.32,null
SMAR,2023-05-03 15:10:19.766,46.0898517,11.115595,-51.04,21.44,-6.69,null
SMAR,2023-05-03 15:10:19.804,46.0898517,11.115595,-51.02,21.77,-6.9,null
SMAR,2023-05-03 15:10:19.841,46.0898517,11.115595,-50.92,21.78,-6.75,null
SMAR,2023-05-03 15:10:19.869,46.0898517,11.115595,-50.88,21.66,-6.51,null
SMAR,2023-05-03 15:10:19.901,46.0898517,11.115595,-50.69,21.77,-6.47,null
SMAR,2023-05-03 15:10:19.935,46.0898517,11.115595,-50.43,21.77,-6.35,null
SMAR,2023-05-03 15:10:19.975,46.0898517,11.115595,-50.28,21.79,-6.31,null
SMAR,2023-05-03 15:10:20.009,46.0898517,11.115595,-49.9,22.0,-6.48,null
SMAR,2023-05-03 15:10:20.044,46.0898517,11.115595,-49.47,22.14,-6.52,null
STON,2023-05-03 15:10:20.044,46.08984089166667,11.115579996666666,-47.16209,77.22924,-10.70847,20
STON,2023-05-03 15:10:20.044,46.089840923333334,11.11558073,-47.16209,77.22924,-10.70847,20
STON,2023-05-03 15:10:20.044,46.089840923333334,11.11558073,-49.38522,77.714447,-10.789166,20
STON,2023-05-03 15:10:20.044,46.089840771666665,11.11558101,-49.38522,77.714447,-10.789166,20
STON,2023-05-03 15:10:20.044,46.089840771666665,11.11558101,-49.862862,79.751602,-11.691568,20
SMAR,2023-05-03 15:10:20.071,46.0898517,11.115595,-49.14,22.02,-6.23,null
STON,2023-05-03 15:10:20.071,46.08984060833333,11.115580801666667,-49.862862,79.751602,-11.691568,20
SMAR,2023-05-03 15:10:20.103,46.0898517,11.115595,-48.69,21.84,-5.96,null
SMAR,2023-05-03 15:10:20.136,46.0898517,11.115595,-48.19,21.55,-5.52,null
STON,2023-05-03 15:10:20.136,46.08984060833333,11.115580801666667,-48.608753,79.364334,-10.984675,20
SMAR,2023-05-03 15:10:20.166,46.0898517,11.115595,-47.76,21.08,-4.86,null
SMAR,2023-05-03 15:10:20.202,46.0898517,11.115595,-47.22,20.91,-4.61,null
STON,2023-05-03 15:10:20.202,46.08984048,11.115579936666666,-48.608753,79.364334,-10.984675,20
SMAR,2023-05-03 15:10:20.233,46.0898517,11.115595,-46.56,21.14,-4.76,null
SMAR,2023-05-03 15:10:20.271,46.0898517,11.115595,-45.91,21.39,-4.83,null
SMAR,2023-05-03 15:10:20.303,46.0898517,11.115595,-45.22,21.45,-4.72,null
SMAR,2023-05-03 15:10:20.338,46.0898517,11.115595,-44.52,21.21,-4.36,null
SMAR,2023-05-03 15:10:20.37,46.0898517,11.115595,-43.88,20.79,-3.83,null
STON,2023-05-03 15:10:20.37,46.08984048,11.115579936666666,-46.034031,75.743927,-7.904724,20
SMAR,2023-05-03 15:10:20.403,46.0898517,11.115595,-43.14,20.52,-3.43,null
SMAR,2023-05-03 15:10:20.432,46.0898517,11.115595,-42.38,20.42,-3.22,null
SMAR,2023-05-03 15:10:20.471,46.0898517,11.115595,-41.64,20.49,-3.18,null
STON,2023-05-03 15:10:20.471,46.089840003333336,11.115579011666666,-46.034031,75.743927,-7.904724,20
SMAR,2023-05-03 15:10:20.502,46.0898517,11.115595,-40.8,20.75,-3.25,null
SMAR,2023-05-03 15:10:20.537,46.0898517,11.115595,-39.97,20.85,-3.18,null
STON,2023-05-03 15:10:20.537,46.089840003333336,11.115579011666666,-41.985168,73.385391,-5.700792,20
SMAR,2023-05-03 15:10:20.571,46.0898517,11.115595,-39.2,20.68,-2.95,null
SMAR,2023-05-03 15:10:20.604,46.0898517,11.115595,-38.34,20.45,-2.59,null
SMAR,2023-05-03 15:10:20.636,46.0898517,11.115595,-37.5,20.1,-2.17,null
SMAR,2023-05-03 15:10:20.67,46.0898517,11.115595,-36.66,19.95,-1.98,null
SMAR,2023-05-03 15:10:20.706,46.0898517,11.115595,-35.67,20.35,-2.13,null
SMAR,2023-05-03 15:10:20.737,46.0898517,11.115595,-34.69,20.77,-2.26,null
STON,2023-05-03 15:10:20.737,46.089839685,11.11557785,-41.985168,73.385391,-5.700792,20
SMAR,2023-05-03 15:10:20.769,46.0898517,11.115595,-33.76,20.84,-2.15,null
SMAR,2023-05-03 15:10:20.801,46.0898517,11.115595,-32.76,20.61,-1.8,null
SMAR,2023-05-03 15:10:20.836,46.0898517,11.115595,-31.8,20.27,-1.44,null
SMAR,2023-05-03 15:10:20.871,46.0898517,11.115595,-30.83,19.99,-1.12,null
STON,2023-05-03 15:10:20.871,46.089839685,11.11557785,-37.19548,72.133545,-4.324959,20
STON,2023-05-03 15:10:20.871,46.08983901333333,11.115575985,-37.19548,72.133545,-4.324959,20
SMAR,2023-05-03 15:10:20.905,46.0898517,11.115595,-29.81,19.91,-0.85,null
SMAR,2023-05-03 15:10:20.938,46.0898517,11.115595,-28.87,20.02,-0.71,null
SMAR,2023-05-03 15:10:20.972,46.0898517,11.115595,-27.92,20.15,-0.58,null
SMAR,2023-05-03 15:10:21.003,46.0898517,11.115595,-26.99,20.15,-0.37,null
SMAR,2023-05-03 15:10:21.038,46.0898517,11.115595,-26.12,20.03,-0.13,null
STON,2023-05-03 15:10:21.038,46.089838326666666,11.115574125,-37.19548,72.133545,-4.324959,20
SMAR,2023-05-03 15:10:21.073,46.0898517,11.115595,-25.22,19.9,0.13,null
SMAR,2023-05-03 15:10:21.103,46.0898517,11.115595,-24.31,19.81,0.37,null
SMAR,2023-05-03 15:10:21.138,46.0898517,11.115595,-23.39,19.67,0.61,null
