Input,Time,Latitude,Longitude,Pitch,Yaw,Roll,Stonex_status
SMAR,2023-04-26 16:56:34.371,null,null,359.44,136.2,0.13,null
SMAR,2023-04-26 16:56:34.409,null,null,359.43,136.2,0.14,null
SMAR,2023-04-26 16:56:34.448,null,null,359.42,136.29,0.14,null
STON,2023-04-26 16:56:34.448,46.08979590166667,11.115617833333333,0.043192,268.105118,0.011164,1
STON,2023-04-26 16:56:34.448,46.08979590166667,11.115617833333333,0.043192,268.105118,0.011164,1
SMAR,2023-04-26 16:56:34.477,null,null,359.41,136.41,0.16,null
SMAR,2023-04-26 16:56:34.51,null,null,359.39,136.49,0.16,null
SMAR,2023-04-26 16:56:34.55,null,null,359.38,136.48,0.16,null
SMAR,2023-04-26 16:56:34.583,null,null,359.36,136.41,0.18,null
SMAR,2023-04-26 16:56:34.618,null,null,359.36,136.34,0.18,null
SMAR,2023-04-26 16:56:34.655,null,null,359.37,136.33,0.19,null
SMAR,2023-04-26 16:56:34.686,null,null,359.37,136.35,0.19,null
SMAR,2023-04-26 16:56:34.715,null,null,359.38,136.39,0.2,null
STON,2023-04-26 16:56:34.715,46.08979590166667,11.115617833333333,-0.048094,268.233017,-0.005996,1
STON,2023-04-26 16:56:34.715,46.08979590166667,11.115617833333333,-0.048094,268.233017,-0.005996,1
SMAR,2023-04-26 16:56:34.754,null,null,359.39,136.4,0.2,null
SMAR,2023-04-26 16:56:34.784,null,null,359.4,136.38,0.19,null
SMAR,2023-04-26 16:56:34.821,null,null,359.41,136.37,0.19,null
SMAR,2023-04-26 16:56:34.852,null,null,359.43,136.39,0.18,null
SMAR,2023-04-26 16:56:34.887,null,null,359.43,136.42,0.18,null
SMAR,2023-04-26 16:56:34.92,null,null,359.44,136.43,0.18,null
SMAR,2023-04-26 16:56:34.954,null,null,359.45,136.38,0.18,null
STON,2023-04-26 16:56:34.954,46.08979590166667,11.115617833333333,-0.031161,268.105339,-0.025348,1
STON,2023-04-26 16:56:34.954,46.08979590166667,11.115617833333333,-0.031161,268.105339,-0.025348,1
SMAR,2023-04-26 16:56:34.98,null,null,359.47,136.3,0.19,null
SMAR,2023-04-26 16:56:35.02,null,null,359.48,136.26,0.19,null
SMAR,2023-04-26 16:56:35.056,null,null,359.49,136.28,0.2,null
SMAR,2023-04-26 16:56:35.088,null,null,359.5,136.27,0.21,null
SMAR,2023-04-26 16:56:35.121,null,null,359.52,136.21,0.22,null
STON,2023-04-26 16:56:35.121,46.08979590166667,11.115617833333333,0.038185,267.923775,-7.78E-4,1
STON,2023-04-26 16:56:35.121,46.08979590166667,11.115617833333333,0.038185,267.923775,-7.78E-4,1
SMAR,2023-04-26 16:56:35.152,null,null,359.54,136.16,0.22,null
SMAR,2023-04-26 16:56:35.185,null,null,359.56,136.16,0.23,null
SMAR,2023-04-26 16:56:35.215,null,null,359.57,136.19,0.24,null
SMAR,2023-04-26 16:56:35.249,null,null,359.58,136.18,0.25,null
SMAR,2023-04-26 16:56:35.28,null,null,359.59,136.17,0.26,null
STON,2023-04-26 16:56:35.28,46.08979590166667,11.115617833333333,0.134726,267.74609399999997,-0.028877,1
STON,2023-04-26 16:56:35.28,46.08979590166667,11.115617833333333,0.134726,267.74609399999997,-0.028877,1
STON,2023-04-26 16:56:35.28,46.089795888333335,11.115617866666666,0.134726,267.74609399999997,-0.028877,1
STON,2023-04-26 16:56:35.28,46.089795888333335,11.115617866666666,0.134726,267.74609399999997,-0.028877,1
STON,2023-04-26 16:56:35.28,46.089795888333335,11.115617866666666,0.134726,267.74609399999997,-0.028877,1
STON,2023-04-26 16:56:35.28,46.089795888333335,11.115617866666666,0.134726,267.74609399999997,-0.028877,1
SMAR,2023-04-26 16:56:35.311,null,null,359.6,136.2,0.27,null
SMAR,2023-04-26 16:56:35.343,null,null,359.6,136.25,0.29,null
SMAR,2023-04-26 16:56:35.381,null,null,359.59,136.27,0.28,null
SMAR,2023-04-26 16:56:35.414,null,null,359.6,136.24,0.3,null
SMAR,2023-04-26 16:56:35.445,null,null,359.59,136.22,0.3,null
SMAR,2023-04-26 16:56:35.482,null,null,359.58,136.24,0.29,null
SMAR,2023-04-26 16:56:35.516,null,null,359.58,136.25,0.29,null
STON,2023-04-26 16:56:35.516,46.089795888333335,11.115617866666666,0.192341,267.766014,-0.104744,1
STON,2023-04-26 16:56:35.516,46.089795888333335,11.115617866666666,0.192341,267.766014,-0.104744,1
SMAR,2023-04-26 16:56:35.549,null,null,359.57,136.26,0.29,null
SMAR,2023-04-26 16:56:35.582,null,null,359.56,136.26,0.27,null
SMAR,2023-04-26 16:56:35.62,null,null,359.55,136.28,0.26,null
SMAR,2023-04-26 16:56:35.655,null,null,359.55,136.28,0.25,null
SMAR,2023-04-26 16:56:35.685,null,null,359.54,136.22,0.23,null
STON,2023-04-26 16:56:35.685,46.089795888333335,11.115617866666666,0.173299,267.706764,-0.134758,1
STON,2023-04-26 16:56:35.685,46.089795888333335,11.115617866666666,0.173299,267.706764,-0.134758,1
SMAR,2023-04-26 16:56:35.718,null,null,359.55,136.18,0.22,null
SMAR,2023-04-26 16:56:35.746,null,null,359.54,136.18,0.21,null
SMAR,2023-04-26 16:56:35.776,null,null,359.55,136.22,0.2,null
SMAR,2023-04-26 16:56:35.81,null,null,359.56,136.26,0.18,null
SMAR,2023-04-26 16:56:35.845,null,null,359.57,136.3,0.17,null
STON,2023-04-26 16:56:35.845,46.089795888333335,11.115617866666666,0.148732,267.598328,-0.065393,1
STON,2023-04-26 16:56:35.845,46.089795888333335,11.115617866666666,0.148732,267.598328,-0.065393,1
SMAR,2023-04-26 16:56:35.876,null,null,359.57,136.32,0.16,null
SMAR,2023-04-26 16:56:35.909,null,null,359.58,136.33,0.14,null
SMAR,2023-04-26 16:56:35.945,null,null,359.59,136.35,0.12,null
SMAR,2023-04-26 16:56:35.979,null,null,359.59,136.35,0.11,null
SMAR,2023-04-26 16:56:36.014,null,null,359.59,136.34,0.09,null
SMAR,2023-04-26 16:56:36.048,null,null,359.59,136.31,0.08,null
SMAR,2023-04-26 16:56:36.082,null,null,359.58,136.26,0.08,null
STON,2023-04-26 16:56:36.082,46.089795888333335,11.115617866666666,0.21103,267.700027,0.027824,1
STON,2023-04-26 16:56:36.082,46.089795888333335,11.115617866666666,0.21103,267.700027,0.027824,1
SMAR,2023-04-26 16:56:36.115,null,null,359.57,136.22,0.07,null
SMAR,2023-04-26 16:56:36.152,null,null,359.56,136.21,0.07,null
SMAR,2023-04-26 16:56:36.188,null,null,359.55,136.2,0.08,null
SMAR,2023-04-26 16:56:36.222,null,null,359.53,136.26,0.08,null
SMAR,2023-04-26 16:56:36.256,null,null,359.51,136.34,0.09,null
SMAR,2023-04-26 16:56:36.288,null,null,359.51,136.41,0.1,null
SMAR,2023-04-26 16:56:36.321,null,null,359.5,136.45,0.11,null
STON,2023-04-26 16:56:36.321,46.089795888333335,11.115617866666666,0.174673,267.578278,0.096781,1
STON,2023-04-26 16:56:36.321,46.089795888333335,11.115617866666666,0.174673,267.578278,0.096781,1
STON,2023-04-26 16:56:36.321,46.08979592166666,11.115617873333333,0.174673,267.578278,0.096781,1
STON,2023-04-26 16:56:36.321,46.08979592166666,11.115617873333333,0.174673,267.578278,0.096781,1
SMAR,2023-04-26 16:56:36.35,null,null,359.49,136.44,0.12,null
STON,2023-04-26 16:56:36.35,46.08979592166666,11.115617873333333,0.174673,267.578278,0.096781,1
STON,2023-04-26 16:56:36.35,46.08979592166666,11.115617873333333,0.174673,267.578278,0.096781,1
SMAR,2023-04-26 16:56:36.381,null,null,359.48,136.38,0.14,null
SMAR,2023-04-26 16:56:36.415,null,null,359.49,136.39,0.16,null
SMAR,2023-04-26 16:56:36.454,null,null,359.5,136.52,0.18,null
SMAR,2023-04-26 16:56:36.491,null,null,359.5,136.74,0.2,null
STON,2023-04-26 16:56:36.491,46.08979592166666,11.115617873333333,0.089963,267.696007,0.068764,1
STON,2023-04-26 16:56:36.491,46.08979592166666,11.115617873333333,0.089963,267.696007,0.068764,1
SMAR,2023-04-26 16:56:36.521,null,null,359.52,136.95,0.24,null
SMAR,2023-04-26 16:56:36.549,null,null,359.54,137.12,0.26,null
SMAR,2023-04-26 16:56:36.581,null,null,359.56,137.25,0.28,null
SMAR,2023-04-26 16:56:36.622,null,null,359.59,137.35,0.3,null
SMAR,2023-04-26 16:56:36.655,null,null,359.61,137.45,0.32,null
SMAR,2023-04-26 16:56:36.688,null,null,359.61,137.53,0.33,null
SMAR,2023-04-26 16:56:36.722,null,null,359.61,137.59,0.34,null
SMAR,2023-04-26 16:56:36.752,null,null,359.61,137.62,0.36,null
SMAR,2023-04-26 16:56:36.787,null,null,359.59,137.61,0.36,null
SMAR,2023-04-26 16:56:36.826,null,null,359.59,137.59,0.37,null
SMAR,2023-04-26 16:56:36.863,null,null,359.58,137.57,0.38,null
STON,2023-04-26 16:56:36.863,46.08979592166666,11.115617873333333,0.255097,268.82144900000003,-0.193853,1
STON,2023-04-26 16:56:36.863,46.08979592166666,11.115617873333333,0.255097,268.82144900000003,-0.193853,1
SMAR,2023-04-26 16:56:36.894,null,null,359.56,137.56,0.37,null
SMAR,2023-04-26 16:56:36.928,null,null,359.54,137.52,0.37,null
SMAR,2023-04-26 16:56:36.96,null,null,359.52,137.46,0.37,null
SMAR,2023-04-26 16:56:37.001,null,null,359.5,137.37,0.36,null
SMAR,2023-04-26 16:56:37.042,null,null,359.48,137.29,0.35,null
SMAR,2023-04-26 16:56:37.071,null,null,359.45,137.22,0.34,null
SMAR,2023-04-26 16:56:37.09,null,null,359.44,137.15,0.32,null
SMAR,2023-04-26 16:56:37.121,null,null,359.43,137.1,0.3,null
STON,2023-04-26 16:56:37.121,46.08979592166666,11.115617873333333,0.169417,268.547775,-0.237495,1
STON,2023-04-26 16:56:37.121,46.08979592166666,11.115617873333333,0.169417,268.547775,-0.237495,1
SMAR,2023-04-26 16:56:37.15,null,null,359.43,137.05,0.3,null
SMAR,2023-04-26 16:56:37.186,null,null,359.44,137.07,0.31,null
SMAR,2023-04-26 16:56:37.23,null,null,359.45,137.15,0.3,null
SMAR,2023-04-26 16:56:37.262,null,null,359.46,137.26,0.31,null
SMAR,2023-04-26 16:56:37.293,null,null,359.46,137.38,0.32,null
SMAR,2023-04-26 16:56:37.327,null,null,359.46,137.48,0.33,null
SMAR,2023-04-26 16:56:37.356,null,null,359.47,137.5,0.34,null
SMAR,2023-04-26 16:56:37.386,null,null,359.48,137.43,0.34,null
SMAR,2023-04-26 16:56:37.417,null,null,359.5,137.31,0.34,null
SMAR,2023-04-26 16:56:37.454,null,null,359.52,137.21,0.35,null
SMAR,2023-04-26 16:56:37.494,null,null,359.55,137.17,0.34,null
SMAR,2023-04-26 16:56:37.527,null,null,359.58,137.25,0.34,null
STON,2023-04-26 16:56:37.527,46.08979592166666,11.115617873333333,0.06745,268.187996,-0.185028,1
STON,2023-04-26 16:56:37.527,46.08979592166666,11.115617873333333,0.06745,268.187996,-0.185028,1
SMAR,2023-04-26 16:56:37.558,null,null,359.6,137.47,0.35,null
SMAR,2023-04-26 16:56:37.592,null,null,359.58,137.73,0.34,null
STON,2023-04-26 16:56:37.592,46.089795865,11.115617838333334,0.06745,268.187996,-0.185028,1
STON,2023-04-26 16:56:37.592,46.089795865,11.115617838333334,0.06745,268.187996,-0.185028,1
SMAR,2023-04-26 16:56:37.629,null,null,359.59,137.93,0.35,null
SMAR,2023-04-26 16:56:37.658,null,null,359.6,138.06,0.34,null
STON,2023-04-26 16:56:37.658,46.089795865,11.115617838333334,0.06745,268.187996,-0.185028,1
STON,2023-04-26 16:56:37.658,46.089795865,11.115617838333334,0.06745,268.187996,-0.185028,1
STON,2023-04-26 16:56:37.658,46.089795865,11.115617838333334,0.086581,268.502846,-0.217109,1
STON,2023-04-26 16:56:37.658,46.089795865,11.115617838333334,0.086581,268.502846,-0.217109,1
STON,2023-04-26 16:56:37.658,46.089795865,11.115617838333334,0.22102,268.719917,-0.249786,1
STON,2023-04-26 16:56:37.658,46.089795865,11.115617838333334,0.22102,268.719917,-0.249786,1
SMAR,2023-04-26 16:56:37.69,null,null,359.58,138.12,0.33,null
SMAR,2023-04-26 16:56:37.725,null,null,359.56,138.07,0.33,null
SMAR,2023-04-26 16:56:37.761,null,null,359.56,137.9,0.34,null
SMAR,2023-04-26 16:56:37.788,null,null,359.56,137.66,0.34,null
SMAR,2023-04-26 16:56:37.817,null,null,359.56,137.46,0.34,null
SMAR,2023-04-26 16:56:37.853,null,null,359.54,137.36,0.34,null
SMAR,2023-04-26 16:56:37.892,null,null,359.53,137.41,0.33,null
SMAR,2023-04-26 16:56:37.927,null,null,359.51,137.51,0.33,null
STON,2023-04-26 16:56:37.927,46.089795865,11.115617838333334,0.198248,268.595047,-0.266408,1
STON,2023-04-26 16:56:37.927,46.089795865,11.115617838333334,0.198248,268.595047,-0.266408,1
SMAR,2023-04-26 16:56:37.96,null,null,359.48,137.62,0.32,null
SMAR,2023-04-26 16:56:37.993,null,null,359.44,137.66,0.32,null
SMAR,2023-04-26 16:56:38.026,null,null,359.41,137.59,0.31,null
SMAR,2023-04-26 16:56:38.062,null,null,359.39,137.44,0.3,null
SMAR,2023-04-26 16:56:38.088,null,null,359.37,137.28,0.3,null
STON,2023-04-26 16:56:38.088,46.089795865,11.115617838333334,0.102468,268.552528,-0.27504,1
STON,2023-04-26 16:56:38.088,46.089795865,11.115617838333334,0.102468,268.552528,-0.27504,1
SMAR,2023-04-26 16:56:38.13,null,null,359.34,137.16,0.3,null
SMAR,2023-04-26 16:56:38.163,null,null,359.32,137.1,0.29,null
SMAR,2023-04-26 16:56:38.195,null,null,359.31,137.09,0.28,null
SMAR,2023-04-26 16:56:38.227,null,null,359.3,137.09,0.28,null
SMAR,2023-04-26 16:56:38.261,null,null,359.29,137.08,0.27,null
STON,2023-04-26 16:56:38.261,46.089795865,11.115617838333334,-0.070162,267.947731,-0.240739,1
STON,2023-04-26 16:56:38.261,46.089795865,11.115617838333334,-0.070162,267.947731,-0.240739,1
SMAR,2023-04-26 16:56:38.294,null,null,359.31,137.04,0.26,null
SMAR,2023-04-26 16:56:38.327,null,null,359.32,137.02,0.24,null
STON,2023-04-26 16:56:38.327,46.08979584666667,11.115617806666666,-0.070162,267.947731,-0.240739,1
STON,2023-04-26 16:56:38.327,46.08979584666667,11.115617806666666,-0.070162,267.947731,-0.240739,1
STON,2023-04-26 16:56:38.327,46.08979584666667,11.115617806666666,-0.070162,267.947731,-0.240739,1
STON,2023-04-26 16:56:38.327,46.08979584666667,11.115617806666666,-0.070162,267.947731,-0.240739,1
SMAR,2023-04-26 16:56:38.358,null,null,359.34,137.03,0.23,null
SMAR,2023-04-26 16:56:38.388,null,null,359.37,137.08,0.22,null
SMAR,2023-04-26 16:56:38.422,null,null,359.39,137.14,0.21,null
SMAR,2023-04-26 16:56:38.461,null,null,359.41,137.2,0.21,null
SMAR,2023-04-26 16:56:38.493,null,null,359.43,137.24,0.21,null
STON,2023-04-26 16:56:38.493,46.08979584666667,11.115617806666666,-0.070569,267.854401,-0.171926,1
STON,2023-04-26 16:56:38.493,46.08979584666667,11.115617806666666,-0.070569,267.854401,-0.171926,1
SMAR,2023-04-26 16:56:38.526,null,null,359.45,137.28,0.2,null
SMAR,2023-04-26 16:56:38.556,null,null,359.46,137.33,0.19,null
SMAR,2023-04-26 16:56:38.589,null,null,359.45,137.36,0.21,null
SMAR,2023-04-26 16:56:38.623,null,null,359.45,137.33,0.2,null
SMAR,2023-04-26 16:56:38.654,null,null,359.46,137.22,0.19,null
SMAR,2023-04-26 16:56:38.694,null,null,359.46,137.08,0.19,null
STON,2023-04-26 16:56:38.694,46.08979584666667,11.115617806666666,0.042987,268.063957,-0.134952,1
STON,2023-04-26 16:56:38.694,46.08979584666667,11.115617806666666,0.042987,268.063957,-0.134952,1
SMAR,2023-04-26 16:56:38.728,null,null,359.46,136.98,0.18,null
SMAR,2023-04-26 16:56:38.76,null,null,359.45,136.93,0.17,null
SMAR,2023-04-26 16:56:38.8,null,null,359.44,136.89,0.16,null
SMAR,2023-04-26 16:56:38.834,null,null,359.43,136.81,0.14,null
SMAR,2023-04-26 16:56:38.861,null,null,359.43,136.7,0.13,null
SMAR,2023-04-26 16:56:38.895,null,null,359.42,136.58,0.14,null
STON,2023-04-26 16:56:38.895,46.08979584666667,11.115617806666666,0.028862,267.5457,-0.094347,1
STON,2023-04-26 16:56:38.895,46.08979584666667,11.115617806666666,0.028862,267.5457,-0.094347,1
SMAR,2023-04-26 16:56:38.929,null,null,359.41,136.49,0.15,null
SMAR,2023-04-26 16:56:38.958,null,null,359.41,136.46,0.14,null
SMAR,2023-04-26 16:56:38.993,null,null,359.41,136.5,0.14,null
SMAR,2023-04-26 16:56:39.033,null,null,359.41,136.56,0.15,null
SMAR,2023-04-26 16:56:39.068,null,null,359.4,136.57,0.15,null
SMAR,2023-04-26 16:56:39.1,null,null,359.39,136.53,0.17,null
SMAR,2023-04-26 16:56:39.135,null,null,359.38,136.46,0.18,null
STON,2023-04-26 16:56:39.135,46.08979584666667,11.115617806666666,5.06E-4,267.131409,-0.038562,1
STON,2023-04-26 16:56:39.135,46.08979584666667,11.115617806666666,5.06E-4,267.131409,-0.038562,1
SMAR,2023-04-26 16:56:39.162,null,null,359.38,136.43,0.2,null
SMAR,2023-04-26 16:56:39.197,null,null,359.37,136.49,0.22,null
SMAR,2023-04-26 16:56:39.232,null,null,359.35,136.59,0.23,null
SMAR,2023-04-26 16:56:39.263,null,null,359.35,136.69,0.24,null
STON,2023-04-26 16:56:39.263,46.08979584666667,11.115617806666666,-0.023521,267.09767899999997,-0.087166,1
STON,2023-04-26 16:56:39.263,46.08979584666667,11.115617806666666,-0.023521,267.09767899999997,-0.087166,1
SMAR,2023-04-26 16:56:39.295,null,null,359.33,136.74,0.26,null
SMAR,2023-04-26 16:56:39.331,null,null,359.32,136.75,0.27,null
STON,2023-04-26 16:56:39.331,46.08979587333334,11.115617836666667,-0.023521,267.09767899999997,-0.087166,1
STON,2023-04-26 16:56:39.331,46.08979587333334,11.115617836666667,-0.023521,267.09767899999997,-0.087166,1
STON,2023-04-26 16:56:39.331,46.08979587333334,11.115617836666667,-0.023521,267.09767899999997,-0.087166,1
STON,2023-04-26 16:56:39.331,46.08979587333334,11.115617836666667,-0.023521,267.09767899999997,-0.087166,1
SMAR,2023-04-26 16:56:39.384,null,null,359.31,136.72,0.28,null
SMAR,2023-04-26 16:56:39.401,null,null,359.3,136.69,0.29,null
SMAR,2023-04-26 16:56:39.432,null,null,359.3,136.71,0.31,null
SMAR,2023-04-26 16:56:39.465,null,null,359.29,136.76,0.33,null
SMAR,2023-04-26 16:56:39.497,null,null,359.28,136.82,0.36,null
SMAR,2023-04-26 16:56:39.53,null,null,359.28,136.86,0.38,null
SMAR,2023-04-26 16:56:39.562,null,null,359.27,136.89,0.41,null
SMAR,2023-04-26 16:56:39.597,null,null,359.26,136.92,0.44,null
SMAR,2023-04-26 16:56:39.628,null,null,359.26,136.94,0.47,null
SMAR,2023-04-26 16:56:39.662,null,null,359.25,136.97,0.5,null
SMAR,2023-04-26 16:56:39.695,null,null,359.26,137.0,0.51,null
SMAR,2023-04-26 16:56:39.729,null,null,359.26,137.02,0.52,null
SMAR,2023-04-26 16:56:39.761,null,null,359.27,137.02,0.52,null
SMAR,2023-04-26 16:56:39.797,null,null,359.29,137.02,0.49,null
SMAR,2023-04-26 16:56:39.829,null,null,359.31,137.01,0.46,null
STON,2023-04-26 16:56:39.829,46.08979587333334,11.115617836666667,-0.169074,267.43787399999997,-0.444114,1
STON,2023-04-26 16:56:39.829,46.08979587333334,11.115617836666667,-0.169074,267.43787399999997,-0.444114,1
SMAR,2023-04-26 16:56:39.862,null,null,359.33,137.04,0.44,null
SMAR,2023-04-26 16:56:39.895,null,null,359.34,137.12,0.41,null
SMAR,2023-04-26 16:56:39.928,null,null,359.35,137.21,0.4,null
SMAR,2023-04-26 16:56:39.961,null,null,359.36,137.27,0.38,null
SMAR,2023-04-26 16:56:39.996,null,null,359.36,137.27,0.36,null
SMAR,2023-04-26 16:56:40.025,null,null,359.37,137.24,0.35,null
STON,2023-04-26 16:56:40.025,46.08979587333334,11.115617836666667,-0.086572,267.654274,-0.328199,1
STON,2023-04-26 16:56:40.025,46.08979587333334,11.115617836666667,-0.086572,267.654274,-0.328199,1
SMAR,2023-04-26 16:56:40.065,null,null,359.38,137.21,0.33,null
SMAR,2023-04-26 16:56:40.097,null,null,359.38,137.17,0.33,null
SMAR,2023-04-26 16:56:40.134,null,null,359.38,137.14,0.32,null
SMAR,2023-04-26 16:56:40.167,null,null,359.38,137.11,0.32,null
SMAR,2023-04-26 16:56:40.197,null,null,359.39,137.09,0.32,null
SMAR,2023-04-26 16:56:40.225,null,null,359.41,137.08,0.33,null
STON,2023-04-26 16:56:40.225,46.08979587333334,11.115617836666667,-0.06002,267.45754999999997,-0.267566,1
STON,2023-04-26 16:56:40.225,46.08979587333334,11.115617836666667,-0.06002,267.45754999999997,-0.267566,1
SMAR,2023-04-26 16:56:40.257,null,null,359.42,137.09,0.33,null
SMAR,2023-04-26 16:56:40.292,null,null,359.44,137.11,0.33,null
STON,2023-04-26 16:56:40.292,46.089795818333336,11.11561785,-0.06002,267.45754999999997,-0.267566,1
STON,2023-04-26 16:56:40.292,46.089795818333336,11.11561785,-0.06002,267.45754999999997,-0.267566,1
STON,2023-04-26 16:56:40.292,46.089795818333336,11.11561785,-0.06002,267.45754999999997,-0.267566,1
STON,2023-04-26 16:56:40.292,46.089795818333336,11.11561785,-0.06002,267.45754999999997,-0.267566,1
SMAR,2023-04-26 16:56:40.332,null,null,359.47,137.13,0.33,null
SMAR,2023-04-26 16:56:40.36,null,null,359.49,137.17,0.34,null
SMAR,2023-04-26 16:56:40.396,null,null,359.5,137.25,0.34,null
SMAR,2023-04-26 16:56:40.433,null,null,359.53,137.37,0.34,null
SMAR,2023-04-26 16:56:40.471,null,null,359.54,137.53,0.36,null
SMAR,2023-04-26 16:56:40.519,null,null,359.53,137.72,0.36,null
SMAR,2023-04-26 16:56:40.532,null,null,359.52,137.92,0.36,null
STON,2023-04-26 16:56:40.532,46.089795818333336,11.11561785,0.043098,267.529465,-0.28334,1
STON,2023-04-26 16:56:40.532,46.089795818333336,11.11561785,0.043098,267.529465,-0.28334,1
SMAR,2023-04-26 16:56:40.571,null,null,359.49,138.03,0.37,null
SMAR,2023-04-26 16:56:40.6,null,null,359.46,137.97,0.38,null
SMAR,2023-04-26 16:56:40.632,null,null,359.44,137.76,0.38,null
SMAR,2023-04-26 16:56:40.663,null,null,359.43,137.51,0.4,null
STON,2023-04-26 16:56:40.663,46.089795818333336,11.11561785,0.058631,268.267418,-0.310261,1
STON,2023-04-26 16:56:40.663,46.089795818333336,11.11561785,0.058631,268.267418,-0.310261,1
SMAR,2023-04-26 16:56:40.692,null,null,359.42,137.31,0.41,null
SMAR,2023-04-26 16:56:40.735,null,null,359.41,137.23,0.42,null
SMAR,2023-04-26 16:56:40.771,null,null,359.4,137.25,0.43,null
SMAR,2023-04-26 16:56:40.803,null,null,359.39,137.29,0.43,null
SMAR,2023-04-26 16:56:40.835,null,null,359.38,137.29,0.44,null
SMAR,2023-04-26 16:56:40.866,null,null,359.37,137.28,0.45,null
SMAR,2023-04-26 16:56:40.909,null,null,359.37,137.3,0.45,null
SMAR,2023-04-26 16:56:40.929,null,null,359.36,137.34,0.45,null
SMAR,2023-04-26 16:56:40.959,null,null,359.35,137.36,0.45,null
SMAR,2023-04-26 16:56:40.992,null,null,359.34,137.33,0.43,null
SMAR,2023-04-26 16:56:41.022,null,null,359.34,137.31,0.42,null
STON,2023-04-26 16:56:41.022,46.089795818333336,11.11561785,-0.095912,267.483528,-0.415904,1
STON,2023-04-26 16:56:41.022,46.089795818333336,11.11561785,-0.095912,267.483528,-0.415904,1
SMAR,2023-04-26 16:56:41.056,null,null,359.33,137.33,0.41,null
SMAR,2023-04-26 16:56:41.093,null,null,359.32,137.35,0.4,null
SMAR,2023-04-26 16:56:41.133,null,null,359.31,137.33,0.4,null
SMAR,2023-04-26 16:56:41.162,null,null,359.31,137.32,0.4,null
SMAR,2023-04-26 16:56:41.201,null,null,359.31,137.31,0.39,null
SMAR,2023-04-26 16:56:41.229,null,null,359.3,137.32,0.39,null
SMAR,2023-04-26 16:56:41.268,null,null,359.29,137.32,0.38,null
SMAR,2023-04-26 16:56:41.3,null,null,359.28,137.29,0.38,null
SMAR,2023-04-26 16:56:41.328,null,null,359.28,137.26,0.37,null
STON,2023-04-26 16:56:41.328,46.089795818333336,11.11561785,-0.133069,267.36068,-0.378192,1
STON,2023-04-26 16:56:41.328,46.089795818333336,11.11561785,-0.133069,267.36068,-0.378192,1
STON,2023-04-26 16:56:41.328,46.089795765,11.115617845,-0.133069,267.36068,-0.378192,1
STON,2023-04-26 16:56:41.328,46.089795765,11.115617845,-0.133069,267.36068,-0.378192,1
STON,2023-04-26 16:56:41.328,46.089795765,11.115617845,-0.133069,267.36068,-0.378192,1
STON,2023-04-26 16:56:41.328,46.089795765,11.115617845,-0.133069,267.36068,-0.378192,1
SMAR,2023-04-26 16:56:41.368,null,null,359.28,137.25,0.37,null
SMAR,2023-04-26 16:56:41.402,null,null,359.28,137.26,0.37,null
SMAR,2023-04-26 16:56:41.437,null,null,359.29,137.28,0.36,null
STON,2023-04-26 16:56:41.437,46.089795765,11.115617845,-0.180244,267.323097,-0.344011,1
STON,2023-04-26 16:56:41.437,46.089795765,11.115617845,-0.180244,267.323097,-0.344011,1
SMAR,2023-04-26 16:56:41.486,null,null,359.3,137.29,0.37,null
SMAR,2023-04-26 16:56:41.505,null,null,359.31,137.3,0.36,null
SMAR,2023-04-26 16:56:41.538,null,null,359.32,137.29,0.36,null
SMAR,2023-04-26 16:56:41.571,null,null,359.33,137.29,0.36,null
SMAR,2023-04-26 16:56:41.603,null,null,359.33,137.28,0.36,null
SMAR,2023-04-26 16:56:41.635,null,null,359.34,137.27,0.36,null
STON,2023-04-26 16:56:41.635,46.089795765,11.115617845,-0.14165,267.34751900000003,-0.3425,1
STON,2023-04-26 16:56:41.635,46.089795765,11.115617845,-0.14165,267.34751900000003,-0.3425,1
SMAR,2023-04-26 16:56:41.666,null,null,359.34,137.29,0.36,null
SMAR,2023-04-26 16:56:41.698,null,null,359.34,137.3,0.37,null
SMAR,2023-04-26 16:56:41.732,null,null,359.35,137.3,0.37,null
SMAR,2023-04-26 16:56:41.767,null,null,359.36,137.3,0.37,null
SMAR,2023-04-26 16:56:41.799,null,null,359.36,137.3,0.38,null
SMAR,2023-04-26 16:56:41.835,null,null,359.37,137.32,0.37,null
STON,2023-04-26 16:56:41.835,46.089795765,11.115617845,-0.096157,267.348351,-0.36253,1
STON,2023-04-26 16:56:41.835,46.089795765,11.115617845,-0.096157,267.348351,-0.36253,1
SMAR,2023-04-26 16:56:41.865,null,null,359.37,137.32,0.37,null
SMAR,2023-04-26 16:56:41.902,null,null,359.38,137.3,0.36,null
SMAR,2023-04-26 16:56:41.931,null,null,359.38,137.28,0.35,null
SMAR,2023-04-26 16:56:41.964,null,null,359.38,137.28,0.34,null
SMAR,2023-04-26 16:56:41.996,null,null,359.37,137.28,0.32,null
SMAR,2023-04-26 16:56:42.031,null,null,359.37,137.26,0.31,null
STON,2023-04-26 16:56:42.031,46.089795765,11.115617845,-0.068185,267.275284,-0.334412,1
STON,2023-04-26 16:56:42.031,46.089795765,11.115617845,-0.068185,267.275284,-0.334412,1
SMAR,2023-04-26 16:56:42.065,null,null,359.37,137.2,0.28,null
SMAR,2023-04-26 16:56:42.098,null,null,359.37,137.12,0.27,null
SMAR,2023-04-26 16:56:42.13,null,null,359.38,137.04,0.24,null
SMAR,2023-04-26 16:56:42.164,null,null,359.38,136.96,0.22,null
SMAR,2023-04-26 16:56:42.196,null,null,359.38,136.87,0.2,null
SMAR,2023-04-26 16:56:42.23,null,null,359.38,136.8,0.17,null
SMAR,2023-04-26 16:56:42.265,null,null,359.38,136.73,0.14,null
SMAR,2023-04-26 16:56:42.294,null,null,359.39,136.67,0.13,null
SMAR,2023-04-26 16:56:42.33,null,null,359.39,136.62,0.1,null
SMAR,2023-04-26 16:56:42.361,null,null,359.4,136.56,0.07,null
STON,2023-04-26 16:56:42.361,46.089795785,11.11561788,-0.068185,267.275284,-0.334412,1
STON,2023-04-26 16:56:42.361,46.089795785,11.11561788,-0.068185,267.275284,-0.334412,1
STON,2023-04-26 16:56:42.361,46.089795785,11.11561788,-0.068185,267.275284,-0.334412,1
STON,2023-04-26 16:56:42.361,46.089795785,11.11561788,-0.068185,267.275284,-0.334412,1
SMAR,2023-04-26 16:56:42.395,null,null,359.41,136.49,0.06,null
SMAR,2023-04-26 16:56:42.433,null,null,359.43,136.44,0.03,null
STON,2023-04-26 16:56:42.433,46.089795785,11.11561788,-0.056357,266.551834,-0.047307,1
STON,2023-04-26 16:56:42.433,46.089795785,11.11561788,-0.056357,266.551834,-0.047307,1
SMAR,2023-04-26 16:56:42.467,null,null,359.44,136.39,0.0,null
SMAR,2023-04-26 16:56:42.497,null,null,359.45,136.31,359.99,null
SMAR,2023-04-26 16:56:42.529,null,null,359.46,136.23,359.97,null
SMAR,2023-04-26 16:56:42.559,null,null,359.48,136.18,359.95,null
SMAR,2023-04-26 16:56:42.596,null,null,359.5,136.15,359.95,null
SMAR,2023-04-26 16:56:42.629,null,null,359.51,136.17,359.93,null
SMAR,2023-04-26 16:56:42.662,null,null,359.52,136.19,359.91,null
SMAR,2023-04-26 16:56:42.694,null,null,359.52,136.16,359.92,null
SMAR,2023-04-26 16:56:42.733,null,null,359.52,136.13,359.9,null
SMAR,2023-04-26 16:56:42.763,null,null,359.53,136.08,359.89,null
SMAR,2023-04-26 16:56:42.796,null,null,359.53,136.04,359.9,null
SMAR,2023-04-26 16:56:42.833,null,null,359.53,136.03,359.89,null
SMAR,2023-04-26 16:56:42.863,null,null,359.53,136.0,359.88,null
SMAR,2023-04-26 16:56:42.898,null,null,359.53,135.98,359.89,null
SMAR,2023-04-26 16:56:42.93,null,null,359.54,135.98,359.89,null
SMAR,2023-04-26 16:56:42.959,null,null,359.55,135.99,359.9,null
SMAR,2023-04-26 16:56:42.995,null,null,359.55,135.99,359.93,null
STON,2023-04-26 16:56:42.995,46.089795785,11.11561788,0.024902,266.190178,0.114637,1
STON,2023-04-26 16:56:42.995,46.089795785,11.11561788,0.024902,266.190178,0.114637,1
STON,2023-04-26 16:56:42.995,46.089795785,11.11561788,0.080146,266.152237,0.221236,1
STON,2023-04-26 16:56:42.995,46.089795785,11.11561788,0.080146,266.152237,0.221236,1
SMAR,2023-04-26 16:56:43.038,null,null,359.56,136.01,359.95,null
SMAR,2023-04-26 16:56:43.072,null,null,359.57,136.04,359.98,null
STON,2023-04-26 16:56:43.072,46.089795785,11.11561788,0.098752,266.099243,0.262047,1
STON,2023-04-26 16:56:43.072,46.089795785,11.11561788,0.098752,266.099243,0.262047,1
SMAR,2023-04-26 16:56:43.101,null,null,359.57,136.12,0.02,null
SMAR,2023-04-26 16:56:43.134,null,null,359.58,136.22,0.05,null
SMAR,2023-04-26 16:56:43.169,null,null,359.59,136.34,0.09,null
SMAR,2023-04-26 16:56:43.2,null,null,359.57,136.46,0.12,null
SMAR,2023-04-26 16:56:43.237,null,null,359.57,136.57,0.15,null
STON,2023-04-26 16:56:43.237,46.089795785,11.11561788,0.164685,266.525063,0.098665,1
STON,2023-04-26 16:56:43.237,46.089795785,11.11561788,0.164685,266.525063,0.098665,1
SMAR,2023-04-26 16:56:43.267,null,null,359.57,136.65,0.19,null
STON,2023-04-26 16:56:43.267,46.08979584833333,11.115617968333334,0.164685,266.525063,0.098665,1
STON,2023-04-26 16:56:43.267,46.08979584833333,11.115617968333334,0.164685,266.525063,0.098665,1
STON,2023-04-26 16:56:43.267,46.08979584833333,11.115617968333334,0.164685,266.525063,0.098665,1
STON,2023-04-26 16:56:43.267,46.08979584833333,11.115617968333334,0.164685,266.525063,0.098665,1
SMAR,2023-04-26 16:56:43.297,null,null,359.55,136.7,0.21,null
SMAR,2023-04-26 16:56:43.337,null,null,359.54,136.71,0.24,null
SMAR,2023-04-26 16:56:43.365,null,null,359.53,136.69,0.26,null
SMAR,2023-04-26 16:56:43.399,null,null,359.51,136.67,0.27,null
SMAR,2023-04-26 16:56:43.428,null,null,359.5,136.65,0.28,null
STON,2023-04-26 16:56:43.428,46.08979584833333,11.115617968333334,0.138707,266.788902,-0.082385,1
STON,2023-04-26 16:56:43.428,46.08979584833333,11.115617968333334,0.138707,266.788902,-0.082385,1
SMAR,2023-04-26 16:56:43.46,null,null,359.48,136.65,0.29,null
SMAR,2023-04-26 16:56:43.501,null,null,359.47,136.66,0.28,null
SMAR,2023-04-26 16:56:43.544,null,null,359.45,136.65,0.27,null
SMAR,2023-04-26 16:56:43.576,null,null,359.43,136.64,0.27,null
SMAR,2023-04-26 16:56:43.604,null,null,359.42,136.62,0.26,null
SMAR,2023-04-26 16:56:43.641,null,null,359.41,136.59,0.24,null
STON,2023-04-26 16:56:43.641,46.08979584833333,11.115617968333334,0.039182,266.771027,-0.124698,1
STON,2023-04-26 16:56:43.641,46.08979584833333,11.115617968333334,0.039182,266.771027,-0.124698,1
SMAR,2023-04-26 16:56:43.673,null,null,359.41,136.56,0.23,null
SMAR,2023-04-26 16:56:43.701,null,null,359.4,136.53,0.21,null
SMAR,2023-04-26 16:56:43.733,null,null,359.4,136.51,0.19,null
SMAR,2023-04-26 16:56:43.768,null,null,359.4,136.48,0.18,null
SMAR,2023-04-26 16:56:43.806,null,null,359.4,136.46,0.16,null
SMAR,2023-04-26 16:56:43.835,null,null,359.41,136.44,0.15,null
STON,2023-04-26 16:56:43.835,46.08979584833333,11.115617968333334,-0.009446,266.620895,-0.029003,1
STON,2023-04-26 16:56:43.835,46.08979584833333,11.115617968333334,-0.009446,266.620895,-0.029003,1
SMAR,2023-04-26 16:56:43.876,null,null,359.41,136.43,0.14,null
SMAR,2023-04-26 16:56:43.913,null,null,359.42,136.45,0.14,null
SMAR,2023-04-26 16:56:43.94,null,null,359.42,136.5,0.14,null
SMAR,2023-04-26 16:56:43.973,null,null,359.41,136.53,0.14,null
SMAR,2023-04-26 16:56:44.003,null,null,359.41,136.55,0.15,null
SMAR,2023-04-26 16:56:44.039,null,null,359.4,136.54,0.15,null
STON,2023-04-26 16:56:44.039,46.08979584833333,11.115617968333334,0.015255,266.723969,0.021913,1
STON,2023-04-26 16:56:44.039,46.08979584833333,11.115617968333334,0.015255,266.723969,0.021913,1
SMAR,2023-04-26 16:56:44.072,null,null,359.4,136.5,0.15,null
SMAR,2023-04-26 16:56:44.108,null,null,359.4,136.46,0.16,null
SMAR,2023-04-26 16:56:44.141,null,null,359.39,136.44,0.16,null
SMAR,2023-04-26 16:56:44.176,null,null,359.39,136.45,0.16,null
SMAR,2023-04-26 16:56:44.205,null,null,359.39,136.48,0.16,null
SMAR,2023-04-26 16:56:44.235,null,null,359.39,136.51,0.16,null
SMAR,2023-04-26 16:56:44.274,null,null,359.39,136.51,0.17,null
STON,2023-04-26 16:56:44.274,46.08979584833333,11.115617968333334,-0.01124,266.680992,0.013761,1
STON,2023-04-26 16:56:44.274,46.08979584833333,11.115617968333334,-0.01124,266.680992,0.013761,1
SMAR,2023-04-26 16:56:44.3,null,null,359.38,136.49,0.18,null
STON,2023-04-26 16:56:44.3,46.0897958,11.115617933333333,-0.01124,266.680992,0.013761,1
STON,2023-04-26 16:56:44.3,46.0897958,11.115617933333333,-0.01124,266.680992,0.013761,1
STON,2023-04-26 16:56:44.3,46.0897958,11.115617933333333,-0.01124,266.680992,0.013761,1
STON,2023-04-26 16:56:44.3,46.0897958,11.115617933333333,-0.01124,266.680992,0.013761,1
SMAR,2023-04-26 16:56:44.342,null,null,359.39,136.48,0.2,null
SMAR,2023-04-26 16:56:44.37,null,null,359.39,136.51,0.23,null
SMAR,2023-04-26 16:56:44.411,null,null,359.4,136.56,0.24,null
SMAR,2023-04-26 16:56:44.438,null,null,359.4,136.61,0.25,null
STON,2023-04-26 16:56:44.438,46.0897958,11.115617933333333,-0.010539,266.723137,-0.045398,1
STON,2023-04-26 16:56:44.438,46.0897958,11.115617933333333,-0.010539,266.723137,-0.045398,1
SMAR,2023-04-26 16:56:44.472,null,null,359.4,136.66,0.27,null
SMAR,2023-04-26 16:56:44.51,null,null,359.39,136.68,0.28,null
SMAR,2023-04-26 16:56:44.543,null,null,359.4,136.68,0.3,null
SMAR,2023-04-26 16:56:44.575,null,null,359.41,136.69,0.31,null
SMAR,2023-04-26 16:56:44.61,null,null,359.41,136.71,0.31,null
SMAR,2023-04-26 16:56:44.64,null,null,359.41,136.76,0.32,null
STON,2023-04-26 16:56:44.64,46.0897958,11.115617933333333,0.007717,266.844337,-0.146293,1
STON,2023-04-26 16:56:44.64,46.0897958,11.115617933333333,0.007717,266.844337,-0.146293,1
SMAR,2023-04-26 16:56:44.674,null,null,359.4,136.8,0.32,null
SMAR,2023-04-26 16:56:44.702,null,null,359.4,136.82,0.31,null
SMAR,2023-04-26 16:56:44.733,null,null,359.4,136.81,0.31,null
SMAR,2023-04-26 16:56:44.767,null,null,359.4,136.77,0.31,null
SMAR,2023-04-26 16:56:44.804,null,null,359.4,136.76,0.29,null
SMAR,2023-04-26 16:56:44.839,null,null,359.4,136.76,0.29,null
STON,2023-04-26 16:56:44.839,46.0897958,11.115617933333333,0.00202,266.862976,-0.166115,1
STON,2023-04-26 16:56:44.839,46.0897958,11.115617933333333,0.00202,266.862976,-0.166115,1
SMAR,2023-04-26 16:56:44.874,null,null,359.39,136.77,0.29,null
SMAR,2023-04-26 16:56:44.903,null,null,359.39,136.77,0.27,null
SMAR,2023-04-26 16:56:44.942,null,null,359.39,136.75,0.27,null
SMAR,2023-04-26 16:56:44.972,null,null,359.38,136.74,0.28,null
SMAR,2023-04-26 16:56:45.006,null,null,359.38,136.74,0.28,null
SMAR,2023-04-26 16:56:45.035,null,null,359.38,136.73,0.29,null
STON,2023-04-26 16:56:45.035,46.0897958,11.115617933333333,-0.027608,266.868904,-0.137973,1
STON,2023-04-26 16:56:45.035,46.0897958,11.115617933333333,-0.027608,266.868904,-0.137973,1
SMAR,2023-04-26 16:56:45.071,null,null,359.38,136.73,0.3,null
SMAR,2023-04-26 16:56:45.107,null,null,359.39,136.75,0.3,null
SMAR,2023-04-26 16:56:45.149,null,null,359.39,136.76,0.3,null
SMAR,2023-04-26 16:56:45.179,null,null,359.4,136.78,0.31,null
SMAR,2023-04-26 16:56:45.212,null,null,359.4,136.79,0.31,null
SMAR,2023-04-26 16:56:45.246,null,null,359.41,136.8,0.32,null
SMAR,2023-04-26 16:56:45.275,null,null,359.41,136.82,0.32,null
STON,2023-04-26 16:56:45.275,46.0897958,11.115617933333333,-0.020844,266.998039,-0.192322,1
STON,2023-04-26 16:56:45.275,46.0897958,11.115617933333333,-0.020844,266.998039,-0.192322,1
STON,2023-04-26 16:56:45.275,46.089795718333335,11.115617975,-0.020844,266.998039,-0.192322,1
STON,2023-04-26 16:56:45.275,46.089795718333335,11.115617975,-0.020844,266.998039,-0.192322,1
STON,2023-04-26 16:56:45.275,46.089795718333335,11.115617975,-0.020844,266.998039,-0.192322,1
STON,2023-04-26 16:56:45.275,46.089795718333335,11.115617975,-0.020844,266.998039,-0.192322,1
SMAR,2023-04-26 16:56:45.311,null,null,359.4,136.85,0.31,null
SMAR,2023-04-26 16:56:45.343,null,null,359.4,136.86,0.31,null
SMAR,2023-04-26 16:56:45.38,null,null,359.4,136.85,0.31,null
SMAR,2023-04-26 16:56:45.408,null,null,359.4,136.83,0.29,null
SMAR,2023-04-26 16:56:45.439,null,null,359.39,136.82,0.28,null
STON,2023-04-26 16:56:45.439,46.089795718333335,11.115617975,-0.016647,267.051163,-0.205342,1
STON,2023-04-26 16:56:45.439,46.089795718333335,11.115617975,-0.016647,267.051163,-0.205342,1
SMAR,2023-04-26 16:56:45.48,null,null,359.38,136.83,0.27,null
SMAR,2023-04-26 16:56:45.507,null,null,359.38,136.83,0.27,null
SMAR,2023-04-26 16:56:45.551,null,null,359.37,136.81,0.25,null
SMAR,2023-04-26 16:56:45.58,null,null,359.37,136.79,0.24,null
SMAR,2023-04-26 16:56:45.612,null,null,359.37,136.75,0.23,null
SMAR,2023-04-26 16:56:45.645,null,null,359.36,136.7,0.22,null
STON,2023-04-26 16:56:45.645,46.089795718333335,11.115617975,-0.045952,267.00972,-0.158807,1
STON,2023-04-26 16:56:45.645,46.089795718333335,11.115617975,-0.045952,267.00972,-0.158807,1
SMAR,2023-04-26 16:56:45.674,null,null,359.36,136.64,0.22,null
SMAR,2023-04-26 16:56:45.709,null,null,359.37,136.58,0.21,null
SMAR,2023-04-26 16:56:45.75,null,null,359.39,136.55,0.21,null
SMAR,2023-04-26 16:56:45.778,null,null,359.4,136.56,0.2,null
SMAR,2023-04-26 16:56:45.81,null,null,359.42,136.6,0.2,null
SMAR,2023-04-26 16:56:45.845,null,null,359.44,136.63,0.2,null
SMAR,2023-04-26 16:56:45.889,null,null,359.45,136.65,0.2,null
SMAR,2023-04-26 16:56:45.917,null,null,359.47,136.63,0.2,null
STON,2023-04-26 16:56:45.917,46.089795718333335,11.115617975,-0.037186,266.825081,-0.110253,1
STON,2023-04-26 16:56:45.917,46.089795718333335,11.115617975,-0.037186,266.825081,-0.110253,1
SMAR,2023-04-26 16:56:45.949,null,null,359.48,136.61,0.21,null
SMAR,2023-04-26 16:56:45.979,null,null,359.49,136.62,0.21,null
SMAR,2023-04-26 16:56:46.016,null,null,359.49,136.64,0.22,null
SMAR,2023-04-26 16:56:46.046,null,null,359.5,136.66,0.23,null
STON,2023-04-26 16:56:46.046,46.089795718333335,11.115617975,0.065156,266.956093,-0.106589,1
STON,2023-04-26 16:56:46.046,46.089795718333335,11.115617975,0.065156,266.956093,-0.106589,1
SMAR,2023-04-26 16:56:46.078,null,null,359.5,136.68,0.23,null
SMAR,2023-04-26 16:56:46.114,null,null,359.49,136.7,0.24,null
SMAR,2023-04-26 16:56:46.15,null,null,359.49,136.68,0.24,null
SMAR,2023-04-26 16:56:46.183,null,null,359.48,136.65,0.25,null
SMAR,2023-04-26 16:56:46.219,null,null,359.47,136.62,0.25,null
SMAR,2023-04-26 16:56:46.246,null,null,359.46,136.58,0.25,null
STON,2023-04-26 16:56:46.246,46.089795718333335,11.115617975,0.068649,266.954613,-0.142828,1
STON,2023-04-26 16:56:46.246,46.089795718333335,11.115617975,0.068649,266.954613,-0.142828,1
SMAR,2023-04-26 16:56:46.276,null,null,359.45,136.56,0.25,null
SMAR,2023-04-26 16:56:46.313,null,null,359.45,136.55,0.25,null
SMAR,2023-04-26 16:56:46.339,null,null,359.44,136.57,0.25,null
STON,2023-04-26 16:56:46.339,46.0897957,11.115618031666667,0.068649,266.954613,-0.142828,1
STON,2023-04-26 16:56:46.339,46.0897957,11.115618031666667,0.068649,266.954613,-0.142828,1
STON,2023-04-26 16:56:46.339,46.0897957,11.115618031666667,0.068649,266.954613,-0.142828,1
STON,2023-04-26 16:56:46.339,46.0897957,11.115618031666667,0.068649,266.954613,-0.142828,1
SMAR,2023-04-26 16:56:46.377,null,null,359.44,136.57,0.26,null
SMAR,2023-04-26 16:56:46.416,null,null,359.44,136.55,0.25,null
SMAR,2023-04-26 16:56:46.44,null,null,359.44,136.54,0.25,null
STON,2023-04-26 16:56:46.44,46.0897957,11.115618031666667,0.01428,266.826836,-0.156819,1
STON,2023-04-26 16:56:46.44,46.0897957,11.115618031666667,0.01428,266.826836,-0.156819,1
SMAR,2023-04-26 16:56:46.483,null,null,359.44,136.54,0.24,null
SMAR,2023-04-26 16:56:46.513,null,null,359.43,136.55,0.23,null
SMAR,2023-04-26 16:56:46.55,null,null,359.42,136.56,0.22,null
SMAR,2023-04-26 16:56:46.584,null,null,359.41,136.55,0.21,null
SMAR,2023-04-26 16:56:46.616,null,null,359.4,136.52,0.21,null
SMAR,2023-04-26 16:56:46.651,null,null,359.4,136.5,0.2,null
SMAR,2023-04-26 16:56:46.686,null,null,359.39,136.49,0.19,null
SMAR,2023-04-26 16:56:46.715,null,null,359.38,136.47,0.18,null
STON,2023-04-26 16:56:46.715,46.0897957,11.115618031666667,-0.006813,266.852852,-0.117153,1
STON,2023-04-26 16:56:46.715,46.0897957,11.115618031666667,-0.006813,266.852852,-0.117153,1
SMAR,2023-04-26 16:56:46.741,null,null,359.38,136.47,0.17,null
SMAR,2023-04-26 16:56:46.781,null,null,359.38,136.47,0.16,null
SMAR,2023-04-26 16:56:46.814,null,null,359.37,136.48,0.15,null
SMAR,2023-04-26 16:56:46.845,null,null,359.36,136.47,0.14,null
STON,2023-04-26 16:56:46.845,46.0897957,11.115618031666667,-0.038076,266.794983,-0.066196,1
STON,2023-04-26 16:56:46.845,46.0897957,11.115618031666667,-0.038076,266.794983,-0.066196,1
SMAR,2023-04-26 16:56:46.875,null,null,359.36,136.45,0.12,null
SMAR,2023-04-26 16:56:46.912,null,null,359.35,136.41,0.11,null
SMAR,2023-04-26 16:56:46.944,null,null,359.34,136.36,0.1,null
SMAR,2023-04-26 16:56:46.982,null,null,359.33,136.31,0.1,null
SMAR,2023-04-26 16:56:47.015,null,null,359.34,136.26,0.11,null
SMAR,2023-04-26 16:56:47.044,null,null,359.34,136.25,0.12,null
SMAR,2023-04-26 16:56:47.077,null,null,359.34,136.28,0.12,null
STON,2023-04-26 16:56:47.077,46.0897957,11.115618031666667,-0.091558,266.6493,0.030733,1
STON,2023-04-26 16:56:47.077,46.0897957,11.115618031666667,-0.091558,266.6493,0.030733,1
SMAR,2023-04-26 16:56:47.105,null,null,359.35,136.31,0.14,null
SMAR,2023-04-26 16:56:47.14,null,null,359.36,136.34,0.16,null
SMAR,2023-04-26 16:56:47.173,null,null,359.37,136.35,0.17,null
SMAR,2023-04-26 16:56:47.209,null,null,359.38,136.34,0.19,null
SMAR,2023-04-26 16:56:47.246,null,null,359.4,136.37,0.2,null
STON,2023-04-26 16:56:47.246,46.0897957,11.115618031666667,-0.075291,266.699539,-0.015619,1
STON,2023-04-26 16:56:47.246,46.0897957,11.115618031666667,-0.075291,266.699539,-0.015619,1
SMAR,2023-04-26 16:56:47.279,null,null,359.41,136.43,0.21,null
SMAR,2023-04-26 16:56:47.312,null,null,359.42,136.52,0.22,null
SMAR,2023-04-26 16:56:47.35,null,null,359.43,136.6,0.22,null
SMAR,2023-04-26 16:56:47.379,null,null,359.44,136.67,0.23,null
STON,2023-04-26 16:56:47.379,46.089795715,11.115618006666667,-0.075291,266.699539,-0.015619,1
STON,2023-04-26 16:56:47.379,46.089795715,11.115618006666667,-0.075291,266.699539,-0.015619,1
STON,2023-04-26 16:56:47.379,46.089795715,11.115618006666667,-0.075291,266.699539,-0.015619,1
STON,2023-04-26 16:56:47.379,46.089795715,11.115618006666667,-0.075291,266.699539,-0.015619,1
SMAR,2023-04-26 16:56:47.409,null,null,359.44,136.73,0.23,null
SMAR,2023-04-26 16:56:47.445,null,null,359.45,136.78,0.23,null
SMAR,2023-04-26 16:56:47.488,null,null,359.47,136.81,0.24,null
STON,2023-04-26 16:56:47.488,46.089795715,11.115618006666667,0.009442,267.060181,-0.071355,1
STON,2023-04-26 16:56:47.488,46.089795715,11.115618006666667,0.009442,267.060181,-0.071355,1
SMAR,2023-04-26 16:56:47.521,null,null,359.48,136.82,0.24,null
SMAR,2023-04-26 16:56:47.551,null,null,359.49,136.84,0.24,null
SMAR,2023-04-26 16:56:47.582,null,null,359.5,136.83,0.24,null
SMAR,2023-04-26 16:56:47.613,null,null,359.5,136.8,0.24,null
SMAR,2023-04-26 16:56:47.649,null,null,359.51,136.78,0.24,null
SMAR,2023-04-26 16:56:47.677,null,null,359.52,136.76,0.24,null
STON,2023-04-26 16:56:47.677,46.089795715,11.115618006666667,0.066164,267.172554,-0.078395,1
STON,2023-04-26 16:56:47.677,46.089795715,11.115618006666667,0.066164,267.172554,-0.078395,1
SMAR,2023-04-26 16:56:47.714,null,null,359.53,136.76,0.24,null
SMAR,2023-04-26 16:56:47.749,null,null,359.54,136.77,0.23,null
SMAR,2023-04-26 16:56:47.785,null,null,359.54,136.76,0.22,null
SMAR,2023-04-26 16:56:47.816,null,null,359.54,136.73,0.21,null
SMAR,2023-04-26 16:56:47.855,null,null,359.55,136.69,0.2,null
SMAR,2023-04-26 16:56:47.886,null,null,359.55,136.63,0.19,null
SMAR,2023-04-26 16:56:47.92,null,null,359.55,136.58,0.18,null
STON,2023-04-26 16:56:47.92,46.089795715,11.115618006666667,0.122585,267.101341,-0.061484,1
STON,2023-04-26 16:56:47.92,46.089795715,11.115618006666667,0.122585,267.101341,-0.061484,1
SMAR,2023-04-26 16:56:47.948,null,null,359.55,136.53,0.17,null
SMAR,2023-04-26 16:56:47.985,null,null,359.55,136.49,0.16,null
SMAR,2023-04-26 16:56:48.019,null,null,359.55,136.47,0.16,null
SMAR,2023-04-26 16:56:48.051,null,null,359.55,136.43,0.14,null
SMAR,2023-04-26 16:56:48.082,null,null,359.55,136.41,0.13,null
SMAR,2023-04-26 16:56:48.113,null,null,359.55,136.38,0.13,null
SMAR,2023-04-26 16:56:48.151,null,null,359.55,136.36,0.12,null
SMAR,2023-04-26 16:56:48.179,null,null,359.55,136.34,0.12,null
SMAR,2023-04-26 16:56:48.211,null,null,359.55,136.31,0.11,null
SMAR,2023-04-26 16:56:48.245,null,null,359.56,136.28,0.11,null
STON,2023-04-26 16:56:48.245,46.089795715,11.115618006666667,0.136059,266.909996,0.008662,1
STON,2023-04-26 16:56:48.245,46.089795715,11.115618006666667,0.136059,266.909996,0.008662,1
SMAR,2023-04-26 16:56:48.274,null,null,359.56,136.28,0.12,null
SMAR,2023-04-26 16:56:48.314,null,null,359.57,136.29,0.13,null
SMAR,2023-04-26 16:56:48.355,null,null,359.57,136.33,0.14,null
SMAR,2023-04-26 16:56:48.378,null,null,359.58,136.37,0.14,null
STON,2023-04-26 16:56:48.378,46.089795715,11.115618006666667,0.137545,266.854996,0.064817,1
STON,2023-04-26 16:56:48.378,46.089795715,11.115618006666667,0.137545,266.854996,0.064817,1
STON,2023-04-26 16:56:48.378,46.08979568666667,11.115618118333334,0.137545,266.854996,0.064817,1
STON,2023-04-26 16:56:48.378,46.08979568666667,11.115618118333334,0.137545,266.854996,0.064817,1
STON,2023-04-26 16:56:48.378,46.08979568666667,11.115618118333334,0.137545,266.854996,0.064817,1
STON,2023-04-26 16:56:48.378,46.08979568666667,11.115618118333334,0.137545,266.854996,0.064817,1
SMAR,2023-04-26 16:56:48.412,null,null,359.58,136.41,0.16,null
SMAR,2023-04-26 16:56:48.45,null,null,359.58,136.45,0.18,null
SMAR,2023-04-26 16:56:48.491,null,null,359.59,136.52,0.19,null
STON,2023-04-26 16:56:48.491,46.08979568666667,11.115618118333334,0.163627,266.937485,0.069181,1
STON,2023-04-26 16:56:48.491,46.08979568666667,11.115618118333334,0.163627,266.937485,0.069181,1
SMAR,2023-04-26 16:56:48.524,null,null,359.59,136.62,0.21,null
SMAR,2023-04-26 16:56:48.568,null,null,359.59,136.75,0.22,null
SMAR,2023-04-26 16:56:48.587,null,null,359.59,136.87,0.23,null
SMAR,2023-04-26 16:56:48.623,null,null,359.59,136.98,0.23,null
SMAR,2023-04-26 16:56:48.654,null,null,359.58,137.05,0.24,null
SMAR,2023-04-26 16:56:48.688,null,null,359.58,137.07,0.25,null
SMAR,2023-04-26 16:56:48.718,null,null,359.57,137.04,0.26,null
STON,2023-04-26 16:56:48.718,46.08979568666667,11.115618118333334,0.201416,267.473648,-0.012025,1
STON,2023-04-26 16:56:48.718,46.08979568666667,11.115618118333334,0.201416,267.473648,-0.012025,1
SMAR,2023-04-26 16:56:48.749,null,null,359.57,137.01,0.26,null
SMAR,2023-04-26 16:56:48.786,null,null,359.56,136.99,0.27,null
SMAR,2023-04-26 16:56:48.818,null,null,359.56,137.0,0.27,null
SMAR,2023-04-26 16:56:48.851,null,null,359.55,137.01,0.28,null
SMAR,2023-04-26 16:56:48.889,null,null,359.54,137.0,0.28,null
STON,2023-04-26 16:56:48.889,46.08979568666667,11.115618118333334,0.193231,267.566048,-0.061637,1
STON,2023-04-26 16:56:48.889,46.08979568666667,11.115618118333334,0.193231,267.566048,-0.061637,1
SMAR,2023-04-26 16:56:48.915,null,null,359.53,136.98,0.28,null
SMAR,2023-04-26 16:56:48.952,null,null,359.52,136.96,0.28,null
SMAR,2023-04-26 16:56:48.987,null,null,359.52,136.94,0.28,null
SMAR,2023-04-26 16:56:49.02,null,null,359.51,136.92,0.27,null
SMAR,2023-04-26 16:56:49.05,null,null,359.5,136.9,0.26,null
SMAR,2023-04-26 16:56:49.085,null,null,359.5,136.88,0.26,null
STON,2023-04-26 16:56:49.085,46.08979568666667,11.115618118333334,0.141399,267.50955999999996,-0.080326,1
STON,2023-04-26 16:56:49.085,46.08979568666667,11.115618118333334,0.141399,267.50955999999996,-0.080326,1
SMAR,2023-04-26 16:56:49.115,null,null,359.49,136.84,0.24,null
SMAR,2023-04-26 16:56:49.151,null,null,359.48,136.8,0.24,null
SMAR,2023-04-26 16:56:49.184,null,null,359.47,136.76,0.23,null
SMAR,2023-04-26 16:56:49.227,null,null,359.47,136.71,0.23,null
SMAR,2023-04-26 16:56:49.254,null,null,359.46,136.64,0.22,null
SMAR,2023-04-26 16:56:49.289,null,null,359.45,136.57,0.2,null
STON,2023-04-26 16:56:49.289,46.08979568666667,11.115618118333334,0.093416,267.270683,-0.04905,1
STON,2023-04-26 16:56:49.289,46.08979568666667,11.115618118333334,0.093416,267.270683,-0.04905,1
STON,2023-04-26 16:56:49.289,46.08979562333333,11.115618141666667,0.093416,267.270683,-0.04905,1
STON,2023-04-26 16:56:49.289,46.08979562333333,11.115618141666667,0.093416,267.270683,-0.04905,1
STON,2023-04-26 16:56:49.289,46.08979562333333,11.115618141666667,0.093416,267.270683,-0.04905,1
STON,2023-04-26 16:56:49.289,46.08979562333333,11.115618141666667,0.093416,267.270683,-0.04905,1
SMAR,2023-04-26 16:56:49.32,null,null,359.45,136.5,0.2,null
SMAR,2023-04-26 16:56:49.354,null,null,359.45,136.42,0.18,null
SMAR,2023-04-26 16:56:49.389,null,null,359.45,136.37,0.17,null
SMAR,2023-04-26 16:56:49.424,null,null,359.46,136.34,0.16,null
SMAR,2023-04-26 16:56:49.455,null,null,359.46,136.36,0.16,null
SMAR,2023-04-26 16:56:49.489,null,null,359.46,136.38,0.14,null
SMAR,2023-04-26 16:56:49.518,null,null,359.47,136.41,0.14,null
STON,2023-04-26 16:56:49.518,46.08979562333333,11.115618141666667,0.036409,266.900795,0.011599,1
STON,2023-04-26 16:56:49.518,46.08979562333333,11.115618141666667,0.036409,266.900795,0.011599,1
SMAR,2023-04-26 16:56:49.549,null,null,359.47,136.42,0.14,null
SMAR,2023-04-26 16:56:49.584,null,null,359.47,136.42,0.13,null
SMAR,2023-04-26 16:56:49.618,null,null,359.47,136.41,0.14,null
SMAR,2023-04-26 16:56:49.659,null,null,359.46,136.41,0.14,null
SMAR,2023-04-26 16:56:49.692,null,null,359.46,136.41,0.14,null
STON,2023-04-26 16:56:49.692,46.08979562333333,11.115618141666667,0.049678,266.980232,0.070672,1
STON,2023-04-26 16:56:49.692,46.08979562333333,11.115618141666667,0.049678,266.980232,0.070672,1
SMAR,2023-04-26 16:56:49.723,null,null,359.45,136.41,0.14,null
SMAR,2023-04-26 16:56:49.753,null,null,359.45,136.41,0.14,null
SMAR,2023-04-26 16:56:49.791,null,null,359.44,136.41,0.14,null
SMAR,2023-04-26 16:56:49.823,null,null,359.44,136.41,0.14,null
SMAR,2023-04-26 16:56:49.859,null,null,359.44,136.42,0.15,null
SMAR,2023-04-26 16:56:49.89,null,null,359.44,136.45,0.15,null
SMAR,2023-04-26 16:56:49.915,null,null,359.44,136.47,0.16,null
SMAR,2023-04-26 16:56:49.95,null,null,359.43,136.49,0.17,null
SMAR,2023-04-26 16:56:49.982,null,null,359.43,136.49,0.18,null
SMAR,2023-04-26 16:56:50.016,null,null,359.42,136.48,0.19,null
SMAR,2023-04-26 16:56:50.054,null,null,359.42,136.48,0.21,null
SMAR,2023-04-26 16:56:50.088,null,null,359.43,136.48,0.22,null
STON,2023-04-26 16:56:50.088,46.08979562333333,11.115618141666667,0.015071,267.052826,0.042776,1
STON,2023-04-26 16:56:50.088,46.08979562333333,11.115618141666667,0.015071,267.052826,0.042776,1
SMAR,2023-04-26 16:56:50.117,null,null,359.42,136.48,0.22,null
SMAR,2023-04-26 16:56:50.154,null,null,359.43,136.49,0.23,null
SMAR,2023-04-26 16:56:50.189,null,null,359.43,136.5,0.23,null
SMAR,2023-04-26 16:56:50.226,null,null,359.44,136.51,0.23,null
SMAR,2023-04-26 16:56:50.256,null,null,359.44,136.52,0.23,null
STON,2023-04-26 16:56:50.256,46.08979562333333,11.115618141666667,0.011266,267.114433,-0.021408,1
STON,2023-04-26 16:56:50.256,46.08979562333333,11.115618141666667,0.011266,267.114433,-0.021408,1
SMAR,2023-04-26 16:56:50.285,null,null,359.44,136.52,0.23,null
SMAR,2023-04-26 16:56:50.325,null,null,359.45,136.51,0.22,null
STON,2023-04-26 16:56:50.325,46.089795593333335,11.115618148333333,0.011266,267.114433,-0.021408,1
STON,2023-04-26 16:56:50.325,46.089795593333335,11.115618148333333,0.011266,267.114433,-0.021408,1
STON,2023-04-26 16:56:50.325,46.089795593333335,11.115618148333333,0.011266,267.114433,-0.021408,1
STON,2023-04-26 16:56:50.325,46.089795593333335,11.115618148333333,0.011266,267.114433,-0.021408,1
SMAR,2023-04-26 16:56:50.358,null,null,359.44,136.5,0.22,null
SMAR,2023-04-26 16:56:50.39,null,null,359.43,136.48,0.21,null
SMAR,2023-04-26 16:56:50.425,null,null,359.42,136.46,0.19,null
SMAR,2023-04-26 16:56:50.459,null,null,359.41,136.42,0.18,null
SMAR,2023-04-26 16:56:50.492,null,null,359.4,136.36,0.18,null
SMAR,2023-04-26 16:56:50.524,null,null,359.39,136.29,0.17,null
SMAR,2023-04-26 16:56:50.555,null,null,359.38,136.22,0.17,null
SMAR,2023-04-26 16:56:50.589,null,null,359.37,136.19,0.16,null
SMAR,2023-04-26 16:56:50.624,null,null,359.37,136.17,0.17,null
SMAR,2023-04-26 16:56:50.656,null,null,359.37,136.17,0.17,null
SMAR,2023-04-26 16:56:50.691,null,null,359.37,136.18,0.18,null
SMAR,2023-04-26 16:56:50.72,null,null,359.37,136.21,0.19,null
STON,2023-04-26 16:56:50.72,46.089795593333335,11.115618148333333,-0.046765,266.840668,0.039948,1
STON,2023-04-26 16:56:50.72,46.089795593333335,11.115618148333333,-0.046765,266.840668,0.039948,1
SMAR,2023-04-26 16:56:50.751,null,null,359.37,136.22,0.2,null
SMAR,2023-04-26 16:56:50.786,null,null,359.37,136.23,0.21,null
SMAR,2023-04-26 16:56:50.819,null,null,359.37,136.23,0.23,null
SMAR,2023-04-26 16:56:50.862,null,null,359.37,136.27,0.25,null
SMAR,2023-04-26 16:56:50.894,null,null,359.38,136.33,0.27,null
STON,2023-04-26 16:56:50.894,46.089795593333335,11.115618148333333,-0.062643,266.828995,0.008965,1
STON,2023-04-26 16:56:50.894,46.089795593333335,11.115618148333333,-0.062643,266.828995,0.008965,1
SMAR,2023-04-26 16:56:50.924,null,null,359.38,136.38,0.28,null
SMAR,2023-04-26 16:56:50.958,null,null,359.37,136.42,0.31,null
SMAR,2023-04-26 16:56:50.991,null,null,359.37,136.44,0.33,null
SMAR,2023-04-26 16:56:51.024,null,null,359.37,136.44,0.34,null
SMAR,2023-04-26 16:56:51.059,null,null,359.37,136.45,0.36,null
SMAR,2023-04-26 16:56:51.097,null,null,359.36,136.46,0.37,null
SMAR,2023-04-26 16:56:51.126,null,null,359.36,136.49,0.37,null
STON,2023-04-26 16:56:51.126,46.089795593333335,11.115618148333333,-0.056675,267.033157,-0.108803,1
STON,2023-04-26 16:56:51.126,46.089795593333335,11.115618148333333,-0.056675,267.033157,-0.108803,1
SMAR,2023-04-26 16:56:51.16,null,null,359.35,136.5,0.38,null
SMAR,2023-04-26 16:56:51.193,null,null,359.34,136.52,0.39,null
SMAR,2023-04-26 16:56:51.223,null,null,359.34,136.56,0.38,null
SMAR,2023-04-26 16:56:51.256,null,null,359.33,136.57,0.38,null
SMAR,2023-04-26 16:56:51.293,null,null,359.33,136.57,0.38,null
STON,2023-04-26 16:56:51.293,46.089795593333335,11.115618148333333,-0.082336,267.06118,-0.20766,1
STON,2023-04-26 16:56:51.293,46.089795593333335,11.115618148333333,-0.082336,267.06118,-0.20766,1
SMAR,2023-04-26 16:56:51.325,null,null,359.34,136.55,0.37,null
STON,2023-04-26 16:56:51.325,46.08979550833333,11.11561816,-0.082336,267.06118,-0.20766,1
STON,2023-04-26 16:56:51.325,46.08979550833333,11.11561816,-0.082336,267.06118,-0.20766,1
STON,2023-04-26 16:56:51.325,46.08979550833333,11.11561816,-0.082336,267.06118,-0.20766,1
STON,2023-04-26 16:56:51.325,46.08979550833333,11.11561816,-0.082336,267.06118,-0.20766,1
SMAR,2023-04-26 16:56:51.364,null,null,359.34,136.55,0.36,null
SMAR,2023-04-26 16:56:51.394,null,null,359.35,136.58,0.36,null
SMAR,2023-04-26 16:56:51.428,null,null,359.35,136.62,0.35,null
SMAR,2023-04-26 16:56:51.465,null,null,359.36,136.64,0.34,null
SMAR,2023-04-26 16:56:51.495,null,null,359.36,136.65,0.33,null
SMAR,2023-04-26 16:56:51.528,null,null,359.35,136.63,0.32,null
STON,2023-04-26 16:56:51.528,46.08979550833333,11.11561816,-0.095182,267.107674,-0.207819,1
STON,2023-04-26 16:56:51.528,46.08979550833333,11.11561816,-0.095182,267.107674,-0.207819,1
SMAR,2023-04-26 16:56:51.567,null,null,359.35,136.62,0.32,null
SMAR,2023-04-26 16:56:51.596,null,null,359.35,136.61,0.31,null
SMAR,2023-04-26 16:56:51.63,null,null,359.35,136.62,0.3,null
SMAR,2023-04-26 16:56:51.662,null,null,359.34,136.61,0.3,null
SMAR,2023-04-26 16:56:51.692,null,null,359.33,136.59,0.29,null
STON,2023-04-26 16:56:51.692,46.08979550833333,11.11561816,-0.088879,267.07286799999997,-0.16794,1
STON,2023-04-26 16:56:51.692,46.08979550833333,11.11561816,-0.088879,267.07286799999997,-0.16794,1
SMAR,2023-04-26 16:56:51.722,null,null,359.34,136.58,0.28,null
SMAR,2023-04-26 16:56:51.753,null,null,359.34,136.58,0.27,null
SMAR,2023-04-26 16:56:51.792,null,null,359.34,136.58,0.26,null
SMAR,2023-04-26 16:56:51.822,null,null,359.35,136.55,0.25,null
SMAR,2023-04-26 16:56:51.859,null,null,359.35,136.52,0.24,null
SMAR,2023-04-26 16:56:51.891,null,null,359.36,136.51,0.23,null
SMAR,2023-04-26 16:56:51.918,null,null,359.36,136.52,0.22,null
STON,2023-04-26 16:56:51.918,46.08979550833333,11.11561816,-0.111818,267.018532,-0.129142,1
STON,2023-04-26 16:56:51.918,46.08979550833333,11.11561816,-0.111818,267.018532,-0.129142,1
SMAR,2023-04-26 16:56:51.95,null,null,359.36,136.54,0.21,null
SMAR,2023-04-26 16:56:51.985,null,null,359.37,136.53,0.2,null
SMAR,2023-04-26 16:56:52.025,null,null,359.37,136.52,0.2,null
SMAR,2023-04-26 16:56:52.057,null,null,359.37,136.52,0.19,null
SMAR,2023-04-26 16:56:52.088,null,null,359.37,136.52,0.19,null
STON,2023-04-26 16:56:52.088,46.08979550833333,11.11561816,-0.081057,267.00352499999997,-0.069522,1
STON,2023-04-26 16:56:52.088,46.08979550833333,11.11561816,-0.081057,267.00352499999997,-0.069522,1
SMAR,2023-04-26 16:56:52.12,null,null,359.36,136.51,0.18,null
SMAR,2023-04-26 16:56:52.153,null,null,359.36,136.49,0.17,null
SMAR,2023-04-26 16:56:52.19,null,null,359.36,136.47,0.16,null
SMAR,2023-04-26 16:56:52.226,null,null,359.35,136.45,0.15,null
SMAR,2023-04-26 16:56:52.255,null,null,359.35,136.45,0.14,null
SMAR,2023-04-26 16:56:52.288,null,null,359.36,136.43,0.13,null
STON,2023-04-26 16:56:52.288,46.08979550833333,11.11561816,-0.092459,266.960289,-0.032418,1
STON,2023-04-26 16:56:52.288,46.08979550833333,11.11561816,-0.092459,266.960289,-0.032418,1
SMAR,2023-04-26 16:56:52.32,null,null,359.36,136.41,0.12,null
SMAR,2023-04-26 16:56:52.353,null,null,359.36,136.41,0.1,null
SMAR,2023-04-26 16:56:52.39,null,null,359.36,136.41,0.09,null
SMAR,2023-04-26 16:56:52.426,null,null,359.36,136.42,0.1,null
STON,2023-04-26 16:56:52.426,46.089795495,11.115618185,-0.092459,266.960289,-0.032418,1
STON,2023-04-26 16:56:52.426,46.089795495,11.115618185,-0.092459,266.960289,-0.032418,1
SMAR,2023-04-26 16:56:52.454,null,null,359.35,136.41,0.1,null
SMAR,2023-04-26 16:56:52.488,null,null,359.36,136.4,0.11,null
STON,2023-04-26 16:56:52.488,46.089795495,11.115618185,-0.092459,266.960289,-0.032418,1
STON,2023-04-26 16:56:52.488,46.089795495,11.115618185,-0.092459,266.960289,-0.032418,1
STON,2023-04-26 16:56:52.488,46.089795495,11.115618185,-0.08874,266.879478,0.056563,1
STON,2023-04-26 16:56:52.488,46.089795495,11.115618185,-0.08874,266.879478,0.056563,1
SMAR,2023-04-26 16:56:52.523,null,null,359.36,136.39,0.12,null
SMAR,2023-04-26 16:56:52.56,null,null,359.36,136.41,0.14,null
SMAR,2023-04-26 16:56:52.597,null,null,359.36,136.43,0.15,null
SMAR,2023-04-26 16:56:52.627,null,null,359.37,136.45,0.18,null
SMAR,2023-04-26 16:56:52.663,null,null,359.37,136.48,0.2,null
STON,2023-04-26 16:56:52.663,46.089795495,11.115618185,-0.0883,266.85839799999997,0.040353,1
STON,2023-04-26 16:56:52.663,46.089795495,11.115618185,-0.0883,266.85839799999997,0.040353,1
SMAR,2023-04-26 16:56:52.692,null,null,359.37,136.52,0.21,null
SMAR,2023-04-26 16:56:52.723,null,null,359.37,136.56,0.23,null
SMAR,2023-04-26 16:56:52.755,null,null,359.37,136.58,0.25,null
SMAR,2023-04-26 16:56:52.787,null,null,359.37,136.61,0.27,null
SMAR,2023-04-26 16:56:52.824,null,null,359.36,136.62,0.28,null
SMAR,2023-04-26 16:56:52.859,null,null,359.36,136.59,0.28,null
SMAR,2023-04-26 16:56:52.899,null,null,359.35,136.53,0.28,null
SMAR,2023-04-26 16:56:52.924,null,null,359.36,136.42,0.26,null
SMAR,2023-04-26 16:56:52.958,null,null,359.35,136.34,0.25,null
STON,2023-04-26 16:56:52.958,46.089795495,11.115618185,-0.068419,266.95993799999997,-0.088613,1
STON,2023-04-26 16:56:52.958,46.089795495,11.115618185,-0.068419,266.95993799999997,-0.088613,1
SMAR,2023-04-26 16:56:52.99,null,null,359.34,136.32,0.23,null
SMAR,2023-04-26 16:56:53.024,null,null,359.34,136.36,0.21,null
SMAR,2023-04-26 16:56:53.059,null,null,359.33,136.38,0.19,null
SMAR,2023-04-26 16:56:53.095,null,null,359.31,136.37,0.17,null
SMAR,2023-04-26 16:56:53.126,null,null,359.3,136.33,0.15,null
SMAR,2023-04-26 16:56:53.169,null,null,359.29,136.27,0.14,null
SMAR,2023-04-26 16:56:53.206,null,null,359.28,136.22,0.13,null
SMAR,2023-04-26 16:56:53.239,null,null,359.28,136.2,0.13,null
SMAR,2023-04-26 16:56:53.27,null,null,359.28,136.19,0.12,null
SMAR,2023-04-26 16:56:53.303,null,null,359.28,136.17,0.12,null
STON,2023-04-26 16:56:53.303,46.089795495,11.115618185,-0.149604,266.459534,0.029347,1
STON,2023-04-26 16:56:53.303,46.089795495,11.115618185,-0.149604,266.459534,0.029347,1
SMAR,2023-04-26 16:56:53.335,null,null,359.29,136.16,0.12,null
SMAR,2023-04-26 16:56:53.367,null,null,359.29,136.17,0.12,null
SMAR,2023-04-26 16:56:53.397,null,null,359.3,136.19,0.12,null
SMAR,2023-04-26 16:56:53.433,null,null,359.32,136.2,0.12,null
SMAR,2023-04-26 16:56:53.468,null,null,359.33,136.2,0.13,null
SMAR,2023-04-26 16:56:53.501,null,null,359.35,136.2,0.13,null
SMAR,2023-04-26 16:56:53.532,null,null,359.36,136.22,0.14,null
SMAR,2023-04-26 16:56:53.566,null,null,359.36,136.25,0.15,null
SMAR,2023-04-26 16:56:53.599,null,null,359.36,136.26,0.16,null
SMAR,2023-04-26 16:56:53.633,null,null,359.36,136.26,0.17,null
SMAR,2023-04-26 16:56:53.666,null,null,359.36,136.24,0.17,null
STON,2023-04-26 16:56:53.666,46.08979546333333,11.115618196666667,-0.149604,266.459534,0.029347,1
STON,2023-04-26 16:56:53.666,46.08979546333333,11.115618196666667,-0.149604,266.459534,0.029347,1
STON,2023-04-26 16:56:53.666,46.08979546333333,11.115618196666667,-0.149604,266.459534,0.029347,1
