Input,Time,Latitude,Longitude,Pitch,Yaw,Roll,Stonex_status
SMAR,2023-04-26 17:00:40.023,46.0899699,11.1153628,357.84,2.3,357.15,null
STON,2023-04-26 17:00:40.023,46.09010897,11.115449706666666,-2.266677,9.101562000000001,1.668285,1
SMAR,2023-04-26 17:00:40.066,46.0899699,11.1153628,357.84,2.22,357.15,null
SMAR,2023-04-26 17:00:40.095,46.0899699,11.1153628,357.84,2.21,357.15,null
SMAR,2023-04-26 17:00:40.131,46.0899699,11.1153628,357.85,2.25,357.16,null
SMAR,2023-04-26 17:00:40.162,46.0899699,11.1153628,357.86,2.32,357.17,null
SMAR,2023-04-26 17:00:40.189,46.0899699,11.1153628,357.87,2.36,357.17,null
SMAR,2023-04-26 17:00:40.227,46.0899699,11.1153628,357.87,2.37,357.18,null
SMAR,2023-04-26 17:00:40.262,46.0899699,11.1153628,357.88,2.37,357.2,null
STON,2023-04-26 17:00:40.262,46.09010897,11.115449706666666,-2.217736,9.114395000000002,1.642698,1
STON,2023-04-26 17:00:40.262,46.09010883333333,11.11544977,-2.217736,9.114395000000002,1.642698,1
STON,2023-04-26 17:00:40.262,46.09010883333333,11.11544977,-2.217736,9.114395000000002,1.642698,1
SMAR,2023-04-26 17:00:40.292,46.0899699,11.1153628,357.88,2.37,357.22,null
SMAR,2023-04-26 17:00:40.323,46.0899699,11.1153628,357.87,2.36,357.23,null
SMAR,2023-04-26 17:00:40.362,46.0899699,11.1153628,357.87,2.33,357.25,null
SMAR,2023-04-26 17:00:40.39,46.0899699,11.1153628,357.87,2.28,357.26,null
SMAR,2023-04-26 17:00:40.425,46.0899699,11.1153628,357.89,2.25,357.26,null
STON,2023-04-26 17:00:40.425,46.09010883333333,11.11544977,-2.227839,9.14631700000001,1.533626,1
SMAR,2023-04-26 17:00:40.465,46.0899699,11.1153628,357.91,2.31,357.25,null
SMAR,2023-04-26 17:00:40.498,46.0899699,11.1153628,357.93,2.42,357.24,null
SMAR,2023-04-26 17:00:40.534,46.0899699,11.1153628,357.94,2.51,357.24,null
SMAR,2023-04-26 17:00:40.564,46.0899699,11.1153628,357.94,2.56,357.24,null
SMAR,2023-04-26 17:00:40.598,46.0899699,11.1153628,357.93,2.54,357.24,null
SMAR,2023-04-26 17:00:40.626,46.0899699,11.1153628,357.92,2.49,357.23,null
STON,2023-04-26 17:00:40.626,46.09010883333333,11.11544977,-2.144453,9.506499999999988,1.538041,1
SMAR,2023-04-26 17:00:40.654,46.0899699,11.1153628,357.92,2.49,357.23,null
SMAR,2023-04-26 17:00:40.69,46.0899699,11.1153628,357.9,2.52,357.24,null
SMAR,2023-04-26 17:00:40.73,46.0899699,11.1153628,357.88,2.49,357.25,null
SMAR,2023-04-26 17:00:40.761,46.0899699,11.1153628,357.87,2.44,357.25,null
SMAR,2023-04-26 17:00:40.801,46.0899811,11.115361,357.87,2.47,357.25,null
SMAR,2023-04-26 17:00:40.833,46.0899811,11.115361,357.85,2.52,357.24,null
SMAR,2023-04-26 17:00:40.867,46.0899811,11.115361,357.83,2.48,357.25,null
SMAR,2023-04-26 17:00:40.9,46.0899811,11.115361,357.82,2.4,357.25,null
STON,2023-04-26 17:00:40.9,46.09010883333333,11.11544977,-2.195198,9.433303999999993,1.516065,1
SMAR,2023-04-26 17:00:40.934,46.0899811,11.115361,357.8,2.35,357.24,null
SMAR,2023-04-26 17:00:40.967,46.0899811,11.115361,357.8,2.36,357.23,null
SMAR,2023-04-26 17:00:40.999,46.0899811,11.115361,357.79,2.35,357.22,null
STON,2023-04-26 17:00:40.999,46.09010883333333,11.11544977,-2.273322,9.455902000000009,1.503711,1
SMAR,2023-04-26 17:00:41.032,46.0899811,11.115361,357.8,2.31,357.21,null
SMAR,2023-04-26 17:00:41.067,46.0899811,11.115361,357.8,2.27,357.2,null
SMAR,2023-04-26 17:00:41.098,46.0899811,11.115361,357.8,2.24,357.19,null
SMAR,2023-04-26 17:00:41.133,46.0899811,11.115361,357.81,2.23,357.18,null
SMAR,2023-04-26 17:00:41.166,46.0899811,11.115361,357.8,2.25,357.17,null
SMAR,2023-04-26 17:00:41.201,46.0899811,11.115361,357.79,2.26,357.15,null
SMAR,2023-04-26 17:00:41.231,46.0899811,11.115361,357.78,2.24,357.14,null
SMAR,2023-04-26 17:00:41.266,46.0899811,11.115361,357.76,2.21,357.14,null
SMAR,2023-04-26 17:00:41.299,46.0899811,11.115361,357.73,2.16,357.14,null
SMAR,2023-04-26 17:00:41.334,46.0899811,11.115361,357.71,2.05,357.14,null
STON,2023-04-26 17:00:41.334,46.09010873166667,11.115449828333333,-2.273322,9.455902000000009,1.503711,1
STON,2023-04-26 17:00:41.334,46.09010873166667,11.115449828333333,-2.273322,9.455902000000009,1.503711,1
SMAR,2023-04-26 17:00:41.359,46.0899811,11.115361,357.68,1.92,357.15,null
SMAR,2023-04-26 17:00:41.397,46.0899811,11.115361,357.64,1.81,357.15,null
STON,2023-04-26 17:00:41.397,46.09010873166667,11.115449828333333,-2.37383,8.960831000000013,1.594656,1
SMAR,2023-04-26 17:00:41.428,46.0899811,11.115361,357.61,1.79,357.16,null
SMAR,2023-04-26 17:00:41.462,46.0899811,11.115361,357.57,1.83,357.17,null
SMAR,2023-04-26 17:00:41.499,46.0899811,11.115361,357.53,1.82,357.18,null
SMAR,2023-04-26 17:00:41.531,46.0899811,11.115361,357.5,1.79,357.2,null
SMAR,2023-04-26 17:00:41.564,46.0899811,11.115361,357.46,1.8,357.22,null
SMAR,2023-04-26 17:00:41.596,46.0899811,11.115361,357.43,1.82,357.24,null
STON,2023-04-26 17:00:41.596,46.09010873166667,11.115449828333333,-2.594149,8.872817999999995,1.542392,1
SMAR,2023-04-26 17:00:41.63,46.0899811,11.115361,357.4,1.82,357.26,null
SMAR,2023-04-26 17:00:41.661,46.0899811,11.115361,357.37,1.82,357.28,null
SMAR,2023-04-26 17:00:41.695,46.0899811,11.115361,357.35,1.84,357.29,null
SMAR,2023-04-26 17:00:41.732,46.0899811,11.115361,357.33,1.85,357.31,null
SMAR,2023-04-26 17:00:41.76,46.0899811,11.115361,357.32,1.85,357.32,null
SMAR,2023-04-26 17:00:41.797,46.0899883,11.1153683,357.31,1.86,357.34,null
STON,2023-04-26 17:00:41.797,46.09010873166667,11.115449828333333,-2.750584,9.033187999999996,1.419858,1
SMAR,2023-04-26 17:00:41.827,46.0899883,11.1153683,357.3,1.89,357.35,null
SMAR,2023-04-26 17:00:41.861,46.0899883,11.1153683,357.29,1.9,357.37,null
SMAR,2023-04-26 17:00:41.901,46.0899883,11.1153683,357.29,1.9,357.38,null
SMAR,2023-04-26 17:00:41.933,46.0899883,11.1153683,357.28,1.91,357.39,null
SMAR,2023-04-26 17:00:41.963,46.0899883,11.1153683,357.27,1.9,357.4,null
SMAR,2023-04-26 17:00:41.999,46.0899883,11.1153683,357.28,1.9,357.39,null
SMAR,2023-04-26 17:00:42.026,46.0899883,11.1153683,357.28,1.91,357.38,null
STON,2023-04-26 17:00:42.026,46.09010873166667,11.115449828333333,-2.811172,9.16935699999999,1.313731,1
SMAR,2023-04-26 17:00:42.066,46.0899883,11.1153683,357.29,1.91,357.37,null
SMAR,2023-04-26 17:00:42.099,46.0899883,11.1153683,357.31,1.92,357.35,null
SMAR,2023-04-26 17:00:42.131,46.0899883,11.1153683,357.33,1.91,357.34,null
SMAR,2023-04-26 17:00:42.16,46.0899883,11.1153683,357.35,1.9,357.32,null
SMAR,2023-04-26 17:00:42.194,46.0899883,11.1153683,357.37,1.89,357.31,null
SMAR,2023-04-26 17:00:42.224,46.0899883,11.1153683,357.4,1.89,357.29,null
STON,2023-04-26 17:00:42.224,46.09010873166667,11.115449828333333,-2.745334,9.064879999999988,1.366211,1
SMAR,2023-04-26 17:00:42.256,46.0899883,11.1153683,357.43,1.87,357.28,null
SMAR,2023-04-26 17:00:42.295,46.0899883,11.1153683,357.47,1.85,357.27,null
SMAR,2023-04-26 17:00:42.334,46.0899883,11.1153683,357.51,1.82,357.27,null
SMAR,2023-04-26 17:00:42.366,46.0899883,11.1153683,357.57,1.79,357.27,null
SMAR,2023-04-26 17:00:42.397,46.0899883,11.1153683,357.65,1.74,357.27,null
STON,2023-04-26 17:00:42.397,46.090108566666665,11.11544998,-2.745334,9.064879999999988,1.366211,1
STON,2023-04-26 17:00:42.397,46.090108566666665,11.11544998,-2.745334,9.064879999999988,1.366211,1
STON,2023-04-26 17:00:42.397,46.090108566666665,11.11544998,-2.579075,8.899901999999997,1.4297,1
SMAR,2023-04-26 17:00:42.428,46.0899883,11.1153683,357.74,1.73,357.27,null
SMAR,2023-04-26 17:00:42.465,46.0899883,11.1153683,357.86,1.74,357.28,null
SMAR,2023-04-26 17:00:42.492,46.0899883,11.1153683,357.99,1.76,357.29,null
SMAR,2023-04-26 17:00:42.525,46.0899883,11.1153683,358.13,1.78,357.31,null
SMAR,2023-04-26 17:00:42.56,46.0899883,11.1153683,358.27,1.87,357.32,null
SMAR,2023-04-26 17:00:42.591,46.0899883,11.1153683,358.38,1.94,357.36,null
SMAR,2023-04-26 17:00:42.629,46.0899883,11.1153683,358.48,1.95,357.39,null
SMAR,2023-04-26 17:00:42.669,46.0899883,11.1153683,358.6,1.95,357.43,null
STON,2023-04-26 17:00:42.669,46.090108566666665,11.11544998,-1.815799,8.889587000000006,1.404134,1
SMAR,2023-04-26 17:00:42.701,46.0899883,11.1153683,358.71,1.96,357.48,null
SMAR,2023-04-26 17:00:42.737,46.0899883,11.1153683,358.82,1.99,357.52,null
SMAR,2023-04-26 17:00:42.762,46.0899883,11.1153683,358.94,2.03,357.57,null
SMAR,2023-04-26 17:00:42.793,46.0899916,11.1153773,359.06,2.05,357.61,null
SMAR,2023-04-26 17:00:42.83,46.0899916,11.1153773,359.17,2.07,357.62,null
SMAR,2023-04-26 17:00:42.859,46.0899916,11.1153773,359.28,2.08,357.66,null
SMAR,2023-04-26 17:00:42.896,46.0899916,11.1153773,359.38,2.14,357.7,null
SMAR,2023-04-26 17:00:42.931,46.0899916,11.1153773,359.46,2.17,357.73,null
SMAR,2023-04-26 17:00:42.961,46.0899916,11.1153773,359.51,2.28,357.75,null
SMAR,2023-04-26 17:00:42.998,46.0899916,11.1153773,359.57,2.45,357.76,null
SMAR,2023-04-26 17:00:43.036,46.0899916,11.1153773,359.61,2.57,357.75,null
SMAR,2023-04-26 17:00:43.066,46.0899916,11.1153773,359.64,2.65,357.73,null
SMAR,2023-04-26 17:00:43.103,46.0899916,11.1153773,359.67,2.73,357.7,null
SMAR,2023-04-26 17:00:43.135,46.0899916,11.1153773,359.68,2.83,357.67,null
SMAR,2023-04-26 17:00:43.165,46.0899916,11.1153773,359.68,3.0,357.63,null
SMAR,2023-04-26 17:00:43.199,46.0899916,11.1153773,359.64,3.27,357.59,null
SMAR,2023-04-26 17:00:43.234,46.0899916,11.1153773,359.59,3.62,357.55,null
SMAR,2023-04-26 17:00:43.268,46.0899916,11.1153773,359.53,4.03,357.52,null
SMAR,2023-04-26 17:00:43.298,46.0899916,11.1153773,359.45,4.43,357.5,null
SMAR,2023-04-26 17:00:43.332,46.0899916,11.1153773,359.39,4.66,357.49,null
SMAR,2023-04-26 17:00:43.371,46.0899916,11.1153773,359.31,4.71,357.47,null
SMAR,2023-04-26 17:00:43.4,46.0899916,11.1153773,359.25,4.68,357.46,null
SMAR,2023-04-26 17:00:43.431,46.0899916,11.1153773,359.2,4.7,357.47,null
SMAR,2023-04-26 17:00:43.465,46.0899916,11.1153773,359.15,4.72,357.48,null
STON,2023-04-26 17:00:43.465,46.090108566666665,11.11544998,-0.484729,9.409392999999994,0.863065,1
SMAR,2023-04-26 17:00:43.504,46.0899916,11.1153773,359.09,4.69,357.47,null
STON,2023-04-26 17:00:43.504,46.090108566666665,11.11544998,-0.251985,10.134338000000014,0.969091,1
STON,2023-04-26 17:00:43.504,46.09010916,11.115449801666667,-0.251985,10.134338000000014,0.969091,1
STON,2023-04-26 17:00:43.504,46.09010916,11.115449801666667,-0.251985,10.134338000000014,0.969091,1
STON,2023-04-26 17:00:43.504,46.09010916,11.115449801666667,-0.66802,11.723282000000012,1.160418,1
SMAR,2023-04-26 17:00:43.533,46.0899916,11.1153773,359.05,4.67,357.47,null
SMAR,2023-04-26 17:00:43.564,46.0899916,11.1153773,358.99,4.67,357.47,null
SMAR,2023-04-26 17:00:43.597,46.0899916,11.1153773,358.94,4.65,357.46,null
SMAR,2023-04-26 17:00:43.638,46.0899916,11.1153773,358.89,4.61,357.45,null
SMAR,2023-04-26 17:00:43.668,46.0899916,11.1153773,358.82,4.57,357.44,null
STON,2023-04-26 17:00:43.668,46.09010916,11.115449801666667,-1.028953,11.796188,1.160798,1
SMAR,2023-04-26 17:00:43.705,46.0899916,11.1153773,358.77,4.55,357.42,null
SMAR,2023-04-26 17:00:43.733,46.0899916,11.1153773,358.71,4.57,357.41,null
SMAR,2023-04-26 17:00:43.766,46.0899916,11.1153773,358.65,4.62,357.38,null
SMAR,2023-04-26 17:00:43.799,46.089994,11.1153869,358.59,4.65,357.36,null
SMAR,2023-04-26 17:00:43.833,46.089994,11.1153869,358.55,4.64,357.36,null
SMAR,2023-04-26 17:00:43.863,46.089994,11.1153869,358.5,4.65,357.35,null
SMAR,2023-04-26 17:00:43.895,46.089994,11.1153869,358.46,4.69,357.34,null
SMAR,2023-04-26 17:00:43.936,46.089994,11.1153869,358.42,4.72,357.34,null
STON,2023-04-26 17:00:43.936,46.09010916,11.115449801666667,-1.395676,11.959395999999998,1.245499,1
SMAR,2023-04-26 17:00:43.966,46.089994,11.1153869,358.37,4.72,357.33,null
SMAR,2023-04-26 17:00:44.0,46.089994,11.1153869,358.31,4.73,357.3,null
SMAR,2023-04-26 17:00:44.032,46.089994,11.1153869,358.26,4.78,357.29,null
SMAR,2023-04-26 17:00:44.064,46.089994,11.1153869,358.2,4.77,357.28,null
STON,2023-04-26 17:00:44.064,46.09010916,11.115449801666667,-1.700484,12.296416999999991,1.317462,1
SMAR,2023-04-26 17:00:44.106,46.089994,11.1153869,358.14,4.73,357.26,null
SMAR,2023-04-26 17:00:44.13,46.089994,11.1153869,358.09,4.7,357.26,null
SMAR,2023-04-26 17:00:44.164,46.089994,11.1153869,358.03,4.67,357.25,null
SMAR,2023-04-26 17:00:44.194,46.089994,11.1153869,357.97,4.62,357.24,null
SMAR,2023-04-26 17:00:44.231,46.089994,11.1153869,357.91,4.59,357.25,null
SMAR,2023-04-26 17:00:44.267,46.089994,11.1153869,357.86,4.54,357.24,null
STON,2023-04-26 17:00:44.267,46.09010916,11.115449801666667,-2.057893,12.456099999999992,1.395976,1
STON,2023-04-26 17:00:44.267,46.09010863666666,11.11544996,-2.057893,12.456099999999992,1.395976,1
STON,2023-04-26 17:00:44.267,46.09010863666666,11.11544996,-2.057893,12.456099999999992,1.395976,1
SMAR,2023-04-26 17:00:44.302,46.089994,11.1153869,357.82,4.5,357.23,null
SMAR,2023-04-26 17:00:44.333,46.089994,11.1153869,357.8,4.56,357.23,null
SMAR,2023-04-26 17:00:44.371,46.089994,11.1153869,357.79,4.63,357.24,null
SMAR,2023-04-26 17:00:44.401,46.089994,11.1153869,357.78,4.61,357.25,null
SMAR,2023-04-26 17:00:44.441,46.089994,11.1153869,357.77,4.58,357.27,null
STON,2023-04-26 17:00:44.441,46.09010863666666,11.11544996,-2.320495,12.562545999999998,1.431843,1
SMAR,2023-04-26 17:00:44.468,46.089994,11.1153869,357.76,4.6,357.28,null
SMAR,2023-04-26 17:00:44.508,46.089994,11.1153869,357.77,4.61,357.27,null
SMAR,2023-04-26 17:00:44.534,46.089994,11.1153869,357.78,4.62,357.29,null
SMAR,2023-04-26 17:00:44.574,46.089994,11.1153869,357.79,4.62,357.29,null
SMAR,2023-04-26 17:00:44.602,46.089994,11.1153869,357.8,4.6,357.29,null
SMAR,2023-04-26 17:00:44.641,46.089994,11.1153869,357.82,4.59,357.32,null
SMAR,2023-04-26 17:00:44.672,46.089994,11.1153869,357.83,4.57,357.34,null
STON,2023-04-26 17:00:44.672,46.09010863666666,11.11544996,-2.332591,12.665145999999993,1.423205,1
SMAR,2023-04-26 17:00:44.698,46.089994,11.1153869,357.86,4.53,357.35,null
SMAR,2023-04-26 17:00:44.734,46.089994,11.1153869,357.88,4.52,357.38,null
SMAR,2023-04-26 17:00:44.763,46.089994,11.1153869,357.91,4.51,357.39,null
SMAR,2023-04-26 17:00:44.807,46.089994,11.1153869,357.95,4.48,357.39,null
SMAR,2023-04-26 17:00:44.843,46.089994,11.1153869,357.98,4.46,357.39,null
SMAR,2023-04-26 17:00:44.873,46.089994,11.1153869,358.02,4.48,357.39,null
STON,2023-04-26 17:00:44.873,46.09010863666666,11.11544996,-2.226614,12.704407000000003,1.351776,1
SMAR,2023-04-26 17:00:44.906,46.089994,11.1153869,358.07,4.43,357.38,null
SMAR,2023-04-26 17:00:44.938,46.089994,11.1153869,358.1,4.22,357.38,null
SMAR,2023-04-26 17:00:44.974,46.089994,11.1153869,358.13,3.71,357.38,null
SMAR,2023-04-26 17:00:45.007,46.089994,11.1153869,358.14,2.65,357.38,null
SMAR,2023-04-26 17:00:45.034,46.089994,11.1153869,358.14,0.81,357.41,null
SMAR,2023-04-26 17:00:45.068,46.089994,11.1153869,358.14,358.29,357.41,null
STON,2023-04-26 17:00:45.068,46.09010863666666,11.11544996,-2.08035,11.566223000000008,1.282237,1
SMAR,2023-04-26 17:00:45.102,46.089994,11.1153869,358.15,355.17,357.41,null
SMAR,2023-04-26 17:00:45.13,46.089994,11.1153869,358.16,351.49,357.4,null
SMAR,2023-04-26 17:00:45.164,46.089994,11.1153869,358.14,347.43,357.36,null
SMAR,2023-04-26 17:00:45.194,46.0899935,11.1153986,358.1,343.03,357.31,null
SMAR,2023-04-26 17:00:45.232,46.0899935,11.1153986,358.07,338.24,357.27,null
SMAR,2023-04-26 17:00:45.266,46.0899935,11.1153986,358.03,333.14,357.24,null
STON,2023-04-26 17:00:45.266,46.09010863666666,11.11544996,-2.185673,353.363297,1.00132,1
STON,2023-04-26 17:00:45.266,46.090108705,11.115449781666667,-2.185673,353.363297,1.00132,1
STON,2023-04-26 17:00:45.266,46.090108705,11.115449781666667,-2.185673,353.363297,1.00132,1
SMAR,2023-04-26 17:00:45.3,46.0899935,11.1153986,357.99,327.82,357.18,null
SMAR,2023-04-26 17:00:45.333,46.0899935,11.1153986,357.91,322.42,357.14,null
SMAR,2023-04-26 17:00:45.369,46.0899935,11.1153986,357.83,317.17,357.11,null
SMAR,2023-04-26 17:00:45.402,46.0899935,11.1153986,357.78,312.11,357.02,null
SMAR,2023-04-26 17:00:45.434,46.0899935,11.1153986,357.75,307.28,356.95,null
SMAR,2023-04-26 17:00:45.469,46.0899935,11.1153986,357.71,302.57,356.86,null
SMAR,2023-04-26 17:00:45.501,46.0899935,11.1153986,357.7,298.21,356.81,null
SMAR,2023-04-26 17:00:45.534,46.0899935,11.1153986,357.61,294.08,356.77,null
STON,2023-04-26 17:00:45.534,46.090108705,11.115449781666667,-2.183828,322.355057,1.040977,1
SMAR,2023-04-26 17:00:45.573,46.0899935,11.1153986,357.58,290.14,356.7,null
SMAR,2023-04-26 17:00:45.601,46.0899935,11.1153986,357.58,286.36,356.73,null
SMAR,2023-04-26 17:00:45.638,46.0899935,11.1153986,357.7,282.87,356.75,null
STON,2023-04-26 17:00:45.638,46.090108705,11.115449781666667,-1.961738,296.033722,1.51948,1
SMAR,2023-04-26 17:00:45.668,46.0899935,11.1153986,357.75,279.79,356.73,null
SMAR,2023-04-26 17:00:45.7,46.0899935,11.1153986,357.82,277.22,356.74,null
SMAR,2023-04-26 17:00:45.732,46.0899935,11.1153986,357.96,275.13,356.85,null
SMAR,2023-04-26 17:00:45.773,46.0899935,11.1153986,358.06,273.5,356.87,null
SMAR,2023-04-26 17:00:45.806,46.0899935,11.1153986,358.14,272.51,356.91,null
SMAR,2023-04-26 17:00:45.838,46.0899935,11.1153986,358.29,272.32,357.18,null
STON,2023-04-26 17:00:45.838,46.090108705,11.115449781666667,-1.221589,280.835846,1.755425,1
SMAR,2023-04-26 17:00:45.87,46.0899935,11.1153986,358.33,272.79,357.21,null
SMAR,2023-04-26 17:00:45.912,46.0899935,11.1153986,358.34,273.71,357.26,null
SMAR,2023-04-26 17:00:45.941,46.0899935,11.1153986,358.78,275.0,357.65,null
SMAR,2023-04-26 17:00:45.976,46.0899935,11.1153986,358.72,276.36,357.72,null
SMAR,2023-04-26 17:00:46.008,46.0899935,11.1153986,358.66,277.45,357.78,null
SMAR,2023-04-26 17:00:46.037,46.0899935,11.1153986,358.88,278.17,357.96,null
STON,2023-04-26 17:00:46.037,46.090108705,11.115449781666667,-0.864942,284.657356,1.580169,1
SMAR,2023-04-26 17:00:46.069,46.0899935,11.1153986,358.85,278.44,358.02,null
SMAR,2023-04-26 17:00:46.108,46.0899935,11.1153986,358.83,278.43,358.08,null
SMAR,2023-04-26 17:00:46.139,46.0899935,11.1153986,358.82,278.33,358.15,null
SMAR,2023-04-26 17:00:46.168,46.0899935,11.1153986,358.83,278.25,358.2,null
SMAR,2023-04-26 17:00:46.204,46.0899944,11.1153994,358.83,278.25,358.23,null
SMAR,2023-04-26 17:00:46.236,46.0899944,11.1153994,358.81,278.39,358.27,null
SMAR,2023-04-26 17:00:46.27,46.0899944,11.1153994,358.8,278.64,358.29,null
STON,2023-04-26 17:00:46.27,46.090108705,11.115449781666667,-1.096216,285.74192800000003,1.168818,1
STON,2023-04-26 17:00:46.27,46.09010948833333,11.115449541666667,-1.096216,285.74192800000003,1.168818,1
STON,2023-04-26 17:00:46.27,46.09010948833333,11.115449541666667,-1.096216,285.74192800000003,1.168818,1
SMAR,2023-04-26 17:00:46.308,46.0899944,11.1153994,358.78,279.02,358.32,null
SMAR,2023-04-26 17:00:46.34,46.0899944,11.1153994,358.72,279.44,358.35,null
SMAR,2023-04-26 17:00:46.37,46.0899944,11.1153994,358.68,279.83,358.37,null
SMAR,2023-04-26 17:00:46.409,46.0899944,11.1153994,358.64,280.14,358.4,null
SMAR,2023-04-26 17:00:46.437,46.0899944,11.1153994,358.58,280.32,358.44,null
SMAR,2023-04-26 17:00:46.468,46.0899944,11.1153994,358.53,280.38,358.49,null
SMAR,2023-04-26 17:00:46.502,46.0899944,11.1153994,358.5,280.37,358.53,null
STON,2023-04-26 17:00:46.502,46.09010948833333,11.115449541666667,-1.082167,287.281296,1.059286,1
SMAR,2023-04-26 17:00:46.539,46.0899944,11.1153994,358.47,280.42,358.56,null
SMAR,2023-04-26 17:00:46.569,46.0899944,11.1153994,358.46,280.51,358.58,null
SMAR,2023-04-26 17:00:46.605,46.0899944,11.1153994,358.45,280.59,358.61,null
SMAR,2023-04-26 17:00:46.635,46.0899944,11.1153994,358.46,280.66,358.61,null
SMAR,2023-04-26 17:00:46.67,46.0899944,11.1153994,358.47,280.75,358.62,null
STON,2023-04-26 17:00:46.67,46.09010948833333,11.115449541666667,-1.298629,287.614151,0.844574,1
SMAR,2023-04-26 17:00:46.703,46.0899944,11.1153994,358.48,280.84,358.63,null
SMAR,2023-04-26 17:00:46.738,46.0899944,11.1153994,358.48,280.9,358.63,null
SMAR,2023-04-26 17:00:46.776,46.0899944,11.1153994,358.5,280.98,358.63,null
SMAR,2023-04-26 17:00:46.809,46.0899944,11.1153994,358.51,281.05,358.63,null
SMAR,2023-04-26 17:00:46.839,46.0899944,11.1153994,358.51,281.09,358.62,null
STON,2023-04-26 17:00:46.839,46.09010948833333,11.115449541666667,-1.220315,287.846222,0.765508,1
SMAR,2023-04-26 17:00:46.87,46.0899944,11.1153994,358.53,281.12,358.62,null
SMAR,2023-04-26 17:00:46.911,46.0899944,11.1153994,358.55,281.13,358.61,null
SMAR,2023-04-26 17:00:46.945,46.0899944,11.1153994,358.55,281.14,358.59,null
SMAR,2023-04-26 17:00:46.979,46.0899944,11.1153994,358.57,281.15,358.58,null
SMAR,2023-04-26 17:00:47.013,46.0899944,11.1153994,358.59,281.14,358.56,null
SMAR,2023-04-26 17:00:47.039,46.0899944,11.1153994,358.62,281.15,358.53,null
SMAR,2023-04-26 17:00:47.072,46.0899944,11.1153994,358.64,281.2,358.5,null
STON,2023-04-26 17:00:47.072,46.09010948833333,11.115449541666667,-1.111055,287.816277,0.779331,1
SMAR,2023-04-26 17:00:47.11,46.0899944,11.1153994,358.68,281.27,358.47,null
SMAR,2023-04-26 17:00:47.141,46.0899944,11.1153994,358.71,281.36,358.42,null
SMAR,2023-04-26 17:00:47.187,46.0899944,11.1153994,358.74,281.45,358.38,null
SMAR,2023-04-26 17:00:47.205,46.089997,11.1153922,358.77,281.56,358.33,null
SMAR,2023-04-26 17:00:47.239,46.089997,11.1153922,358.78,281.64,358.29,null
SMAR,2023-04-26 17:00:47.275,46.089997,11.1153922,358.78,281.7,358.26,null
STON,2023-04-26 17:00:47.275,46.09010948833333,11.115449541666667,-0.898431,287.936539,0.959575,1
SMAR,2023-04-26 17:00:47.317,46.089997,11.1153922,358.79,281.75,358.22,null
SMAR,2023-04-26 17:00:47.349,46.089997,11.1153922,358.79,281.74,358.2,null
SMAR,2023-04-26 17:00:47.386,46.089997,11.1153922,358.8,281.69,358.18,null
SMAR,2023-04-26 17:00:47.416,46.089997,11.1153922,358.81,281.68,358.15,null
STON,2023-04-26 17:00:47.416,46.090109295,11.115449583333334,-0.898431,287.936539,0.959575,1
STON,2023-04-26 17:00:47.416,46.090109295,11.115449583333334,-0.898431,287.936539,0.959575,1
SMAR,2023-04-26 17:00:47.443,46.089997,11.1153922,358.82,281.71,358.13,null
STON,2023-04-26 17:00:47.443,46.090109295,11.115449583333334,-0.80215,287.95214799999997,1.18791,1
SMAR,2023-04-26 17:00:47.474,46.089997,11.1153922,358.82,281.75,358.12,null
SMAR,2023-04-26 17:00:47.514,46.089997,11.1153922,358.82,281.75,358.12,null
SMAR,2023-04-26 17:00:47.538,46.089997,11.1153922,358.83,281.69,358.13,null
SMAR,2023-04-26 17:00:47.581,46.089997,11.1153922,358.85,281.64,358.13,null
SMAR,2023-04-26 17:00:47.614,46.089997,11.1153922,358.86,281.63,358.13,null
SMAR,2023-04-26 17:00:47.642,46.089997,11.1153922,358.87,281.65,358.14,null
SMAR,2023-04-26 17:00:47.673,46.089997,11.1153922,358.87,281.63,358.16,null
SMAR,2023-04-26 17:00:47.709,46.089997,11.1153922,358.88,281.58,358.17,null
SMAR,2023-04-26 17:00:47.744,46.089997,11.1153922,358.89,281.54,358.18,null
SMAR,2023-04-26 17:00:47.779,46.089997,11.1153922,358.9,281.54,358.19,null
SMAR,2023-04-26 17:00:47.809,46.089997,11.1153922,358.9,281.52,358.2,null
SMAR,2023-04-26 17:00:47.841,46.089997,11.1153922,358.91,281.49,358.2,null
SMAR,2023-04-26 17:00:47.874,46.089997,11.1153922,358.92,281.49,358.2,null
SMAR,2023-04-26 17:00:47.904,46.089997,11.1153922,358.92,281.49,358.21,null
SMAR,2023-04-26 17:00:47.941,46.089997,11.1153922,358.92,281.48,358.23,null
STON,2023-04-26 17:00:47.941,46.090109295,11.115449583333334,-0.716813,287.759972,1.26757,1
STON,2023-04-26 17:00:47.941,46.090109295,11.115449583333334,-0.650639,287.557266,1.205006,1
SMAR,2023-04-26 17:00:47.975,46.089997,11.1153922,358.93,281.5,358.24,null
SMAR,2023-04-26 17:00:48.013,46.089997,11.1153922,358.92,281.51,358.26,null
SMAR,2023-04-26 17:00:48.047,46.089997,11.1153922,358.92,281.51,358.28,null
STON,2023-04-26 17:00:48.047,46.090109295,11.115449583333334,-0.586649,287.397217,1.166478,1
SMAR,2023-04-26 17:00:48.072,46.089997,11.1153922,358.91,281.53,358.29,null
SMAR,2023-04-26 17:00:48.112,46.089997,11.1153922,358.91,281.58,358.31,null
SMAR,2023-04-26 17:00:48.142,46.089997,11.1153922,358.9,281.6,358.34,null
SMAR,2023-04-26 17:00:48.179,46.089997,11.1153922,358.89,281.57,358.37,null
SMAR,2023-04-26 17:00:48.213,46.0899979,11.1153896,358.89,281.49,358.39,null
SMAR,2023-04-26 17:00:48.249,46.0899979,11.1153896,358.89,281.42,358.42,null
SMAR,2023-04-26 17:00:48.283,46.0899979,11.1153896,358.89,281.41,358.44,null
SMAR,2023-04-26 17:00:48.313,46.0899979,11.1153896,358.89,281.41,358.45,null
SMAR,2023-04-26 17:00:48.348,46.0899979,11.1153896,358.88,281.41,358.46,null
SMAR,2023-04-26 17:00:48.38,46.0899979,11.1153896,358.87,281.42,358.47,null
STON,2023-04-26 17:00:48.38,46.090109295,11.115449583333334,-0.607466,287.335014,1.046552,1
SMAR,2023-04-26 17:00:48.42,46.0899979,11.1153896,358.86,281.42,358.49,null
SMAR,2023-04-26 17:00:48.449,46.0899979,11.1153896,358.85,281.4,358.5,null
SMAR,2023-04-26 17:00:48.48,46.0899979,11.1153896,358.85,281.35,358.5,null
STON,2023-04-26 17:00:48.48,46.090109293333335,11.115449523333334,-0.607466,287.335014,1.046552,1
STON,2023-04-26 17:00:48.48,46.090109293333335,11.115449523333334,-0.607466,287.335014,1.046552,1
SMAR,2023-04-26 17:00:48.516,46.0899979,11.1153896,358.84,281.3,358.5,null
SMAR,2023-04-26 17:00:48.548,46.0899979,11.1153896,358.84,281.28,358.49,null
SMAR,2023-04-26 17:00:48.582,46.0899979,11.1153896,358.84,281.3,358.48,null
SMAR,2023-04-26 17:00:48.609,46.0899979,11.1153896,358.85,281.36,358.46,null
SMAR,2023-04-26 17:00:48.645,46.0899979,11.1153896,358.86,281.47,358.43,null
SMAR,2023-04-26 17:00:48.674,46.0899979,11.1153896,358.87,281.6,358.4,null
SMAR,2023-04-26 17:00:48.716,46.0899979,11.1153896,358.89,281.65,358.36,null
SMAR,2023-04-26 17:00:48.751,46.0899979,11.1153896,358.92,281.6,358.32,null
SMAR,2023-04-26 17:00:48.782,46.0899979,11.1153896,358.96,281.49,358.28,null
STON,2023-04-26 17:00:48.782,46.090109293333335,11.115449523333334,-0.602865,287.02504,0.939286,1
SMAR,2023-04-26 17:00:48.816,46.0899979,11.1153896,358.99,281.37,358.24,null
SMAR,2023-04-26 17:00:48.85,46.0899979,11.1153896,359.02,281.29,358.21,null
SMAR,2023-04-26 17:00:48.884,46.0899979,11.1153896,359.06,281.25,358.17,null
SMAR,2023-04-26 17:00:48.913,46.0899979,11.1153896,359.1,281.21,358.14,null
SMAR,2023-04-26 17:00:48.951,46.0899979,11.1153896,359.15,281.03,358.12,null
STON,2023-04-26 17:00:48.951,46.090109293333335,11.115449523333334,-0.613114,286.787506,0.901766,1
STON,2023-04-26 17:00:48.951,46.090109293333335,11.115449523333334,-0.512608,286.903473,1.093716,1
SMAR,2023-04-26 17:00:48.982,46.0899979,11.1153896,359.22,280.73,358.09,null
SMAR,2023-04-26 17:00:49.011,46.0899979,11.1153896,359.26,280.35,358.09,null
SMAR,2023-04-26 17:00:49.049,46.0899979,11.1153896,359.29,280.01,358.09,null
SMAR,2023-04-26 17:00:49.089,46.0899979,11.1153896,359.31,279.87,358.08,null
SMAR,2023-04-26 17:00:49.115,46.0899979,11.1153896,359.33,279.95,358.06,null
STON,2023-04-26 17:00:49.115,46.090109293333335,11.115449523333334,-0.254829,286.07132,1.323318,1
SMAR,2023-04-26 17:00:49.145,46.0899979,11.1153896,359.33,280.13,358.04,null
SMAR,2023-04-26 17:00:49.177,46.0899979,11.1153896,359.31,280.33,358.02,null
SMAR,2023-04-26 17:00:49.211,46.0900009,11.1153741,359.3,280.53,358.0,null
SMAR,2023-04-26 17:00:49.247,46.0900009,11.1153741,359.28,280.69,357.99,null
STON,2023-04-26 17:00:49.247,46.090109293333335,11.115449523333334,-0.05123,285.807098,1.411279,1
SMAR,2023-04-26 17:00:49.285,46.0900009,11.1153741,359.25,280.82,357.97,null
SMAR,2023-04-26 17:00:49.317,46.0900009,11.1153741,359.23,280.93,357.94,null
SMAR,2023-04-26 17:00:49.346,46.0900009,11.1153741,359.2,280.96,357.91,null
STON,2023-04-26 17:00:49.346,46.09010944,11.115449465,-0.05123,285.807098,1.411279,1
STON,2023-04-26 17:00:49.346,46.09010944,11.115449465,-0.05123,285.807098,1.411279,1
SMAR,2023-04-26 17:00:49.378,46.0900009,11.1153741,359.17,280.95,357.9,null
SMAR,2023-04-26 17:00:49.414,46.0900009,11.1153741,359.13,280.85,357.89,null
SMAR,2023-04-26 17:00:49.449,46.0900009,11.1153741,359.08,280.69,357.89,null
SMAR,2023-04-26 17:00:49.48,46.0900009,11.1153741,359.03,280.52,357.91,null
STON,2023-04-26 17:00:49.48,46.09010944,11.115449465,-0.173566,286.254105,1.566731,1
SMAR,2023-04-26 17:00:49.516,46.0900009,11.1153741,358.98,280.4,357.93,null
SMAR,2023-04-26 17:00:49.554,46.0900009,11.1153741,358.95,280.35,357.95,null
SMAR,2023-04-26 17:00:49.588,46.0900009,11.1153741,358.92,280.35,357.98,null
SMAR,2023-04-26 17:00:49.619,46.0900009,11.1153741,358.9,280.31,358.02,null
SMAR,2023-04-26 17:00:49.647,46.0900009,11.1153741,358.9,280.25,358.06,null
SMAR,2023-04-26 17:00:49.687,46.0900009,11.1153741,358.91,280.09,358.11,null
SMAR,2023-04-26 17:00:49.715,46.0900009,11.1153741,358.91,279.89,358.14,null
STON,2023-04-26 17:00:49.715,46.09010944,11.115449465,-0.428964,285.604942,1.538938,1
SMAR,2023-04-26 17:00:49.751,46.0900009,11.1153741,358.93,279.96,358.16,null
SMAR,2023-04-26 17:00:49.79,46.0900009,11.1153741,358.96,280.37,358.17,null
SMAR,2023-04-26 17:00:49.823,46.0900009,11.1153741,359.01,281.06,358.16,null
SMAR,2023-04-26 17:00:49.852,46.0900009,11.1153741,359.08,281.8,358.17,null
SMAR,2023-04-26 17:00:49.886,46.0900009,11.1153741,359.15,282.26,358.2,null
STON,2023-04-26 17:00:49.886,46.09010944,11.115449465,-0.394175,285.67643,1.343847,1
SMAR,2023-04-26 17:00:49.913,46.0900009,11.1153741,359.22,282.3,358.27,null
SMAR,2023-04-26 17:00:49.946,46.0900009,11.1153741,359.26,282.09,358.36,null
SMAR,2023-04-26 17:00:49.986,46.0900009,11.1153741,359.3,281.75,358.47,null
SMAR,2023-04-26 17:00:50.021,46.0900009,11.1153741,359.33,281.25,358.58,null
SMAR,2023-04-26 17:00:50.054,46.0900009,11.1153741,359.35,280.69,358.67,null
SMAR,2023-04-26 17:00:50.089,46.0900009,11.1153741,359.37,280.22,358.76,null
SMAR,2023-04-26 17:00:50.115,46.0900009,11.1153741,359.4,279.8,358.85,null
STON,2023-04-26 17:00:50.115,46.09010944,11.115449465,-0.067001,286.769592,1.12066,1
SMAR,2023-04-26 17:00:50.147,46.0900009,11.1153741,359.42,279.36,358.93,null
SMAR,2023-04-26 17:00:50.184,46.0900009,11.1153741,359.44,278.89,359.0,null
SMAR,2023-04-26 17:00:50.222,46.0900009,11.1153741,359.45,278.46,359.08,null
SMAR,2023-04-26 17:00:50.253,46.0900004,11.1153645,359.47,278.12,359.15,null
SMAR,2023-04-26 17:00:50.286,46.0900004,11.1153645,359.47,277.8,359.22,null
STON,2023-04-26 17:00:50.286,46.09010944,11.115449465,0.080591,283.845932,0.558041,1
STON,2023-04-26 17:00:50.286,46.090109255,11.115449506666666,0.080591,283.845932,0.558041,1
STON,2023-04-26 17:00:50.286,46.090109255,11.115449506666666,0.080591,283.845932,0.558041,1
SMAR,2023-04-26 17:00:50.315,46.0900004,11.1153645,359.45,277.56,359.28,null
SMAR,2023-04-26 17:00:50.353,46.0900004,11.1153645,359.43,277.48,359.32,null
SMAR,2023-04-26 17:00:50.385,46.0900004,11.1153645,359.4,277.52,359.34,null
SMAR,2023-04-26 17:00:50.427,46.0900004,11.1153645,359.35,277.63,359.37,null
SMAR,2023-04-26 17:00:50.454,46.0900004,11.1153645,359.31,277.69,359.39,null
SMAR,2023-04-26 17:00:50.487,46.0900004,11.1153645,359.28,277.73,359.4,null
STON,2023-04-26 17:00:50.487,46.090109255,11.115449506666666,0.134201,282.431465,0.168804,1
SMAR,2023-04-26 17:00:50.515,46.0900004,11.1153645,359.26,277.79,359.43,null
SMAR,2023-04-26 17:00:50.548,46.0900004,11.1153645,359.23,277.85,359.45,null
SMAR,2023-04-26 17:00:50.589,46.0900004,11.1153645,359.18,277.95,359.46,null
SMAR,2023-04-26 17:00:50.621,46.0900004,11.1153645,359.12,278.1,359.48,null
SMAR,2023-04-26 17:00:50.654,46.0900004,11.1153645,359.07,278.22,359.51,null
SMAR,2023-04-26 17:00:50.681,46.0900004,11.1153645,359.01,278.4,359.53,null
STON,2023-04-26 17:00:50.681,46.090109255,11.115449506666666,-0.042442,282.775742,0.063156,1
SMAR,2023-04-26 17:00:50.722,46.0900004,11.1153645,358.96,278.72,359.56,null
SMAR,2023-04-26 17:00:50.755,46.0900004,11.1153645,358.92,279.16,359.57,null
SMAR,2023-04-26 17:00:50.788,46.0900004,11.1153645,358.88,279.6,359.57,null
SMAR,2023-04-26 17:00:50.828,46.0900004,11.1153645,358.84,279.97,359.57,null
SMAR,2023-04-26 17:00:50.858,46.0900004,11.1153645,358.81,280.25,359.56,null
STON,2023-04-26 17:00:50.858,46.090109255,11.115449506666666,-0.343193,284.356369,-0.070833,1
SMAR,2023-04-26 17:00:50.893,46.0900004,11.1153645,358.8,280.42,359.55,null
SMAR,2023-04-26 17:00:50.927,46.0900004,11.1153645,358.81,280.37,359.55,null
SMAR,2023-04-26 17:00:50.962,46.0900004,11.1153645,358.83,280.04,359.54,null
SMAR,2023-04-26 17:00:50.993,46.0900004,11.1153645,358.84,279.52,359.54,null
SMAR,2023-04-26 17:00:51.035,46.0900004,11.1153645,358.87,278.9,359.54,null
SMAR,2023-04-26 17:00:51.062,46.0900004,11.1153645,358.88,278.26,359.54,null
SMAR,2023-04-26 17:00:51.092,46.0900004,11.1153645,358.9,277.77,359.53,null
STON,2023-04-26 17:00:51.092,46.090109255,11.115449506666666,-0.467787,284.131325,-0.063313,1
SMAR,2023-04-26 17:00:51.127,46.0900004,11.1153645,358.92,277.43,359.52,null
SMAR,2023-04-26 17:00:51.161,46.0900004,11.1153645,358.94,277.23,359.5,null
SMAR,2023-04-26 17:00:51.19,46.0900004,11.1153645,358.95,277.16,359.47,null
SMAR,2023-04-26 17:00:51.223,46.0900004,11.1153645,358.94,277.21,359.43,null
SMAR,2023-04-26 17:00:51.252,46.0899987,11.1153593,358.92,277.28,359.38,null
SMAR,2023-04-26 17:00:51.288,46.0899987,11.1153593,358.9,277.32,359.32,null
STON,2023-04-26 17:00:51.288,46.090109255,11.115449506666666,-0.315764,281.751076,-0.010474,1
SMAR,2023-04-26 17:00:51.318,46.0899987,11.1153593,358.89,277.25,359.26,null
STON,2023-04-26 17:00:51.318,46.09010903,11.115449473333333,-0.315764,281.751076,-0.010474,1
STON,2023-04-26 17:00:51.318,46.09010903,11.115449473333333,-0.315764,281.751076,-0.010474,1
SMAR,2023-04-26 17:00:51.346,46.0899987,11.1153593,358.89,276.93,359.2,null
SMAR,2023-04-26 17:00:51.39,46.0899987,11.1153593,358.9,276.2,359.14,null
SMAR,2023-04-26 17:00:51.427,46.0899987,11.1153593,358.9,274.95,359.08,null
SMAR,2023-04-26 17:00:51.459,46.0899987,11.1153593,358.9,273.18,359.05,null
SMAR,2023-04-26 17:00:51.487,46.0899987,11.1153593,358.9,270.81,359.0,null
STON,2023-04-26 17:00:51.487,46.09010903,11.115449473333333,-0.422882,280.685959,0.283731,1
SMAR,2023-04-26 17:00:51.516,46.0899987,11.1153593,358.9,267.88,358.96,null
SMAR,2023-04-26 17:00:51.55,46.0899987,11.1153593,358.94,264.66,358.93,null
SMAR,2023-04-26 17:00:51.589,46.0899987,11.1153593,358.95,261.41,358.86,null
SMAR,2023-04-26 17:00:51.629,46.0899987,11.1153593,358.93,258.14,358.73,null
SMAR,2023-04-26 17:00:51.656,46.0899987,11.1153593,358.88,254.82,358.64,null
SMAR,2023-04-26 17:00:51.687,46.0899987,11.1153593,358.81,251.4,358.55,null
SMAR,2023-04-26 17:00:51.724,46.0899987,11.1153593,358.74,247.8,358.41,null
STON,2023-04-26 17:00:51.724,46.09010903,11.115449473333333,-0.582861,265.99433899999997,0.522121,1
SMAR,2023-04-26 17:00:51.747,46.0899987,11.1153593,358.66,243.98,358.28,null
SMAR,2023-04-26 17:00:51.785,46.0899987,11.1153593,358.61,239.58,358.15,null
SMAR,2023-04-26 17:00:51.822,46.0899987,11.1153593,358.59,234.72,358.04,null
SMAR,2023-04-26 17:00:51.851,46.0899987,11.1153593,358.52,229.41,357.92,null
SMAR,2023-04-26 17:00:51.881,46.0899987,11.1153593,358.51,224.05,357.85,null
SMAR,2023-04-26 17:00:51.92,46.0899987,11.1153593,358.49,218.8,357.73,null
STON,2023-04-26 17:00:51.92,46.09010903,11.115449473333333,-1.246716,244.614693,1.172061,1
SMAR,2023-04-26 17:00:51.947,46.0899987,11.1153593,358.57,213.87,357.63,null
SMAR,2023-04-26 17:00:51.988,46.0899987,11.1153593,358.64,209.1,357.53,null
SMAR,2023-04-26 17:00:52.028,46.0899987,11.1153593,358.72,204.54,357.43,null
SMAR,2023-04-26 17:00:52.061,46.0899987,11.1153593,358.8,200.24,357.32,null
SMAR,2023-04-26 17:00:52.089,46.0899987,11.1153593,358.83,196.06,357.21,null
STON,2023-04-26 17:00:52.089,46.09010903,11.115449473333333,-1.589344,215.178585,1.724578,1
SMAR,2023-04-26 17:00:52.129,46.0899987,11.1153593,358.92,192.23,357.1,null
SMAR,2023-04-26 17:00:52.16,46.0899987,11.1153593,359.03,188.85,356.97,null
SMAR,2023-04-26 17:00:52.194,46.0899987,11.1153593,359.16,185.9,356.86,null
SMAR,2023-04-26 17:00:52.225,46.0899987,11.1153593,359.28,183.36,356.79,null
SMAR,2023-04-26 17:00:52.251,46.0899983,11.1153544,359.43,181.21,356.68,null
SMAR,2023-04-26 17:00:52.29,46.0899983,11.1153544,359.54,179.57,356.64,null
STON,2023-04-26 17:00:52.29,46.09010903,11.115449473333333,-1.000668,193.564046,2.364821,1
SMAR,2023-04-26 17:00:52.326,46.0899983,11.1153544,359.63,178.41,356.63,null
SMAR,2023-04-26 17:00:52.36,46.0899983,11.1153544,359.73,177.82,356.6,null
SMAR,2023-04-26 17:00:52.392,46.0899983,11.1153544,359.82,177.64,356.64,null
SMAR,2023-04-26 17:00:52.43,46.0899983,11.1153544,359.87,177.67,356.7,null
STON,2023-04-26 17:00:52.43,46.090109698333336,11.115450348333333,-1.000668,193.564046,2.364821,1
STON,2023-04-26 17:00:52.43,46.090109698333336,11.115450348333333,-1.000668,193.564046,2.364821,1
SMAR,2023-04-26 17:00:52.458,46.0899983,11.1153544,359.92,177.86,356.77,null
SMAR,2023-04-26 17:00:52.498,46.0899983,11.1153544,359.93,178.31,356.87,null
STON,2023-04-26 17:00:52.498,46.090109698333336,11.115450348333333,-0.036247,186.761851,2.725605,1
SMAR,2023-04-26 17:00:52.531,46.0899983,11.1153544,359.93,179.12,356.99,null
SMAR,2023-04-26 17:00:52.566,46.0899983,11.1153544,359.91,180.1,357.09,null
SMAR,2023-04-26 17:00:52.598,46.0899983,11.1153544,359.87,181.14,357.21,null
SMAR,2023-04-26 17:00:52.633,46.0899983,11.1153544,359.83,182.08,357.33,null
STON,2023-04-26 17:00:52.633,46.090109698333336,11.115450348333333,0.253252,191.33944,2.235673,1
SMAR,2023-04-26 17:00:52.665,46.0899983,11.1153544,359.79,182.87,357.43,null
SMAR,2023-04-26 17:00:52.698,46.0899983,11.1153544,359.75,183.58,357.54,null
SMAR,2023-04-26 17:00:52.73,46.0899983,11.1153544,359.71,184.27,357.65,null
SMAR,2023-04-26 17:00:52.765,46.0899983,11.1153544,359.67,184.99,357.77,null
SMAR,2023-04-26 17:00:52.796,46.0899983,11.1153544,359.6,185.66,357.91,null
SMAR,2023-04-26 17:00:52.83,46.0899983,11.1153544,359.54,186.27,358.04,null
SMAR,2023-04-26 17:00:52.862,46.0899983,11.1153544,359.45,186.82,358.16,null
SMAR,2023-04-26 17:00:52.896,46.0899983,11.1153544,359.33,187.24,358.3,null
STON,2023-04-26 17:00:52.896,46.090109698333336,11.115450348333333,0.026328,196.858042,1.588092,1
SMAR,2023-04-26 17:00:52.928,46.0899983,11.1153544,359.18,187.54,358.44,null
SMAR,2023-04-26 17:00:52.963,46.0899983,11.1153544,359.03,187.77,358.56,null
SMAR,2023-04-26 17:00:52.994,46.0899983,11.1153544,358.87,187.89,358.69,null
SMAR,2023-04-26 17:00:53.03,46.0899983,11.1153544,358.73,187.86,358.8,null
SMAR,2023-04-26 17:00:53.062,46.0899983,11.1153544,358.58,187.8,358.93,null
STON,2023-04-26 17:00:53.062,46.090109698333336,11.115450348333333,-0.628421,200.071604,0.777902,1
SMAR,2023-04-26 17:00:53.099,46.0899983,11.1153544,358.45,187.88,359.02,null
SMAR,2023-04-26 17:00:53.13,46.0899983,11.1153544,358.34,188.16,359.1,null
SMAR,2023-04-26 17:00:53.162,46.0899983,11.1153544,358.26,188.53,359.13,null
SMAR,2023-04-26 17:00:53.195,46.0899994,11.1153528,358.18,188.85,359.16,null
SMAR,2023-04-26 17:00:53.229,46.0899994,11.1153528,358.13,189.12,359.19,null
SMAR,2023-04-26 17:00:53.26,46.0899994,11.1153528,358.08,189.3,359.19,null
SMAR,2023-04-26 17:00:53.294,46.0899994,11.1153528,358.06,189.45,359.2,null
STON,2023-04-26 17:00:53.294,46.090109698333336,11.115450348333333,-1.390019,201.915379,0.22211,1
SMAR,2023-04-26 17:00:53.326,46.0899994,11.1153528,358.05,189.56,359.21,null
STON,2023-04-26 17:00:53.326,46.090109518333335,11.11544944,-1.390019,201.915379,0.22211,1
STON,2023-04-26 17:00:53.326,46.090109518333335,11.11544944,-1.390019,201.915379,0.22211,1
SMAR,2023-04-26 17:00:53.359,46.0899994,11.1153528,358.06,189.64,359.23,null
SMAR,2023-04-26 17:00:53.394,46.0899994,11.1153528,358.08,189.71,359.26,null
SMAR,2023-04-26 17:00:53.428,46.0899994,11.1153528,358.1,189.76,359.29,null
SMAR,2023-04-26 17:00:53.461,46.0899994,11.1153528,358.13,189.79,359.35,null
STON,2023-04-26 17:00:53.461,46.090109518333335,11.11544944,-1.564155,203.623226,0.140479,1
SMAR,2023-04-26 17:00:53.495,46.0899994,11.1153528,358.18,189.82,359.4,null
SMAR,2023-04-26 17:00:53.525,46.0899994,11.1153528,358.22,189.79,359.45,null
SMAR,2023-04-26 17:00:53.559,46.0899994,11.1153528,358.27,189.75,359.51,null
SMAR,2023-04-26 17:00:53.594,46.0899994,11.1153528,358.31,189.72,359.56,null
SMAR,2023-04-26 17:00:53.624,46.0899994,11.1153528,358.34,189.66,359.61,null
SMAR,2023-04-26 17:00:53.659,46.0899994,11.1153528,358.35,189.52,359.65,null
SMAR,2023-04-26 17:00:53.692,46.0899994,11.1153528,358.37,189.41,359.67,null
STON,2023-04-26 17:00:53.692,46.090109518333335,11.11544944,-1.33577,204.484079,-0.09333,1
SMAR,2023-04-26 17:00:53.728,46.0899994,11.1153528,358.39,189.35,359.68,null
SMAR,2023-04-26 17:00:53.757,46.0899994,11.1153528,358.41,189.3,359.66,null
SMAR,2023-04-26 17:00:53.79,46.0899994,11.1153528,358.41,189.26,359.64,null
SMAR,2023-04-26 17:00:53.824,46.0899994,11.1153528,358.42,189.27,359.62,null
SMAR,2023-04-26 17:00:53.857,46.0899994,11.1153528,358.42,189.24,359.58,null
SMAR,2023-04-26 17:00:53.892,46.0899994,11.1153528,358.41,189.17,359.55,null
SMAR,2023-04-26 17:00:53.924,46.0899994,11.1153528,358.38,189.06,359.52,null
SMAR,2023-04-26 17:00:53.958,46.0899994,11.1153528,358.35,188.94,359.49,null
SMAR,2023-04-26 17:00:53.992,46.0899994,11.1153528,358.31,188.83,359.45,null
SMAR,2023-04-26 17:00:54.023,46.0899994,11.1153528,358.28,188.77,359.41,null
SMAR,2023-04-26 17:00:54.055,46.0899994,11.1153528,358.24,188.79,359.37,null
SMAR,2023-04-26 17:00:54.089,46.0899994,11.1153528,358.2,188.82,359.31,null
SMAR,2023-04-26 17:00:54.126,46.0899994,11.1153528,358.16,188.91,359.25,null
SMAR,2023-04-26 17:00:54.161,46.0899994,11.1153528,358.11,189.02,359.2,null
SMAR,2023-04-26 17:00:54.189,46.0899994,11.1153528,358.06,189.09,359.15,null
STON,2023-04-26 17:00:54.189,46.090109518333335,11.11544944,-1.143716,204.750494,-0.255368,1
SMAR,2023-04-26 17:00:54.22,46.0900033,11.1153543,357.99,189.1,359.11,null
SMAR,2023-04-26 17:00:54.254,46.0900033,11.1153543,357.91,189.13,359.07,null
STON,2023-04-26 17:00:54.254,46.090109518333335,11.11544944,-1.173199,205.112589,-0.076155,1
SMAR,2023-04-26 17:00:54.292,46.0900033,11.1153543,357.84,189.25,359.03,null
SMAR,2023-04-26 17:00:54.324,46.0900033,11.1153543,357.78,189.39,358.99,null
SMAR,2023-04-26 17:00:54.357,46.0900033,11.1153543,357.72,189.56,358.95,null
STON,2023-04-26 17:00:54.357,46.090109518333335,11.11544944,-1.338528,206.06949,0.253466,1
SMAR,2023-04-26 17:00:54.395,46.0900033,11.1153543,357.66,189.76,358.92,null
STON,2023-04-26 17:00:54.395,46.09010948,11.115449426666666,-1.338528,206.06949,0.253466,1
STON,2023-04-26 17:00:54.395,46.09010948,11.115449426666666,-1.338528,206.06949,0.253466,1
SMAR,2023-04-26 17:00:54.43,46.0900033,11.1153543,357.61,189.96,358.89,null
SMAR,2023-04-26 17:00:54.456,46.0900033,11.1153543,357.55,190.1,358.88,null
STON,2023-04-26 17:00:54.456,46.09010948,11.115449426666666,-1.695953,207.378798,0.540485,1
SMAR,2023-04-26 17:00:54.495,46.0900033,11.1153543,357.5,190.22,358.85,null
SMAR,2023-04-26 17:00:54.532,46.0900033,11.1153543,357.46,190.36,358.82,null
SMAR,2023-04-26 17:00:54.56,46.0900033,11.1153543,357.41,190.5,358.79,null
SMAR,2023-04-26 17:00:54.601,46.0900033,11.1153543,357.35,190.67,358.74,null
SMAR,2023-04-26 17:00:54.625,46.0900033,11.1153543,357.32,190.89,358.7,null
SMAR,2023-04-26 17:00:54.667,46.0900033,11.1153543,357.31,191.09,358.67,null
SMAR,2023-04-26 17:00:54.699,46.0900033,11.1153543,357.32,191.24,358.62,null
SMAR,2023-04-26 17:00:54.736,46.0900033,11.1153543,357.35,191.38,358.59,null
SMAR,2023-04-26 17:00:54.766,46.0900033,11.1153543,357.38,191.53,358.58,null
SMAR,2023-04-26 17:00:54.799,46.0900033,11.1153543,357.4,191.57,358.59,null
SMAR,2023-04-26 17:00:54.833,46.0900033,11.1153543,357.42,191.45,358.61,null
SMAR,2023-04-26 17:00:54.866,46.0900033,11.1153543,357.47,191.22,358.65,null
STON,2023-04-26 17:00:54.866,46.09010948,11.115449426666666,-2.027547,210.495024,1.001129,1
SMAR,2023-04-26 17:00:54.899,46.0900033,11.1153543,357.53,190.83,358.69,null
SMAR,2023-04-26 17:00:54.933,46.0900033,11.1153543,357.59,190.39,358.74,null
SMAR,2023-04-26 17:00:54.964,46.0900033,11.1153543,357.64,189.99,358.8,null
SMAR,2023-04-26 17:00:54.998,46.0900033,11.1153543,357.67,189.57,358.86,null
SMAR,2023-04-26 17:00:55.033,46.0900033,11.1153543,357.71,189.1,358.92,null
STON,2023-04-26 17:00:55.033,46.09010948,11.115449426666666,-1.789668,209.152351,0.775091,1
SMAR,2023-04-26 17:00:55.066,46.0900033,11.1153543,357.74,188.66,358.98,null
SMAR,2023-04-26 17:00:55.098,46.0900033,11.1153543,357.77,188.27,359.02,null
SMAR,2023-04-26 17:00:55.132,46.0900033,11.1153543,357.8,187.97,359.05,null
SMAR,2023-04-26 17:00:55.164,46.0900033,11.1153543,357.84,187.79,359.06,null
SMAR,2023-04-26 17:00:55.201,46.0900068,11.1153551,357.87,187.65,359.07,null
SMAR,2023-04-26 17:00:55.231,46.0900068,11.1153551,357.92,187.52,359.09,null
STON,2023-04-26 17:00:55.231,46.09010948,11.115449426666666,-1.573495,207.82814,0.541058,1
SMAR,2023-04-26 17:00:55.264,46.0900068,11.1153551,357.96,187.4,359.12,null
STON,2023-04-26 17:00:55.264,46.09010953166667,11.115449491666666,-1.573495,207.82814,0.541058,1
STON,2023-04-26 17:00:55.264,46.09010953166667,11.115449491666666,-1.573495,207.82814,0.541058,1
SMAR,2023-04-26 17:00:55.301,46.0900068,11.1153551,358.01,187.25,359.13,null
SMAR,2023-04-26 17:00:55.335,46.0900068,11.1153551,358.06,187.01,359.13,null
SMAR,2023-04-26 17:00:55.365,46.0900068,11.1153551,358.12,186.77,359.14,null
SMAR,2023-04-26 17:00:55.396,46.0900068,11.1153551,358.18,186.58,359.15,null
STON,2023-04-26 17:00:55.396,46.09010953166667,11.115449491666666,-1.261437,207.342104,0.471217,1
SMAR,2023-04-26 17:00:55.43,46.0900068,11.1153551,358.23,186.46,359.16,null
SMAR,2023-04-26 17:00:55.462,46.0900068,11.1153551,358.27,186.38,359.17,null
SMAR,2023-04-26 17:00:55.501,46.0900068,11.1153551,358.31,186.33,359.18,null
SMAR,2023-04-26 17:00:55.531,46.0900068,11.1153551,358.36,186.29,359.21,null
SMAR,2023-04-26 17:00:55.571,46.0900068,11.1153551,358.4,186.15,359.23,null
SMAR,2023-04-26 17:00:55.604,46.0900068,11.1153551,358.43,185.88,359.25,null
SMAR,2023-04-26 17:00:55.639,46.0900068,11.1153551,358.46,185.62,359.26,null
STON,2023-04-26 17:00:55.639,46.09010953166667,11.115449491666666,-0.972489,207.172352,0.406983,1
SMAR,2023-04-26 17:00:55.669,46.0900068,11.1153551,358.52,185.37,359.28,null
SMAR,2023-04-26 17:00:55.695,46.0900068,11.1153551,358.57,185.02,359.3,null
SMAR,2023-04-26 17:00:55.729,46.0900068,11.1153551,358.62,184.57,359.3,null
SMAR,2023-04-26 17:00:55.763,46.0900068,11.1153551,358.66,184.13,359.31,null
SMAR,2023-04-26 17:00:55.798,46.0900068,11.1153551,358.69,183.8,359.32,null
SMAR,2023-04-26 17:00:55.831,46.0900068,11.1153551,358.7,183.55,359.32,null
SMAR,2023-04-26 17:00:55.859,46.0900068,11.1153551,358.68,183.4,359.3,null
SMAR,2023-04-26 17:00:55.896,46.0900068,11.1153551,358.63,183.32,359.29,null
SMAR,2023-04-26 17:00:55.932,46.0900068,11.1153551,358.58,183.18,359.26,null
SMAR,2023-04-26 17:00:55.966,46.0900068,11.1153551,358.54,182.92,359.23,null
SMAR,2023-04-26 17:00:55.994,46.0900068,11.1153551,358.49,182.66,359.19,null
SMAR,2023-04-26 17:00:56.028,46.0900068,11.1153551,358.48,182.3,359.16,null
STON,2023-04-26 17:00:56.028,46.09010953166667,11.115449491666666,-0.838139,205.153341,0.468563,1
SMAR,2023-04-26 17:00:56.066,46.0900068,11.1153551,358.51,181.62,359.15,null
SMAR,2023-04-26 17:00:56.106,46.0900068,11.1153551,358.52,180.68,359.13,null
SMAR,2023-04-26 17:00:56.139,46.0900068,11.1153551,358.52,179.51,359.12,null
SMAR,2023-04-26 17:00:56.171,46.0900068,11.1153551,358.52,178.03,359.13,null
SMAR,2023-04-26 17:00:56.201,46.0900102,11.1153565,358.52,176.15,359.12,null
SMAR,2023-04-26 17:00:56.236,46.0900102,11.1153565,358.54,173.67,359.09,null
SMAR,2023-04-26 17:00:56.263,46.0900102,11.1153565,358.57,170.57,359.05,null
STON,2023-04-26 17:00:56.263,46.09010953166667,11.115449491666666,-1.056649,199.843218,0.572074,1
STON,2023-04-26 17:00:56.263,46.09010933333333,11.115449745,-1.056649,199.843218,0.572074,1
STON,2023-04-26 17:00:56.263,46.09010933333333,11.115449745,-1.056649,199.843218,0.572074,1
SMAR,2023-04-26 17:00:56.298,46.0900102,11.1153565,358.61,166.98,359.04,null
SMAR,2023-04-26 17:00:56.33,46.0900102,11.1153565,358.61,163.14,359.01,null
SMAR,2023-04-26 17:00:56.357,46.0900102,11.1153565,358.65,159.1,358.99,null
SMAR,2023-04-26 17:00:56.397,46.0900102,11.1153565,358.65,154.8,358.96,null
SMAR,2023-04-26 17:00:56.427,46.0900102,11.1153565,358.66,150.28,358.93,null
SMAR,2023-04-26 17:00:56.463,46.0900102,11.1153565,358.68,145.65,358.9,null
SMAR,2023-04-26 17:00:56.491,46.0900102,11.1153565,358.67,141.17,358.84,null
STON,2023-04-26 17:00:56.491,46.09010933333333,11.115449745,-1.302536,180.093421,0.652337,1
SMAR,2023-04-26 17:00:56.53,46.0900102,11.1153565,358.68,136.93,358.77,null
SMAR,2023-04-26 17:00:56.562,46.0900102,11.1153565,358.69,132.86,358.69,null
SMAR,2023-04-26 17:00:56.593,46.0900102,11.1153565,358.72,129.05,358.62,null
SMAR,2023-04-26 17:00:56.628,46.0900102,11.1153565,358.76,125.41,358.56,null
STON,2023-04-26 17:00:56.628,46.09010933333333,11.115449745,-1.568458,155.349731,0.803227,1
SMAR,2023-04-26 17:00:56.661,46.0900102,11.1153565,358.84,121.84,358.5,null
SMAR,2023-04-26 17:00:56.695,46.0900102,11.1153565,358.97,118.21,358.43,null
SMAR,2023-04-26 17:00:56.738,46.0900102,11.1153565,359.12,114.5,358.35,null
SMAR,2023-04-26 17:00:56.77,46.0900102,11.1153565,359.28,110.79,358.28,null
SMAR,2023-04-26 17:00:56.808,46.0900102,11.1153565,359.41,107.25,358.2,null
SMAR,2023-04-26 17:00:56.844,46.0900102,11.1153565,359.51,104.13,358.08,null
SMAR,2023-04-26 17:00:56.879,46.0900102,11.1153565,359.61,101.66,357.94,null
STON,2023-04-26 17:00:56.879,46.09010933333333,11.115449745,-1.109192,134.50475699999998,1.028259,1
SMAR,2023-04-26 17:00:56.906,46.0900102,11.1153565,359.66,99.7,357.78,null
SMAR,2023-04-26 17:00:56.938,46.0900102,11.1153565,359.68,98.2,357.64,null
SMAR,2023-04-26 17:00:56.974,46.0900102,11.1153565,359.68,96.97,357.52,null
SMAR,2023-04-26 17:00:57.004,46.0900102,11.1153565,359.66,95.72,357.4,null
SMAR,2023-04-26 17:00:57.033,46.0900102,11.1153565,359.63,94.28,357.3,null
STON,2023-04-26 17:00:57.033,46.09010933333333,11.115449745,-0.567707,123.171688,1.73966,1
SMAR,2023-04-26 17:00:57.067,46.0900102,11.1153565,359.6,92.67,357.24,null
SMAR,2023-04-26 17:00:57.099,46.0900102,11.1153565,359.58,91.03,357.21,null
SMAR,2023-04-26 17:00:57.132,46.0900102,11.1153565,359.59,89.6,357.19,null
SMAR,2023-04-26 17:00:57.165,46.0900102,11.1153565,359.59,88.68,357.18,null
SMAR,2023-04-26 17:00:57.2,46.0900123,11.115355,359.58,88.39,357.2,null
SMAR,2023-04-26 17:00:57.235,46.0900123,11.115355,359.57,88.61,357.22,null
SMAR,2023-04-26 17:00:57.269,46.0900123,11.115355,359.53,88.92,357.24,null
STON,2023-04-26 17:00:57.269,46.09010933333333,11.115449745,-0.550332,116.13763800000001,2.081785,1
SMAR,2023-04-26 17:00:57.301,46.0900123,11.115355,359.52,89.12,357.26,null
SMAR,2023-04-26 17:00:57.339,46.0900123,11.115355,359.49,89.29,357.29,null
SMAR,2023-04-26 17:00:57.366,46.0900123,11.115355,359.44,89.57,357.3,null
SMAR,2023-04-26 17:00:57.405,46.0900123,11.115355,359.39,89.89,357.37,null
SMAR,2023-04-26 17:00:57.443,46.0900123,11.115355,359.34,90.11,357.44,null
SMAR,2023-04-26 17:00:57.471,46.0900123,11.115355,359.29,90.25,357.49,null
SMAR,2023-04-26 17:00:57.505,46.0900123,11.115355,359.25,90.35,357.55,null
SMAR,2023-04-26 17:00:57.533,46.0900123,11.115355,359.21,90.52,357.61,null
STON,2023-04-26 17:00:57.533,46.09010828,11.115450118333333,-0.550332,116.13763800000001,2.081785,1
STON,2023-04-26 17:00:57.533,46.09010828,11.115450118333333,-0.550332,116.13763800000001,2.081785,1
SMAR,2023-04-26 17:00:57.572,46.0900123,11.115355,359.17,90.85,357.66,null
SMAR,2023-04-26 17:00:57.601,46.0900123,11.115355,359.14,91.29,357.73,null
SMAR,2023-04-26 17:00:57.635,46.0900123,11.115355,359.11,91.73,357.8,null
SMAR,2023-04-26 17:00:57.664,46.0900123,11.115355,359.09,92.13,357.86,null
SMAR,2023-04-26 17:00:57.702,46.0900123,11.115355,359.06,92.45,357.94,null
STON,2023-04-26 17:00:57.702,46.09010828,11.115450118333333,-0.818215,119.731045,1.71597,1
SMAR,2023-04-26 17:00:57.74,46.0900123,11.115355,359.03,92.67,358.01,null
SMAR,2023-04-26 17:00:57.773,46.0900123,11.115355,359.0,92.78,358.08,null
SMAR,2023-04-26 17:00:57.809,46.0900123,11.115355,358.97,92.79,358.14,null
SMAR,2023-04-26 17:00:57.839,46.0900123,11.115355,358.96,92.82,358.2,null
SMAR,2023-04-26 17:00:57.868,46.0900123,11.115355,358.94,92.88,358.23,null
SMAR,2023-04-26 17:00:57.904,46.0900123,11.115355,358.93,92.97,358.26,null
SMAR,2023-04-26 17:00:57.938,46.0900123,11.115355,358.93,93.09,358.28,null
STON,2023-04-26 17:00:57.938,46.09010828,11.115450118333333,-1.003744,121.92355,1.30049,1
SMAR,2023-04-26 17:00:57.967,46.0900123,11.115355,358.9,93.26,358.28,null
SMAR,2023-04-26 17:00:58.004,46.0900123,11.115355,358.91,93.42,358.28,null
SMAR,2023-04-26 17:00:58.031,46.0900123,11.115355,358.92,93.57,358.28,null
SMAR,2023-04-26 17:00:58.077,46.0900123,11.115355,358.92,93.69,358.27,null
SMAR,2023-04-26 17:00:58.105,46.0900123,11.115355,358.94,93.72,358.27,null
STON,2023-04-26 17:00:58.105,46.09010828,11.115450118333333,-1.061836,122.953262,1.10201,1
SMAR,2023-04-26 17:00:58.145,46.0900123,11.115355,358.96,93.66,358.27,null
SMAR,2023-04-26 17:00:58.186,46.0900123,11.115355,358.98,93.56,358.28,null
SMAR,2023-04-26 17:00:58.214,46.0900123,11.115355,358.99,93.42,358.29,null
SMAR,2023-04-26 17:00:58.241,46.0900123,11.115355,359.02,93.29,358.29,null
STON,2023-04-26 17:00:58.241,46.09010828,11.115450118333333,-0.965769,123.437275,1.120281,1
SMAR,2023-04-26 17:00:58.278,46.0900142,11.1153564,359.04,93.22,358.28,null
SMAR,2023-04-26 17:00:58.312,46.0900142,11.1153564,359.06,93.27,358.27,null
SMAR,2023-04-26 17:00:58.348,46.0900142,11.1153564,359.09,93.47,358.27,null
SMAR,2023-04-26 17:00:58.384,46.0900142,11.1153564,359.11,93.73,358.27,null
STON,2023-04-26 17:00:58.384,46.090108645,11.115450225,-0.965769,123.437275,1.120281,1
SMAR,2023-04-26 17:00:58.411,46.0900142,11.1153564,359.15,93.9,358.29,null
STON,2023-04-26 17:00:58.411,46.090108645,11.115450225,-0.965769,123.437275,1.120281,1
SMAR,2023-04-26 17:00:58.446,46.0900142,11.1153564,359.19,93.92,358.3,null
SMAR,2023-04-26 17:00:58.477,46.0900142,11.1153564,359.23,93.87,358.31,null
SMAR,2023-04-26 17:00:58.511,46.0900142,11.1153564,359.29,93.79,358.32,null
STON,2023-04-26 17:00:58.511,46.090108645,11.115450225,-0.799564,124.21765099999999,1.157057,1
SMAR,2023-04-26 17:00:58.542,46.0900142,11.1153564,359.36,93.76,358.32,null
SMAR,2023-04-26 17:00:58.574,46.0900142,11.1153564,359.43,93.78,358.34,null
SMAR,2023-04-26 17:00:58.61,46.0900142,11.1153564,359.5,93.83,358.35,null
SMAR,2023-04-26 17:00:58.638,46.0900142,11.1153564,359.55,93.87,358.37,null
SMAR,2023-04-26 17:00:58.673,46.0900142,11.1153564,359.58,93.89,358.39,null
STON,2023-04-26 17:00:58.673,46.090108645,11.115450225,-0.442927,124.53444300000001,1.113195,1
SMAR,2023-04-26 17:00:58.708,46.0900142,11.1153564,359.61,93.86,358.4,null
SMAR,2023-04-26 17:00:58.738,46.0900142,11.1153564,359.62,93.73,358.4,null
SMAR,2023-04-26 17:00:58.77,46.0900142,11.1153564,359.61,93.55,358.41,null
SMAR,2023-04-26 17:00:58.8,46.0900142,11.1153564,359.58,93.39,358.4,null
SMAR,2023-04-26 17:00:58.839,46.0900142,11.1153564,359.54,93.36,358.4,null
SMAR,2023-04-26 17:00:58.872,46.0900142,11.1153564,359.5,93.43,358.41,null
SMAR,2023-04-26 17:00:58.913,46.0900142,11.1153564,359.46,93.53,358.43,null
STON,2023-04-26 17:00:58.913,46.090108645,11.115450225,-0.19089,124.651497,1.05267,1
SMAR,2023-04-26 17:00:58.943,46.0900142,11.1153564,359.43,93.59,358.46,null
SMAR,2023-04-26 17:00:58.977,46.0900142,11.1153564,359.4,93.61,358.51,null
SMAR,2023-04-26 17:00:59.01,46.0900142,11.1153564,359.38,93.48,358.57,null
SMAR,2023-04-26 17:00:59.04,46.0900142,11.1153564,359.35,93.3,358.65,null
STON,2023-04-26 17:00:59.04,46.090108645,11.115450225,-0.376202,125.14266599999999,1.023662,1
SMAR,2023-04-26 17:00:59.074,46.0900142,11.1153564,359.3,93.23,358.71,null
SMAR,2023-04-26 17:00:59.103,46.0900142,11.1153564,359.24,93.4,358.77,null
SMAR,2023-04-26 17:00:59.141,46.0900142,11.1153564,359.19,93.65,358.83,null
SMAR,2023-04-26 17:00:59.171,46.0900142,11.1153564,359.12,93.82,358.91,null
SMAR,2023-04-26 17:00:59.205,46.090017,11.1153564,359.05,93.89,358.98,null
SMAR,2023-04-26 17:00:59.236,46.090017,11.1153564,358.98,93.96,359.05,null
SMAR,2023-04-26 17:00:59.269,46.090017,11.1153564,358.89,94.06,359.1,null
SMAR,2023-04-26 17:00:59.305,46.090017,11.1153564,358.81,94.25,359.14,null
STON,2023-04-26 17:00:59.305,46.090108645,11.115450225,-0.607408,125.76610199999999,0.655203,1
STON,2023-04-26 17:00:59.305,46.090108736666664,11.115450046666666,-0.607408,125.76610199999999,0.655203,1
STON,2023-04-26 17:00:59.305,46.090108736666664,11.115450046666666,-0.607408,125.76610199999999,0.655203,1
SMAR,2023-04-26 17:00:59.345,46.090017,11.1153564,358.73,94.56,359.15,null
SMAR,2023-04-26 17:00:59.376,46.090017,11.1153564,358.66,95.02,359.14,null
SMAR,2023-04-26 17:00:59.411,46.090017,11.1153564,358.61,95.61,359.13,null
SMAR,2023-04-26 17:00:59.446,46.090017,11.1153564,358.58,96.21,359.11,null
SMAR,2023-04-26 17:00:59.472,46.090017,11.1153564,358.57,96.74,359.1,null
SMAR,2023-04-26 17:00:59.508,46.090017,11.1153564,358.56,97.16,359.11,null
SMAR,2023-04-26 17:00:59.539,46.090017,11.1153564,358.56,97.41,359.13,null
SMAR,2023-04-26 17:00:59.569,46.090017,11.1153564,358.58,97.47,359.15,null
SMAR,2023-04-26 17:00:59.603,46.090017,11.1153564,358.61,97.23,359.19,null
SMAR,2023-04-26 17:00:59.639,46.090017,11.1153564,358.69,96.7,359.23,null
SMAR,2023-04-26 17:00:59.67,46.090017,11.1153564,358.8,96.11,359.27,null
SMAR,2023-04-26 17:00:59.703,46.090017,11.1153564,358.93,95.71,359.32,null
STON,2023-04-26 17:00:59.703,46.090108736666664,11.115450046666666,-1.066442,127.540085,0.388738,1
STON,2023-04-26 17:00:59.703,46.090108736666664,11.115450046666666,-1.224021,129.960255,0.440792,1
SMAR,2023-04-26 17:00:59.736,46.090017,11.1153564,359.06,95.55,359.36,null
SMAR,2023-04-26 17:00:59.771,46.090017,11.1153564,359.17,95.53,359.41,null
SMAR,2023-04-26 17:00:59.808,46.090017,11.1153564,359.25,95.55,359.45,null
SMAR,2023-04-26 17:00:59.837,46.090017,11.1153564,359.31,95.59,359.49,null
STON,2023-04-26 17:00:59.837,46.090108736666664,11.115450046666666,-0.624613,128.438515,0.195521,1
SMAR,2023-04-26 17:00:59.867,46.090017,11.1153564,359.38,95.64,359.51,null
SMAR,2023-04-26 17:00:59.912,46.090017,11.1153564,359.43,95.67,359.52,null
SMAR,2023-04-26 17:00:59.943,46.090017,11.1153564,359.48,95.67,359.5,null
SMAR,2023-04-26 17:00:59.978,46.090017,11.1153564,359.54,95.74,359.5,null
SMAR,2023-04-26 17:01:00.007,46.090017,11.1153564,359.62,95.82,359.49,null
SMAR,2023-04-26 17:01:00.043,46.090017,11.1153564,359.69,95.78,359.48,null
SMAR,2023-04-26 17:01:00.073,46.090017,11.1153564,359.74,95.45,359.46,null
SMAR,2023-04-26 17:01:00.112,46.090017,11.1153564,359.76,94.87,359.43,null
STON,2023-04-26 17:01:00.112,46.090108736666664,11.115450046666666,-0.216395,128.912781,0.090312,1
SMAR,2023-04-26 17:01:00.141,46.090017,11.1153564,359.81,94.39,359.39,null
SMAR,2023-04-26 17:01:00.176,46.090017,11.1153564,359.85,94.15,359.37,null
SMAR,2023-04-26 17:01:00.208,46.0900196,11.115357,359.86,94.11,359.37,null
SMAR,2023-04-26 17:01:00.239,46.0900196,11.115357,359.82,94.15,359.38,null
STON,2023-04-26 17:01:00.239,46.090108736666664,11.115450046666666,0.159979,127.523178,0.227695,1
SMAR,2023-04-26 17:01:00.27,46.0900196,11.115357,359.78,94.2,359.4,null
STON,2023-04-26 17:01:00.27,46.090108775,11.115449745,0.159979,127.523178,0.227695,1
STON,2023-04-26 17:01:00.27,46.090108775,11.115449745,0.159979,127.523178,0.227695,1
SMAR,2023-04-26 17:01:00.306,46.0900196,11.115357,359.77,94.2,359.43,null
SMAR,2023-04-26 17:01:00.343,46.0900196,11.115357,359.75,94.09,359.46,null
SMAR,2023-04-26 17:01:00.375,46.0900196,11.115357,359.77,93.86,359.46,null
SMAR,2023-04-26 17:01:00.413,46.0900196,11.115357,359.8,93.36,359.46,null
SMAR,2023-04-26 17:01:00.448,46.0900196,11.115357,359.82,92.36,359.44,null
SMAR,2023-04-26 17:01:00.482,46.0900196,11.115357,359.86,90.76,359.42,null
SMAR,2023-04-26 17:01:00.516,46.0900196,11.115357,359.91,88.56,359.39,null
SMAR,2023-04-26 17:01:00.546,46.0900196,11.115357,360.0,85.89,359.33,null
SMAR,2023-04-26 17:01:00.575,46.0900196,11.115357,0.11,82.77,359.26,null
SMAR,2023-04-26 17:01:00.605,46.0900196,11.115357,0.23,79.1,359.15,null
