Input,Time,Latitude,Longitude,Pitch,Yaw,Roll,Stonex_status
SMAR,2023-04-11 12:13:47.04,46.0906104,11.1155345,346.59,346.28,4.12,null
SMAR,2023-04-11 12:13:47.081,46.0906104,11.1155345,346.59,346.25,4.13,null
STON,2023-04-11 12:13:47.081,46.090273385,11.115576615,12.89687,180.0,10.329992,1025
SMAR,2023-04-11 12:13:47.114,46.0906104,11.1155345,346.59,346.27,4.12,null
SMAR,2023-04-11 12:13:47.148,46.0906104,11.1155345,346.59,346.27,4.12,null
SMAR,2023-04-11 12:13:47.181,46.0906104,11.1155345,346.59,346.27,4.12,null
SMAR,2023-04-11 12:13:47.215,46.0906104,11.1155345,346.59,346.27,4.12,null
SMAR,2023-04-11 12:13:47.249,46.0906104,11.1155345,346.59,346.27,4.12,null
SMAR,2023-04-11 12:13:47.281,46.0906104,11.1155345,346.59,346.27,4.12,null
SMAR,2023-04-11 12:13:47.314,46.0906104,11.1155345,346.59,346.27,4.12,null
STON,2023-04-11 12:13:47.314,46.090273385,11.115576615,12.666672,180.0,10.607091,1025
SMAR,2023-04-11 12:13:47.339,46.0906104,11.1155345,346.59,346.27,4.12,null
SMAR,2023-04-11 12:13:47.38,46.0906104,11.1155345,346.59,346.27,4.12,null
SMAR,2023-04-11 12:13:47.413,46.0906104,11.1155345,346.59,346.27,4.12,null
SMAR,2023-04-11 12:13:47.446,46.0906104,11.1155345,346.59,346.27,4.12,null
SMAR,2023-04-11 12:13:47.48,46.0906104,11.1155345,346.59,346.27,4.12,null
SMAR,2023-04-11 12:13:47.514,46.0904776,11.1155826,346.59,346.27,4.12,null
SMAR,2023-04-11 12:13:47.544,46.0904776,11.1155826,346.58,346.27,4.12,null
SMAR,2023-04-11 12:13:47.578,46.0904776,11.1155826,346.58,346.27,4.12,null
STON,2023-04-11 12:13:47.578,46.090273385,11.115576615,12.179626,180.0,11.13407,1025
SMAR,2023-04-11 12:13:47.612,46.0904776,11.1155826,346.58,346.27,4.12,null
SMAR,2023-04-11 12:13:47.645,46.0904776,11.1155826,346.58,346.27,4.12,null
SMAR,2023-04-11 12:13:47.679,46.0904776,11.1155826,346.58,346.27,4.12,null
STON,2023-04-11 12:13:47.679,46.090273385,11.115576615,11.958535,180.0,11.806324,1025
SMAR,2023-04-11 12:13:47.707,46.0904776,11.1155826,346.58,346.27,4.12,null
SMAR,2023-04-11 12:13:47.744,46.0904776,11.1155826,346.58,346.27,4.12,null
SMAR,2023-04-11 12:13:47.777,46.0904776,11.1155826,346.58,346.27,4.12,null
STON,2023-04-11 12:13:47.777,46.09027175833333,11.115574518333334,11.958535,180.0,11.806324,1025
STON,2023-04-11 12:13:47.777,46.09027175833333,11.115574518333334,11.958535,180.0,11.806324,1025
SMAR,2023-04-11 12:13:47.809,46.0904776,11.1155826,346.58,346.27,4.12,null
SMAR,2023-04-11 12:13:47.843,46.0904776,11.1155826,346.58,346.27,4.12,null
SMAR,2023-04-11 12:13:47.875,46.0904776,11.1155826,346.58,346.27,4.13,null
STON,2023-04-11 12:13:47.875,46.09027175833333,11.115574518333334,11.449735,180.0,11.119679,1025
SMAR,2023-04-11 12:13:47.908,46.0904776,11.1155826,346.58,346.27,4.13,null
SMAR,2023-04-11 12:13:47.941,46.0904776,11.1155826,346.58,346.27,4.13,null
SMAR,2023-04-11 12:13:47.975,46.0904776,11.1155826,346.58,346.27,4.13,null
SMAR,2023-04-11 12:13:48.008,46.0904776,11.1155826,346.58,346.27,4.13,null
SMAR,2023-04-11 12:13:48.041,46.0904776,11.1155826,346.58,346.27,4.13,null
SMAR,2023-04-11 12:13:48.074,46.0904776,11.1155826,346.58,346.27,4.13,null
STON,2023-04-11 12:13:48.074,46.09027175833333,11.115574518333334,10.788988,180.0,10.00493,1025
SMAR,2023-04-11 12:13:48.112,46.0904776,11.1155826,346.58,346.27,4.13,null
SMAR,2023-04-11 12:13:48.14,46.0904776,11.1155826,346.58,346.27,4.13,null
SMAR,2023-04-11 12:13:48.174,46.0904776,11.1155826,346.58,346.27,4.13,null
SMAR,2023-04-11 12:13:48.207,46.0904776,11.1155826,346.58,346.27,4.13,null
SMAR,2023-04-11 12:13:48.241,46.0904776,11.1155826,346.58,346.27,4.13,null
SMAR,2023-04-11 12:13:48.274,46.0904776,11.1155826,346.58,346.27,4.13,null
SMAR,2023-04-11 12:13:48.307,46.0904776,11.1155826,346.58,346.27,4.13,null
STON,2023-04-11 12:13:48.307,46.09027175833333,11.115574518333334,10.324237,180.0,8.241559,1025
SMAR,2023-04-11 12:13:48.342,46.0904776,11.1155826,346.58,346.27,4.13,null
SMAR,2023-04-11 12:13:48.372,46.0904776,11.1155826,346.58,346.27,4.13,null
SMAR,2023-04-11 12:13:48.406,46.0904776,11.1155826,346.58,346.27,4.13,null
SMAR,2023-04-11 12:13:48.439,46.0904776,11.1155826,346.58,346.27,4.14,null
SMAR,2023-04-11 12:13:48.471,46.0904776,11.1155826,346.58,346.27,4.14,null
STON,2023-04-11 12:13:48.471,46.09027175833333,11.115574518333334,9.239395,180.0,2.74293,1025
SMAR,2023-04-11 12:13:48.504,46.0904776,11.1155826,346.58,346.27,4.14,null
SMAR,2023-04-11 12:13:48.538,46.0904776,11.1155826,346.58,346.27,4.13,null
SMAR,2023-04-11 12:13:48.571,46.0904776,11.1155826,346.58,346.27,4.13,null
SMAR,2023-04-11 12:13:48.622,46.0904776,11.1155826,346.58,346.27,4.13,null
SMAR,2023-04-11 12:13:48.638,46.0904776,11.1155826,346.58,346.27,4.13,null
SMAR,2023-04-11 12:13:48.687,46.0904776,11.1155826,346.58,346.27,4.14,null
STON,2023-04-11 12:13:48.687,46.09027175833333,11.115574518333334,7.147218,180.0,0.208605,1025
SMAR,2023-04-11 12:13:48.72,46.0904776,11.1155826,346.58,346.27,4.14,null
SMAR,2023-04-11 12:13:48.753,46.0904776,11.1155826,346.58,346.27,4.14,null
STON,2023-04-11 12:13:48.753,46.090270875,11.11557352,7.147218,180.0,0.208605,1025
STON,2023-04-11 12:13:48.753,46.090270875,11.11557352,7.147218,180.0,0.208605,1025
SMAR,2023-04-11 12:13:48.786,46.0904776,11.1155826,346.58,346.27,4.14,null
SMAR,2023-04-11 12:13:48.82,46.0904776,11.1155826,346.58,346.27,4.14,null
SMAR,2023-04-11 12:13:48.851,46.0904776,11.1155826,346.58,346.27,4.14,null
STON,2023-04-11 12:13:48.851,46.090270875,11.11557352,7.437262,180.0,-1.249913,1025
SMAR,2023-04-11 12:13:48.884,46.0904776,11.1155826,346.58,346.27,4.14,null
SMAR,2023-04-11 12:13:48.919,46.0904776,11.1155826,346.58,346.27,4.14,null
SMAR,2023-04-11 12:13:48.953,46.0904776,11.1155826,346.58,346.27,4.14,null
SMAR,2023-04-11 12:13:48.985,46.0904776,11.1155826,346.58,346.27,4.14,null
SMAR,2023-04-11 12:13:49.018,46.0904776,11.1155826,346.58,346.27,4.14,null
SMAR,2023-04-11 12:13:49.051,46.0904776,11.1155826,346.58,346.27,4.14,null
SMAR,2023-04-11 12:13:49.084,46.0904776,11.1155826,346.58,346.27,4.15,null
STON,2023-04-11 12:13:49.084,46.090270875,11.11557352,6.321497,180.0,-3.247534,1025
SMAR,2023-04-11 12:13:49.118,46.0904776,11.1155826,346.58,346.27,4.15,null
SMAR,2023-04-11 12:13:49.149,46.0904776,11.1155826,346.58,346.27,4.15,null
SMAR,2023-04-11 12:13:49.183,46.0904776,11.1155826,346.58,346.27,4.15,null
SMAR,2023-04-11 12:13:49.215,46.0904776,11.1155826,346.58,346.27,4.15,null
SMAR,2023-04-11 12:13:49.249,46.0904776,11.1155826,346.58,346.27,4.15,null
STON,2023-04-11 12:13:49.249,46.090270875,11.11557352,11.116314,180.0,-3.340084,1025
SMAR,2023-04-11 12:13:49.281,46.0904776,11.1155826,346.58,346.27,4.15,null
SMAR,2023-04-11 12:13:49.315,46.0904776,11.1155826,346.58,346.27,4.15,null
SMAR,2023-04-11 12:13:49.348,46.0904776,11.1155826,346.58,346.27,4.15,null
SMAR,2023-04-11 12:13:49.383,46.0904776,11.1155826,346.58,346.27,4.15,null
SMAR,2023-04-11 12:13:49.414,46.0904776,11.1155826,346.58,346.27,4.15,null
SMAR,2023-04-11 12:13:49.448,46.0904776,11.1155826,346.58,346.28,4.14,null
SMAR,2023-04-11 12:13:49.481,46.0904776,11.1155826,346.58,346.28,4.15,null
STON,2023-04-11 12:13:49.481,46.090270875,11.11557352,13.482574,180.0,-1.64615,1025
SMAR,2023-04-11 12:13:49.513,46.0904776,11.1155826,346.58,346.27,4.14,null
SMAR,2023-04-11 12:13:49.549,46.0904776,11.1155826,346.58,346.28,4.15,null
SMAR,2023-04-11 12:13:49.581,46.0904776,11.1155826,346.58,346.28,4.15,null
SMAR,2023-04-11 12:13:49.615,46.0904776,11.1155826,346.58,346.28,4.15,null
SMAR,2023-04-11 12:13:49.646,46.0904776,11.1155826,346.58,346.27,4.15,null
SMAR,2023-04-11 12:13:49.682,46.0904776,11.1155826,346.58,346.27,4.15,null
STON,2023-04-11 12:13:49.682,46.090270875,11.11557352,16.80267,180.0,-0.82053,1025
SMAR,2023-04-11 12:13:49.715,46.0904776,11.1155826,346.58,346.27,4.15,null
STON,2023-04-11 12:13:49.715,46.09026938666667,11.115571801666666,16.80267,180.0,-0.82053,1025
STON,2023-04-11 12:13:49.715,46.09026938666667,11.115571801666666,16.80267,180.0,-0.82053,1025
SMAR,2023-04-11 12:13:49.746,46.0904776,11.1155826,346.58,346.27,4.15,null
SMAR,2023-04-11 12:13:49.779,46.0904776,11.1155826,346.58,346.27,4.15,null
SMAR,2023-04-11 12:13:49.813,46.0904776,11.1155826,346.58,346.27,4.15,null
SMAR,2023-04-11 12:13:49.844,46.0904776,11.1155826,346.58,346.27,4.15,null
SMAR,2023-04-11 12:13:49.878,46.0904776,11.1155826,346.58,346.27,4.15,null
STON,2023-04-11 12:13:49.878,46.09026938666667,11.115571801666666,16.810015,180.0,-1.688245,1025
SMAR,2023-04-11 12:13:49.912,46.0904776,11.1155826,346.58,346.28,4.15,null
SMAR,2023-04-11 12:13:49.945,46.0904776,11.1155826,346.58,346.28,4.15,null
SMAR,2023-04-11 12:13:49.978,46.0904776,11.1155826,346.58,346.28,4.15,null
SMAR,2023-04-11 12:13:50.01,46.0904776,11.1155826,346.58,346.28,4.15,null
SMAR,2023-04-11 12:13:50.044,46.0904776,11.1155826,346.58,346.28,4.15,null
SMAR,2023-04-11 12:13:50.077,46.0904776,11.1155826,346.58,346.28,4.15,null
STON,2023-04-11 12:13:50.077,46.09026938666667,11.115571801666666,16.833832,180.0,-0.880374,1025
SMAR,2023-04-11 12:13:50.112,46.0904776,11.1155826,346.58,346.28,4.15,null
SMAR,2023-04-11 12:13:50.144,46.0904776,11.1155826,346.58,346.28,4.15,null
SMAR,2023-04-11 12:13:50.178,46.0904776,11.1155826,346.58,346.28,4.15,null
SMAR,2023-04-11 12:13:50.209,46.0904776,11.1155826,346.58,346.28,4.15,null
SMAR,2023-04-11 12:13:50.244,46.0904776,11.1155826,346.58,346.28,4.15,null
SMAR,2023-04-11 12:13:50.276,46.0904776,11.1155826,346.58,346.28,4.15,null
STON,2023-04-11 12:13:50.276,46.09026938666667,11.115571801666666,15.995643,180.0,-1.466674,1025
SMAR,2023-04-11 12:13:50.308,46.0904776,11.1155826,346.58,346.28,4.15,null
SMAR,2023-04-11 12:13:50.343,46.0904776,11.1155826,346.58,346.28,4.15,null
SMAR,2023-04-11 12:13:50.374,46.0904776,11.1155826,346.58,346.27,4.15,null
SMAR,2023-04-11 12:13:50.408,46.0904776,11.1155826,346.58,346.28,4.15,null
SMAR,2023-04-11 12:13:50.442,46.0904776,11.1155826,346.58,346.28,4.15,null
SMAR,2023-04-11 12:13:50.473,46.0904776,11.1155826,346.58,346.28,4.15,null
SMAR,2023-04-11 12:13:50.507,46.0904776,11.1155826,346.58,346.28,4.15,null
STON,2023-04-11 12:13:50.507,46.09026938666667,11.115571801666666,15.276303,180.0,-0.064119,1025
SMAR,2023-04-11 12:13:50.544,46.0904776,11.1155826,346.58,346.28,4.15,null
SMAR,2023-04-11 12:13:50.573,46.0904776,11.1155826,346.58,346.28,4.15,null
SMAR,2023-04-11 12:13:50.614,46.0904776,11.1155826,346.58,346.28,4.15,null
SMAR,2023-04-11 12:13:50.639,46.0904776,11.1155826,346.58,346.28,4.15,null
SMAR,2023-04-11 12:13:50.673,46.0904776,11.1155826,346.58,346.28,4.15,null
SMAR,2023-04-11 12:13:50.706,46.0904776,11.1155826,346.58,346.28,4.14,null
SMAR,2023-04-11 12:13:50.739,46.0904776,11.1155826,346.58,346.28,4.15,null
STON,2023-04-11 12:13:50.739,46.09026938666667,11.115571801666666,14.031924,180.0,-1.079252,1025
STON,2023-04-11 12:13:50.739,46.090268025,11.115570465,14.031924,180.0,-1.079252,1025
STON,2023-04-11 12:13:50.739,46.090268025,11.115570465,14.031924,180.0,-1.079252,1025
SMAR,2023-04-11 12:13:50.774,46.0904776,11.1155826,346.58,346.28,4.15,null
SMAR,2023-04-11 12:13:50.808,46.0904776,11.1155826,346.58,346.28,4.15,null
SMAR,2023-04-11 12:13:50.854,46.0904776,11.1155826,346.58,346.28,4.15,null
SMAR,2023-04-11 12:13:50.888,46.0904776,11.1155826,346.58,346.27,4.15,null
STON,2023-04-11 12:13:50.888,46.090268025,11.115570465,13.92731,180.0,-1.806602,1025
SMAR,2023-04-11 12:13:50.909,46.0904776,11.1155826,346.58,346.27,4.15,null
SMAR,2023-04-11 12:13:50.952,46.0904776,11.1155826,346.58,346.28,4.15,null
SMAR,2023-04-11 12:13:50.986,46.0904776,11.1155826,346.58,346.28,4.15,null
SMAR,2023-04-11 12:13:51.019,46.0904776,11.1155826,346.58,346.28,4.15,null
SMAR,2023-04-11 12:13:51.053,46.0904776,11.1155826,346.58,346.28,4.15,null
SMAR,2023-04-11 12:13:51.086,46.0904776,11.1155826,346.58,346.27,4.15,null
STON,2023-04-11 12:13:51.086,46.090268025,11.115570465,14.2261,180.0,-1.943603,1025
SMAR,2023-04-11 12:13:51.118,46.0904776,11.1155826,346.58,346.27,4.15,null
SMAR,2023-04-11 12:13:51.153,46.0904776,11.1155826,346.58,346.27,4.15,null
SMAR,2023-04-11 12:13:51.186,46.0904776,11.1155826,346.58,346.28,4.14,null
SMAR,2023-04-11 12:13:51.219,46.0904776,11.1155826,346.58,346.28,4.14,null
SMAR,2023-04-11 12:13:51.252,46.0904776,11.1155826,346.58,346.28,4.14,null
SMAR,2023-04-11 12:13:51.287,46.0904776,11.1155826,346.58,346.27,4.14,null
STON,2023-04-11 12:13:51.287,46.090268025,11.115570465,14.54574,180.0,-1.697616,1025
SMAR,2023-04-11 12:13:51.317,46.0904776,11.1155826,346.58,346.27,4.14,null
SMAR,2023-04-11 12:13:51.352,46.0904776,11.1155826,346.58,346.28,4.14,null
SMAR,2023-04-11 12:13:51.383,46.0904776,11.1155826,346.58,346.27,4.14,null
SMAR,2023-04-11 12:13:51.417,46.0904776,11.1155826,346.58,346.27,4.14,null
SMAR,2023-04-11 12:13:51.449,46.0904776,11.1155826,346.58,346.27,4.15,null
SMAR,2023-04-11 12:13:51.486,46.0904776,11.1155826,346.58,346.27,4.15,null
STON,2023-04-11 12:13:51.486,46.090268025,11.115570465,14.500925,180.0,-1.435758,1025
SMAR,2023-04-11 12:13:51.515,46.091104,11.1154107,346.59,346.27,4.15,null
SMAR,2023-04-11 12:13:51.55,46.091104,11.1154107,346.59,346.27,4.15,null
SMAR,2023-04-11 12:13:51.582,46.091104,11.1154107,346.59,346.27,4.15,null
SMAR,2023-04-11 12:13:51.616,46.091104,11.1154107,346.59,346.27,4.15,null
SMAR,2023-04-11 12:13:51.65,46.091104,11.1154107,346.59,346.27,4.15,null
SMAR,2023-04-11 12:13:51.684,46.091104,11.1154107,346.59,346.27,4.15,null
SMAR,2023-04-11 12:13:51.715,46.091104,11.1154107,346.59,346.28,4.14,null
SMAR,2023-04-11 12:13:51.748,46.091104,11.1154107,346.59,346.28,4.14,null
STON,2023-04-11 12:13:51.748,46.090268025,11.115570465,14.13638,180.0,-0.936718,1025
SMAR,2023-04-11 12:13:51.783,46.091104,11.1154107,346.59,346.28,4.14,null
SMAR,2023-04-11 12:13:51.816,46.091104,11.1154107,346.59,346.28,4.14,null
STON,2023-04-11 12:13:51.816,46.090267391666664,11.115570101666666,14.13638,180.0,-0.936718,1025
SMAR,2023-04-11 12:13:51.848,46.091104,11.1154107,346.59,346.28,4.14,null
STON,2023-04-11 12:13:51.848,46.090267391666664,11.115570101666666,14.13638,180.0,-0.936718,1025
SMAR,2023-04-11 12:13:51.879,46.091104,11.1154107,346.59,346.28,4.14,null
STON,2023-04-11 12:13:51.879,46.090267391666664,11.115570101666666,14.201072,180.0,-0.979278,1025
SMAR,2023-04-11 12:13:51.912,46.091104,11.1154107,346.59,346.28,4.14,null
SMAR,2023-04-11 12:13:51.946,46.091104,11.1154107,346.58,346.28,4.14,null
SMAR,2023-04-11 12:13:51.978,46.091104,11.1154107,346.58,346.28,4.14,null
SMAR,2023-04-11 12:13:52.012,46.091104,11.1154107,346.58,346.28,4.14,null
SMAR,2023-04-11 12:13:52.045,46.091104,11.1154107,346.58,346.28,4.14,null
SMAR,2023-04-11 12:13:52.08,46.091104,11.1154107,346.58,346.28,4.14,null
SMAR,2023-04-11 12:13:52.113,46.091104,11.1154107,346.58,346.27,4.14,null
STON,2023-04-11 12:13:52.113,46.090267391666664,11.115570101666666,14.111011,180.0,-1.034837,1025
SMAR,2023-04-11 12:13:52.147,46.091104,11.1154107,346.58,346.28,4.14,null
SMAR,2023-04-11 12:13:52.179,46.091104,11.1154107,346.58,346.28,4.14,null
SMAR,2023-04-11 12:13:52.212,46.091104,11.1154107,346.58,346.28,4.14,null
SMAR,2023-04-11 12:13:52.246,46.091104,11.1154107,346.58,346.28,4.14,null
SMAR,2023-04-11 12:13:52.278,46.091104,11.1154107,346.58,346.28,4.14,null
SMAR,2023-04-11 12:13:52.31,46.091104,11.1154107,346.58,346.28,4.14,null
STON,2023-04-11 12:13:52.31,46.090267391666664,11.115570101666666,14.337223,180.0,-1.277265,1025
SMAR,2023-04-11 12:13:52.346,46.091104,11.1154107,346.58,346.27,4.14,null
SMAR,2023-04-11 12:13:52.377,46.091104,11.1154107,346.58,346.27,4.14,null
SMAR,2023-04-11 12:13:52.409,46.091104,11.1154107,346.58,346.27,4.14,null
SMAR,2023-04-11 12:13:52.443,46.091104,11.1154107,346.58,346.27,4.14,null
SMAR,2023-04-11 12:13:52.477,46.091104,11.1154107,346.58,346.27,4.14,null
SMAR,2023-04-11 12:13:52.511,46.091104,11.1154107,346.58,346.27,4.14,null
SMAR,2023-04-11 12:13:52.542,46.0906802,11.1155867,346.58,346.27,4.14,null
SMAR,2023-04-11 12:13:52.577,46.0906802,11.1155867,346.58,346.27,4.14,null
SMAR,2023-04-11 12:13:52.61,46.0906802,11.1155867,346.58,346.27,4.14,null
SMAR,2023-04-11 12:13:52.641,46.0906802,11.1155867,346.58,346.27,4.14,null
SMAR,2023-04-11 12:13:52.674,46.0906802,11.1155867,346.58,346.27,4.14,null
SMAR,2023-04-11 12:13:52.709,46.0906802,11.1155867,346.58,346.27,4.14,null
SMAR,2023-04-11 12:13:52.74,46.0906802,11.1155867,346.58,346.27,4.14,null
SMAR,2023-04-11 12:13:52.774,46.0906802,11.1155867,346.58,346.27,4.14,null
SMAR,2023-04-11 12:13:52.807,46.0906802,11.1155867,346.59,346.27,4.14,null
SMAR,2023-04-11 12:13:52.839,46.0906802,11.1155867,346.59,346.27,4.14,null
SMAR,2023-04-11 12:13:52.872,46.0906802,11.1155867,346.59,346.27,4.14,null
SMAR,2023-04-11 12:13:52.907,46.0906802,11.1155867,346.59,346.27,4.14,null
SMAR,2023-04-11 12:13:52.937,46.0906802,11.1155867,346.59,346.27,4.14,null
SMAR,2023-04-11 12:13:52.973,46.0906802,11.1155867,346.58,346.27,4.14,null
SMAR,2023-04-11 12:13:53.007,46.0906802,11.1155867,346.58,346.27,4.14,null
SMAR,2023-04-11 12:13:53.04,46.0906802,11.1155867,346.58,346.27,4.14,null
SMAR,2023-04-11 12:13:53.074,46.0906802,11.1155867,346.58,346.27,4.14,null
STON,2023-04-11 12:13:53.074,46.090267391666664,11.115570101666666,14.137728,180.0,-0.545698,1025
STON,2023-04-11 12:13:53.074,46.090267186666665,11.115570203333334,14.137728,180.0,-0.545698,1025
STON,2023-04-11 12:13:53.074,46.090267186666665,11.115570203333334,14.137728,180.0,-0.545698,1025
STON,2023-04-11 12:13:53.074,46.090267186666665,11.115570203333334,13.932515,180.0,-0.876977,1025
STON,2023-04-11 12:13:53.074,46.090267186666665,11.115570203333334,13.960092,180.0,-1.265931,1025
SMAR,2023-04-11 12:13:53.106,46.0906802,11.1155867,346.58,346.27,4.14,null
SMAR,2023-04-11 12:13:53.153,46.0906802,11.1155867,346.58,346.27,4.14,null
SMAR,2023-04-11 12:13:53.188,46.0906802,11.1155867,346.58,346.27,4.14,null
SMAR,2023-04-11 12:13:53.207,46.0906802,11.1155867,346.58,346.27,4.14,null
SMAR,2023-04-11 12:13:53.253,46.0906802,11.1155867,346.58,346.27,4.14,null
SMAR,2023-04-11 12:13:53.289,46.0906802,11.1155867,346.58,346.27,4.14,null
SMAR,2023-04-11 12:13:53.32,46.0906802,11.1155867,346.58,346.27,4.14,null
STON,2023-04-11 12:13:53.32,46.090267186666665,11.115570203333334,14.385163,180.0,-1.017206,1025
SMAR,2023-04-11 12:13:53.353,46.0906802,11.1155867,346.58,346.27,4.14,null
SMAR,2023-04-11 12:13:53.386,46.0906802,11.1155867,346.59,346.27,4.14,null
SMAR,2023-04-11 12:13:53.42,46.0906802,11.1155867,346.59,346.27,4.14,null
SMAR,2023-04-11 12:13:53.451,46.0906802,11.1155867,346.58,346.27,4.13,null
SMAR,2023-04-11 12:13:53.486,46.0906802,11.1155867,346.58,346.27,4.13,null
SMAR,2023-04-11 12:13:53.518,46.0906802,11.1155867,346.58,346.27,4.13,null
SMAR,2023-04-11 12:13:53.55,46.0906802,11.1155867,346.58,346.27,4.13,null
STON,2023-04-11 12:13:53.55,46.090267186666665,11.115570203333334,14.456796,180.0,-0.804299,1025
SMAR,2023-04-11 12:13:53.586,46.0906802,11.1155867,346.58,346.27,4.13,null
SMAR,2023-04-11 12:13:53.618,46.0906802,11.1155867,346.58,346.27,4.13,null
SMAR,2023-04-11 12:13:53.65,46.0904867,11.1156488,346.59,346.27,4.13,null
SMAR,2023-04-11 12:13:53.683,46.0904867,11.1156488,346.59,346.27,4.13,null
STON,2023-04-11 12:13:53.683,46.09026717166667,11.115570473333333,14.456796,180.0,-0.804299,1025
STON,2023-04-11 12:13:53.683,46.09026717166667,11.115570473333333,14.456796,180.0,-0.804299,1025
SMAR,2023-04-11 12:13:53.721,46.0904867,11.1156488,346.59,346.27,4.13,null
SMAR,2023-04-11 12:13:53.751,46.0904867,11.1156488,346.59,346.27,4.13,null
SMAR,2023-04-11 12:13:53.785,46.0904867,11.1156488,346.59,346.27,4.13,null
SMAR,2023-04-11 12:13:53.817,46.0904867,11.1156488,346.59,346.27,4.13,null
SMAR,2023-04-11 12:13:53.855,46.0904867,11.1156488,346.59,346.27,4.13,null
STON,2023-04-11 12:13:53.855,46.09026717166667,11.115570473333333,13.998045,180.0,-0.360602,1025
SMAR,2023-04-11 12:13:53.881,46.0904867,11.1156488,346.59,346.27,4.13,null
SMAR,2023-04-11 12:13:53.919,46.0904867,11.1156488,346.59,346.27,4.13,null
SMAR,2023-04-11 12:13:53.951,46.0904867,11.1156488,346.59,346.27,4.13,null
SMAR,2023-04-11 12:13:53.982,46.0904867,11.1156488,346.59,346.27,4.13,null
SMAR,2023-04-11 12:13:54.014,46.0904867,11.1156488,346.59,346.27,4.14,null
SMAR,2023-04-11 12:13:54.048,46.0904867,11.1156488,346.59,346.27,4.14,null
SMAR,2023-04-11 12:13:54.082,46.0904867,11.1156488,346.59,346.27,4.13,null
STON,2023-04-11 12:13:54.082,46.09026717166667,11.115570473333333,14.377066,180.0,-1.002421,1025
SMAR,2023-04-11 12:13:54.114,46.0904867,11.1156488,346.59,346.27,4.13,null
SMAR,2023-04-11 12:13:54.155,46.0904867,11.1156488,346.59,346.27,4.13,null
SMAR,2023-04-11 12:13:54.186,46.0904867,11.1156488,346.59,346.27,4.13,null
SMAR,2023-04-11 12:13:54.22,46.0904867,11.1156488,346.59,346.27,4.13,null
SMAR,2023-04-11 12:13:54.254,46.0904867,11.1156488,346.59,346.27,4.13,null
SMAR,2023-04-11 12:13:54.281,46.0904867,11.1156488,346.59,346.27,4.13,null
STON,2023-04-11 12:13:54.281,46.09026717166667,11.115570473333333,14.704412,180.0,-0.526708,1025
SMAR,2023-04-11 12:13:54.313,46.0904867,11.1156488,346.59,346.27,4.13,null
SMAR,2023-04-11 12:13:54.347,46.0904867,11.1156488,346.59,346.27,4.13,null
SMAR,2023-04-11 12:13:54.378,46.0904867,11.1156488,346.59,346.27,4.13,null
SMAR,2023-04-11 12:13:54.414,46.0904867,11.1156488,346.59,346.27,4.13,null
SMAR,2023-04-11 12:13:54.447,46.0904867,11.1156488,346.58,346.27,4.13,null
SMAR,2023-04-11 12:13:54.478,46.0904867,11.1156488,346.58,346.27,4.14,null
SMAR,2023-04-11 12:13:54.516,46.0904867,11.1156488,346.58,346.27,4.14,null
SMAR,2023-04-11 12:13:54.555,46.0904867,11.1156488,346.58,346.27,4.13,null
SMAR,2023-04-11 12:13:54.585,46.0904867,11.1156488,346.58,346.27,4.14,null
SMAR,2023-04-11 12:13:54.618,46.0904867,11.1156488,346.58,346.27,4.14,null
SMAR,2023-04-11 12:13:54.646,46.0904867,11.1156488,346.58,346.27,4.14,null
SMAR,2023-04-11 12:13:54.676,46.0906125,11.115681,346.58,346.27,4.14,null
SMAR,2023-04-11 12:13:54.717,46.0906125,11.115681,346.58,346.27,4.14,null
SMAR,2023-04-11 12:13:54.747,46.0906125,11.115681,346.58,346.27,4.14,null
STON,2023-04-11 12:13:54.747,46.09026717166667,11.115570473333333,14.575027,180.0,-0.117203,1025
SMAR,2023-04-11 12:13:54.777,46.0906125,11.115681,346.59,346.27,4.14,null
SMAR,2023-04-11 12:13:54.811,46.0906125,11.115681,346.59,346.27,4.14,null
SMAR,2023-04-11 12:13:54.842,46.0906125,11.115681,346.59,346.27,4.14,null
STON,2023-04-11 12:13:54.842,46.09026724,11.11557076,14.575027,180.0,-0.117203,1025
STON,2023-04-11 12:13:54.842,46.09026724,11.11557076,14.575027,180.0,-0.117203,1025
SMAR,2023-04-11 12:13:54.875,46.0906125,11.115681,346.58,346.27,4.14,null
SMAR,2023-04-11 12:13:54.916,46.0906125,11.115681,346.59,346.27,4.14,null
STON,2023-04-11 12:13:54.916,46.09026724,11.11557076,14.777911,180.0,0.142693,1025
SMAR,2023-04-11 12:13:54.956,46.0906125,11.115681,346.59,346.27,4.14,null
SMAR,2023-04-11 12:13:54.983,46.0906125,11.115681,346.59,346.27,4.14,null
SMAR,2023-04-11 12:13:55.023,46.0906125,11.115681,346.59,346.27,4.14,null
SMAR,2023-04-11 12:13:55.061,46.0906125,11.115681,346.59,346.27,4.14,null
SMAR,2023-04-11 12:13:55.103,46.0906125,11.115681,346.59,346.27,4.14,null
STON,2023-04-11 12:13:55.103,46.09026724,11.11557076,14.896008,180.0,0.269222,1025
SMAR,2023-04-11 12:13:55.131,46.0906125,11.115681,346.59,346.27,4.14,null
SMAR,2023-04-11 12:13:55.152,46.0906125,11.115681,346.59,346.27,4.14,null
SMAR,2023-04-11 12:13:55.181,46.0906125,11.115681,346.59,346.27,4.14,null
SMAR,2023-04-11 12:13:55.214,46.0906125,11.115681,346.59,346.27,4.14,null
SMAR,2023-04-11 12:13:55.25,46.0906125,11.115681,346.59,346.27,4.14,null
SMAR,2023-04-11 12:13:55.281,46.0906125,11.115681,346.59,346.27,4.13,null
SMAR,2023-04-11 12:13:55.31,46.0906125,11.115681,346.59,346.27,4.13,null
STON,2023-04-11 12:13:55.31,46.09026724,11.11557076,14.769132,180.0,0.206251,1025
SMAR,2023-04-11 12:13:55.345,46.0906125,11.115681,346.59,346.27,4.13,null
SMAR,2023-04-11 12:13:55.377,46.0906125,11.115681,346.59,346.27,4.13,null
SMAR,2023-04-11 12:13:55.421,46.0906125,11.115681,346.59,346.27,4.13,null
SMAR,2023-04-11 12:13:55.444,46.0906125,11.115681,346.59,346.27,4.13,null
STON,2023-04-11 12:13:55.444,46.09026724,11.11557076,14.861366,180.0,0.415001,1025
SMAR,2023-04-11 12:13:55.485,46.0906125,11.115681,346.59,346.27,4.13,null
SMAR,2023-04-11 12:13:55.522,46.0906125,11.115681,346.59,346.27,4.13,null
SMAR,2023-04-11 12:13:55.554,46.0906125,11.115681,346.59,346.27,4.13,null
SMAR,2023-04-11 12:13:55.586,46.0906125,11.115681,346.59,346.27,4.13,null
SMAR,2023-04-11 12:13:55.62,46.0906125,11.115681,346.59,346.27,4.13,null
SMAR,2023-04-11 12:13:55.654,46.0906588,11.1157239,346.59,346.27,4.13,null
STON,2023-04-11 12:13:55.654,46.09026724,11.11557076,14.934273,180.0,0.479806,1025
SMAR,2023-04-11 12:13:55.69,46.0906588,11.1157239,346.59,346.27,4.13,null
SMAR,2023-04-11 12:13:55.719,46.0906588,11.1157239,346.59,346.27,4.13,null
STON,2023-04-11 12:13:55.719,46.09026738666667,11.115571116666667,14.934273,180.0,0.479806,1025
SMAR,2023-04-11 12:13:55.755,46.0906588,11.1157239,346.59,346.27,4.13,null
STON,2023-04-11 12:13:55.755,46.09026738666667,11.115571116666667,14.934273,180.0,0.479806,1025
SMAR,2023-04-11 12:13:55.787,46.0906588,11.1157239,346.59,346.27,4.13,null
SMAR,2023-04-11 12:13:55.819,46.0906588,11.1157239,346.59,346.26,4.13,null
SMAR,2023-04-11 12:13:55.853,46.0906588,11.1157239,346.59,346.26,4.13,null
SMAR,2023-04-11 12:13:55.884,46.0906588,11.1157239,346.59,346.27,4.13,null
SMAR,2023-04-11 12:13:55.919,46.0906588,11.1157239,346.59,346.27,4.13,null
SMAR,2023-04-11 12:13:55.951,46.0906588,11.1157239,346.59,346.27,4.13,null
STON,2023-04-11 12:13:55.951,46.09026738666667,11.115571116666667,14.742811,180.0,0.212992,1025
SMAR,2023-04-11 12:13:55.988,46.0906588,11.1157239,346.59,346.27,4.13,null
SMAR,2023-04-11 12:13:56.019,46.0906588,11.1157239,346.59,346.27,4.13,null
SMAR,2023-04-11 12:13:56.05,46.0906588,11.1157239,346.59,346.27,4.13,null
STON,2023-04-11 12:13:56.05,46.09026738666667,11.115571116666667,14.82638,180.0,0.420462,1025
SMAR,2023-04-11 12:13:56.085,46.0906588,11.1157239,346.59,346.27,4.13,null
SMAR,2023-04-11 12:13:56.124,46.0906588,11.1157239,346.59,346.26,4.13,null
SMAR,2023-04-11 12:13:56.158,46.0906588,11.1157239,346.59,346.26,4.13,null
SMAR,2023-04-11 12:13:56.197,46.0906588,11.1157239,346.59,346.26,4.13,null
SMAR,2023-04-11 12:13:56.221,46.0906588,11.1157239,346.59,346.26,4.13,null
SMAR,2023-04-11 12:13:56.253,46.0906588,11.1157239,346.59,346.26,4.13,null
SMAR,2023-04-11 12:13:56.282,46.0906588,11.1157239,346.59,346.26,4.13,null
STON,2023-04-11 12:13:56.282,46.09026738666667,11.115571116666667,14.762383,180.0,0.636941,1025
SMAR,2023-04-11 12:13:56.323,46.0906588,11.1157239,346.59,346.26,4.13,null
SMAR,2023-04-11 12:13:56.355,46.0906588,11.1157239,346.59,346.26,4.13,null
SMAR,2023-04-11 12:13:56.394,46.0906588,11.1157239,346.59,346.26,4.14,null
SMAR,2023-04-11 12:13:56.425,46.0906588,11.1157239,346.59,346.26,4.14,null
SMAR,2023-04-11 12:13:56.46,46.0906588,11.1157239,346.59,346.26,4.14,null
SMAR,2023-04-11 12:13:56.487,46.0906588,11.1157239,346.59,346.26,4.14,null
SMAR,2023-04-11 12:13:56.519,46.0906588,11.1157239,346.59,346.26,4.14,null
STON,2023-04-11 12:13:56.519,46.09026738666667,11.115571116666667,14.992197,180.0,0.685982,1025
SMAR,2023-04-11 12:13:56.556,46.0906588,11.1157239,346.59,346.26,4.14,null
SMAR,2023-04-11 12:13:56.581,46.0906588,11.1157239,346.59,346.26,4.14,null
SMAR,2023-04-11 12:13:56.615,46.0906588,11.1157239,346.59,346.26,4.14,null
SMAR,2023-04-11 12:13:56.646,46.0906846,11.1157441,346.59,346.26,4.14,null
SMAR,2023-04-11 12:13:56.68,46.0906846,11.1157441,346.59,346.27,4.14,null
STON,2023-04-11 12:13:56.68,46.09026738666667,11.115571116666667,15.206533,180.0,0.679642,1025
SMAR,2023-04-11 12:13:56.716,46.0906846,11.1157441,346.59,346.27,4.14,null
SMAR,2023-04-11 12:13:56.757,46.0906846,11.1157441,346.59,346.27,4.13,null
SMAR,2023-04-11 12:13:56.785,46.0906846,11.1157441,346.59,346.27,4.14,null
SMAR,2023-04-11 12:13:56.819,46.0906846,11.1157441,346.59,346.27,4.14,null
SMAR,2023-04-11 12:13:56.855,46.0906846,11.1157441,346.59,346.27,4.13,null
STON,2023-04-11 12:13:56.855,46.09026764666667,11.11557153,15.206533,180.0,0.679642,1025
SMAR,2023-04-11 12:13:56.884,46.0906846,11.1157441,346.59,346.27,4.14,null
SMAR,2023-04-11 12:13:56.914,46.0906846,11.1157441,346.59,346.27,4.14,null
STON,2023-04-11 12:13:56.914,46.09026764666667,11.11557153,15.206533,180.0,0.679642,1025
STON,2023-04-11 12:13:56.914,46.09026764666667,11.11557153,15.225101,180.0,0.58571,1025
SMAR,2023-04-11 12:13:56.955,46.0906846,11.1157441,346.59,346.27,4.14,null
SMAR,2023-04-11 12:13:56.986,46.0906846,11.1157441,346.59,346.27,4.14,null
SMAR,2023-04-11 12:13:57.022,46.0906846,11.1157441,346.59,346.27,4.14,null
SMAR,2023-04-11 12:13:57.055,46.0906846,11.1157441,346.59,346.27,4.14,null
SMAR,2023-04-11 12:13:57.087,46.0906846,11.1157441,346.58,346.27,4.14,null
STON,2023-04-11 12:13:57.087,46.09026764666667,11.11557153,15.151004,180.0,0.496405,1025
SMAR,2023-04-11 12:13:57.12,46.0906846,11.1157441,346.58,346.27,4.14,null
SMAR,2023-04-11 12:13:57.15,46.0906846,11.1157441,346.58,346.27,4.14,null
SMAR,2023-04-11 12:13:57.184,46.0906846,11.1157441,346.58,346.27,4.14,null
SMAR,2023-04-11 12:13:57.219,46.0906846,11.1157441,346.58,346.27,4.14,null
SMAR,2023-04-11 12:13:57.251,46.0906846,11.1157441,346.59,346.27,4.14,null
SMAR,2023-04-11 12:13:57.281,46.0906846,11.1157441,346.59,346.27,4.14,null
SMAR,2023-04-11 12:13:57.319,46.0906846,11.1157441,346.59,346.27,4.14,null
SMAR,2023-04-11 12:13:57.348,46.0906846,11.1157441,346.59,346.27,4.14,null
SMAR,2023-04-11 12:13:57.381,46.0906846,11.1157441,346.59,346.27,4.14,null
STON,2023-04-11 12:13:57.381,46.09026764666667,11.11557153,14.629823,180.0,0.587479,1025
SMAR,2023-04-11 12:13:57.417,46.0906846,11.1157441,346.59,346.27,4.14,null
SMAR,2023-04-11 12:13:57.451,46.0906846,11.1157441,346.59,346.27,4.14,null
SMAR,2023-04-11 12:13:57.48,46.0906846,11.1157441,346.59,346.27,4.13,null
STON,2023-04-11 12:13:57.48,46.09026764666667,11.11557153,14.735423,180.0,0.657674,1025
SMAR,2023-04-11 12:13:57.515,46.0906846,11.1157441,346.59,346.27,4.14,null
SMAR,2023-04-11 12:13:57.555,46.0906846,11.1157441,346.59,346.27,4.14,null
SMAR,2023-04-11 12:13:57.586,46.0906846,11.1157441,346.59,346.27,4.14,null
SMAR,2023-04-11 12:13:57.616,46.0906846,11.1157441,346.59,346.27,4.14,null
SMAR,2023-04-11 12:13:57.648,46.0906846,11.1157441,346.59,346.27,4.14,null
SMAR,2023-04-11 12:13:57.679,46.0906872,11.1157473,346.59,346.27,4.14,null
STON,2023-04-11 12:13:57.679,46.09026764666667,11.11557153,14.59339,180.0,0.600991,1025
SMAR,2023-04-11 12:13:57.712,46.0906872,11.1157473,346.59,346.27,4.14,null
SMAR,2023-04-11 12:13:57.747,46.0906872,11.1157473,346.59,346.27,4.13,null
STON,2023-04-11 12:13:57.747,46.090267865,11.115571848333333,14.59339,180.0,0.600991,1025
STON,2023-04-11 12:13:57.747,46.090267865,11.115571848333333,14.59339,180.0,0.600991,1025
SMAR,2023-04-11 12:13:57.784,46.0906872,11.1157473,346.59,346.26,4.13,null
SMAR,2023-04-11 12:13:57.813,46.0906872,11.1157473,346.59,346.26,4.13,null
SMAR,2023-04-11 12:13:57.855,46.0906872,11.1157473,346.59,346.26,4.13,null
SMAR,2023-04-11 12:13:57.886,46.0906872,11.1157473,346.59,346.27,4.13,null
SMAR,2023-04-11 12:13:57.921,46.0906872,11.1157473,346.59,346.26,4.13,null
STON,2023-04-11 12:13:57.921,46.090267865,11.115571848333333,14.584558,180.0,0.683222,1025
SMAR,2023-04-11 12:13:57.952,46.0906872,11.1157473,346.59,346.26,4.13,null
SMAR,2023-04-11 12:13:57.988,46.0906872,11.1157473,346.59,346.26,4.13,null
SMAR,2023-04-11 12:13:58.018,46.0906872,11.1157473,346.59,346.26,4.13,null
SMAR,2023-04-11 12:13:58.055,46.0906872,11.1157473,346.59,346.26,4.13,null
SMAR,2023-04-11 12:13:58.085,46.0906872,11.1157473,346.59,346.26,4.13,null
STON,2023-04-11 12:13:58.085,46.090267865,11.115571848333333,14.66258,180.0,0.699163,1025
SMAR,2023-04-11 12:13:58.118,46.0906872,11.1157473,346.59,346.26,4.13,null
SMAR,2023-04-11 12:13:58.151,46.0906872,11.1157473,346.59,346.26,4.13,null
SMAR,2023-04-11 12:13:58.184,46.0906872,11.1157473,346.59,346.27,4.13,null
SMAR,2023-04-11 12:13:58.217,46.0906872,11.1157473,346.59,346.27,4.13,null
SMAR,2023-04-11 12:13:58.251,46.0906872,11.1157473,346.59,346.27,4.13,null
SMAR,2023-04-11 12:13:58.284,46.0906872,11.1157473,346.58,346.27,4.13,null
SMAR,2023-04-11 12:13:58.316,46.0906872,11.1157473,346.59,346.27,4.13,null
SMAR,2023-04-11 12:13:58.349,46.0906872,11.1157473,346.59,346.27,4.13,null
SMAR,2023-04-11 12:13:58.382,46.0906872,11.1157473,346.59,346.27,4.13,null
SMAR,2023-04-11 12:13:58.418,46.0906872,11.1157473,346.59,346.27,4.13,null
SMAR,2023-04-11 12:13:58.451,46.0906872,11.1157473,346.59,346.27,4.13,null
SMAR,2023-04-11 12:13:58.485,46.0906872,11.1157473,346.58,346.27,4.13,null
SMAR,2023-04-11 12:13:58.525,46.0906872,11.1157473,346.58,346.27,4.13,null
SMAR,2023-04-11 12:13:58.558,46.0906872,11.1157473,346.58,346.27,4.13,null
STON,2023-04-11 12:13:58.558,46.090267865,11.115571848333333,14.46026,180.0,0.629564,1025
STON,2023-04-11 12:13:58.558,46.090267865,11.115571848333333,14.433417,180.0,0.452782,1025
SMAR,2023-04-11 12:13:58.589,46.0906872,11.1157473,346.59,346.27,4.13,null
SMAR,2023-04-11 12:13:58.623,46.0906872,11.1157473,346.59,346.27,4.13,null
SMAR,2023-04-11 12:13:58.656,46.0906872,11.1157473,346.59,346.27,4.13,null
SMAR,2023-04-11 12:13:58.693,46.0906838,11.1157467,346.59,346.27,4.13,null
STON,2023-04-11 12:13:58.693,46.090267865,11.115571848333333,14.657178,180.0,0.926279,1025
SMAR,2023-04-11 12:13:58.722,46.0906838,11.1157467,346.59,346.27,4.13,null
STON,2023-04-11 12:13:58.722,46.09026812166667,11.115572221666667,14.657178,180.0,0.926279,1025
STON,2023-04-11 12:13:58.722,46.09026812166667,11.115572221666667,14.657178,180.0,0.926279,1025
SMAR,2023-04-11 12:13:58.753,46.0906838,11.1157467,346.58,346.27,4.13,null
SMAR,2023-04-11 12:13:58.788,46.0906838,11.1157467,346.58,346.27,4.13,null
SMAR,2023-04-11 12:13:58.821,46.0906838,11.1157467,346.58,346.27,4.13,null
SMAR,2023-04-11 12:13:58.852,46.0906838,11.1157467,346.58,346.27,4.13,null
SMAR,2023-04-11 12:13:58.886,46.0906838,11.1157467,346.58,346.27,4.13,null
STON,2023-04-11 12:13:58.886,46.09026812166667,11.115572221666667,14.530368,180.0,0.77995,1025
SMAR,2023-04-11 12:13:58.915,46.0906838,11.1157467,346.59,346.27,4.13,null
SMAR,2023-04-11 12:13:58.952,46.0906838,11.1157467,346.59,346.27,4.13,null
SMAR,2023-04-11 12:13:58.99,46.0906838,11.1157467,346.58,346.27,4.13,null
SMAR,2023-04-11 12:13:59.026,46.0906838,11.1157467,346.58,346.27,4.13,null
SMAR,2023-04-11 12:13:59.056,46.0906838,11.1157467,346.58,346.27,4.13,null
STON,2023-04-11 12:13:59.056,46.09026812166667,11.115572221666667,14.839081,180.0,0.72848,1025
SMAR,2023-04-11 12:13:59.088,46.0906838,11.1157467,346.58,346.27,4.13,null
SMAR,2023-04-11 12:13:59.123,46.0906838,11.1157467,346.58,346.27,4.13,null
SMAR,2023-04-11 12:13:59.155,46.0906838,11.1157467,346.59,346.27,4.13,null
SMAR,2023-04-11 12:13:59.195,46.0906838,11.1157467,346.59,346.27,4.13,null
SMAR,2023-04-11 12:13:59.224,46.0906838,11.1157467,346.59,346.27,4.13,null
SMAR,2023-04-11 12:13:59.258,46.0906838,11.1157467,346.59,346.27,4.13,null
SMAR,2023-04-11 12:13:59.295,46.0906838,11.1157467,346.59,346.26,4.12,null
SMAR,2023-04-11 12:13:59.327,46.0906838,11.1157467,346.59,346.26,4.12,null
STON,2023-04-11 12:13:59.327,46.09026812166667,11.115572221666667,14.771468,180.0,0.692753,1025
SMAR,2023-04-11 12:13:59.357,46.0906838,11.1157467,346.59,346.26,4.12,null
SMAR,2023-04-11 12:13:59.392,46.0906838,11.1157467,346.59,346.26,4.12,null
SMAR,2023-04-11 12:13:59.428,46.0906838,11.1157467,346.59,346.26,4.12,null
SMAR,2023-04-11 12:13:59.458,46.0906838,11.1157467,346.59,346.26,4.12,null
SMAR,2023-04-11 12:13:59.488,46.0906838,11.1157467,346.59,346.26,4.13,null
SMAR,2023-04-11 12:13:59.522,46.0906838,11.1157467,346.59,346.26,4.13,null
STON,2023-04-11 12:13:59.522,46.09026812166667,11.115572221666667,15.199155,180.0,0.518709,1025
SMAR,2023-04-11 12:13:59.555,46.0906838,11.1157467,346.59,346.26,4.13,null
SMAR,2023-04-11 12:13:59.588,46.0906838,11.1157467,346.59,346.26,4.12,null
SMAR,2023-04-11 12:13:59.63,46.0906838,11.1157467,346.59,346.27,4.12,null
SMAR,2023-04-11 12:13:59.658,46.0906842,11.1157478,346.59,346.26,4.12,null
SMAR,2023-04-11 12:13:59.691,46.0906842,11.1157478,346.59,346.26,4.12,null
SMAR,2023-04-11 12:13:59.723,46.0906842,11.1157478,346.58,346.26,4.12,null
STON,2023-04-11 12:13:59.723,46.09026812166667,11.115572221666667,15.423129,180.0,0.680574,1025
STON,2023-04-11 12:13:59.723,46.09026837166667,11.115572611666666,15.423129,180.0,0.680574,1025
STON,2023-04-11 12:13:59.723,46.09026837166667,11.115572611666666,15.423129,180.0,0.680574,1025
SMAR,2023-04-11 12:13:59.751,46.0906842,11.1157478,346.58,346.26,4.12,null
SMAR,2023-04-11 12:13:59.787,46.0906842,11.1157478,346.58,346.26,4.13,null
SMAR,2023-04-11 12:13:59.827,46.0906842,11.1157478,346.58,346.27,4.13,null
SMAR,2023-04-11 12:13:59.858,46.0906842,11.1157478,346.59,346.26,4.13,null
SMAR,2023-04-11 12:13:59.891,46.0906842,11.1157478,346.59,346.27,4.13,null
SMAR,2023-04-11 12:13:59.926,46.0906842,11.1157478,346.59,346.27,4.13,null
STON,2023-04-11 12:13:59.926,46.09026837166667,11.115572611666666,15.609037,180.0,0.702718,1025
SMAR,2023-04-11 12:13:59.96,46.0906842,11.1157478,346.59,346.27,4.13,null
SMAR,2023-04-11 12:13:59.991,46.0906842,11.1157478,346.59,346.26,4.12,null
SMAR,2023-04-11 12:14:00.022,46.0906842,11.1157478,346.59,346.26,4.12,null
SMAR,2023-04-11 12:14:00.059,46.0906842,11.1157478,346.59,346.26,4.12,null
SMAR,2023-04-11 12:14:00.09,46.0906842,11.1157478,346.59,346.27,4.12,null
STON,2023-04-11 12:14:00.09,46.09026837166667,11.115572611666666,15.805946,180.0,0.729802,1025
SMAR,2023-04-11 12:14:00.122,46.0906842,11.1157478,346.59,346.27,4.12,null
SMAR,2023-04-11 12:14:00.155,46.0906842,11.1157478,346.59,346.27,4.12,null
SMAR,2023-04-11 12:14:00.189,46.0906842,11.1157478,346.59,346.27,4.13,null
SMAR,2023-04-11 12:14:00.227,46.0906842,11.1157478,346.59,346.27,4.12,null
SMAR,2023-04-11 12:14:00.256,46.0906842,11.1157478,346.59,346.27,4.12,null
STON,2023-04-11 12:14:00.256,46.09026837166667,11.115572611666666,15.707568,180.0,0.720142,1025
SMAR,2023-04-11 12:14:00.292,46.0906842,11.1157478,346.59,346.27,4.12,null
SMAR,2023-04-11 12:14:00.332,46.0906842,11.1157478,346.59,346.27,4.12,null
SMAR,2023-04-11 12:14:00.364,46.0906842,11.1157478,346.59,346.27,4.12,null
SMAR,2023-04-11 12:14:00.398,46.0906842,11.1157478,346.59,346.27,4.12,null
SMAR,2023-04-11 12:14:00.431,46.0906842,11.1157478,346.59,346.27,4.12,null
SMAR,2023-04-11 12:14:00.461,46.0906842,11.1157478,346.59,346.27,4.12,null
SMAR,2023-04-11 12:14:00.508,46.0906842,11.1157478,346.59,346.27,4.12,null
SMAR,2023-04-11 12:14:00.537,46.0906842,11.1157478,346.59,346.27,4.12,null
STON,2023-04-11 12:14:00.537,46.09026837166667,11.115572611666666,15.693568,180.0,0.738533,1025
SMAR,2023-04-11 12:14:00.562,46.0906842,11.1157478,346.59,346.27,4.12,null
SMAR,2023-04-11 12:14:00.591,46.0906842,11.1157478,346.59,346.26,4.12,null
SMAR,2023-04-11 12:14:00.623,46.0906842,11.1157478,346.59,346.26,4.12,null
SMAR,2023-04-11 12:14:00.656,46.0906894,11.1157585,346.59,346.27,4.12,null
SMAR,2023-04-11 12:14:00.688,46.0906894,11.1157585,346.59,346.27,4.12,null
SMAR,2023-04-11 12:14:00.724,46.0906894,11.1157585,346.59,346.27,4.12,null
SMAR,2023-04-11 12:14:00.758,46.0906894,11.1157585,346.59,346.27,4.12,null
STON,2023-04-11 12:14:00.758,46.09026837166667,11.115572611666666,15.73416,180.0,0.724368,1025
STON,2023-04-11 12:14:00.758,46.0902686,11.115572958333333,15.73416,180.0,0.724368,1025
STON,2023-04-11 12:14:00.758,46.0902686,11.115572958333333,15.73416,180.0,0.724368,1025
SMAR,2023-04-11 12:14:00.791,46.0906894,11.1157585,346.59,346.27,4.12,null
SMAR,2023-04-11 12:14:00.826,46.0906894,11.1157585,346.59,346.26,4.12,null
SMAR,2023-04-11 12:14:00.857,46.0906894,11.1157585,346.59,346.27,4.12,null
SMAR,2023-04-11 12:14:00.89,46.0906894,11.1157585,346.59,346.26,4.12,null
STON,2023-04-11 12:14:00.89,46.0902686,11.115572958333333,15.839607,180.0,0.793799,1025
SMAR,2023-04-11 12:14:00.924,46.0906894,11.1157585,346.59,346.26,4.12,null
SMAR,2023-04-11 12:14:00.961,46.0906894,11.1157585,346.59,346.26,4.12,null
SMAR,2023-04-11 12:14:00.993,46.0906894,11.1157585,346.59,346.26,4.12,null
SMAR,2023-04-11 12:14:01.027,46.0906894,11.1157585,346.59,346.27,4.12,null
SMAR,2023-04-11 12:14:01.058,46.0906894,11.1157585,346.59,346.27,4.12,null
STON,2023-04-11 12:14:01.058,46.0902686,11.115572958333333,15.76677,180.0,1.087125,1025
SMAR,2023-04-11 12:14:01.093,46.0906894,11.1157585,346.59,346.26,4.12,null
SMAR,2023-04-11 12:14:01.128,46.0906894,11.1157585,346.59,346.26,4.12,null
SMAR,2023-04-11 12:14:01.16,46.0906894,11.1157585,346.59,346.26,4.12,null
SMAR,2023-04-11 12:14:01.195,46.0906894,11.1157585,346.59,346.26,4.12,null
SMAR,2023-04-11 12:14:01.229,46.0906894,11.1157585,346.59,346.26,4.12,null
SMAR,2023-04-11 12:14:01.269,46.0906894,11.1157585,346.59,346.26,4.12,null
SMAR,2023-04-11 12:14:01.299,46.0906894,11.1157585,346.58,346.27,4.12,null
STON,2023-04-11 12:14:01.299,46.0902686,11.115572958333333,15.225542,180.0,1.540715,1025
SMAR,2023-04-11 12:14:01.332,46.0906894,11.1157585,346.58,346.27,4.12,null
SMAR,2023-04-11 12:14:01.359,46.0906894,11.1157585,346.59,346.27,4.12,null
SMAR,2023-04-11 12:14:01.396,46.0906894,11.1157585,346.59,346.27,4.12,null
SMAR,2023-04-11 12:14:01.434,46.0906894,11.1157585,346.59,346.27,4.12,null
SMAR,2023-04-11 12:14:01.463,46.0906894,11.1157585,346.59,346.27,4.12,null
SMAR,2023-04-11 12:14:01.498,46.0906894,11.1157585,346.59,346.26,4.12,null
STON,2023-04-11 12:14:01.498,46.0902686,11.115572958333333,14.324244,180.0,1.954928,1025
SMAR,2023-04-11 12:14:01.528,46.0906894,11.1157585,346.59,346.27,4.12,null
SMAR,2023-04-11 12:14:01.562,46.0906894,11.1157585,346.59,346.27,4.12,null
SMAR,2023-04-11 12:14:01.596,46.0906894,11.1157585,346.58,346.26,4.12,null
SMAR,2023-04-11 12:14:01.627,46.0906894,11.1157585,346.58,346.26,4.12,null
SMAR,2023-04-11 12:14:01.66,46.0906894,11.1157585,346.58,346.26,4.12,null
STON,2023-04-11 12:14:01.66,46.0902686,11.115572958333333,14.12448,180.0,2.030196,1025
SMAR,2023-04-11 12:14:01.695,46.0906961,11.1157721,346.58,346.27,4.12,null
SMAR,2023-04-11 12:14:01.728,46.0906961,11.1157721,346.59,346.27,4.12,null
SMAR,2023-04-11 12:14:01.763,46.0906961,11.1157721,346.59,346.27,4.12,null
SMAR,2023-04-11 12:14:01.796,46.0906961,11.1157721,346.59,346.27,4.13,null
SMAR,2023-04-11 12:14:01.829,46.0906961,11.1157721,346.59,346.27,4.12,null
STON,2023-04-11 12:14:01.829,46.090268773333335,11.115573313333334,14.12448,180.0,2.030196,1025
SMAR,2023-04-11 12:14:01.864,46.0906961,11.1157721,346.59,346.27,4.13,null
SMAR,2023-04-11 12:14:01.897,46.0906961,11.1157721,346.58,346.26,4.13,null
STON,2023-04-11 12:14:01.897,46.090268773333335,11.115573313333334,14.12448,180.0,2.030196,1025
SMAR,2023-04-11 12:14:01.933,46.0906961,11.1157721,346.58,346.26,4.13,null
STON,2023-04-11 12:14:01.933,46.090268773333335,11.115573313333334,13.663429,180.0,2.273462,1025
SMAR,2023-04-11 12:14:01.963,46.0906961,11.1157721,346.58,346.26,4.13,null
SMAR,2023-04-11 12:14:01.995,46.0906961,11.1157721,346.58,346.26,4.13,null
SMAR,2023-04-11 12:14:02.025,46.0906961,11.1157721,346.58,346.26,4.13,null
SMAR,2023-04-11 12:14:02.06,46.0906961,11.1157721,346.58,346.26,4.13,null
SMAR,2023-04-11 12:14:02.094,46.0906961,11.1157721,346.58,346.26,4.13,null
STON,2023-04-11 12:14:02.094,46.090268773333335,11.115573313333334,13.221024,180.0,1.787648,1025
SMAR,2023-04-11 12:14:02.129,46.0906961,11.1157721,346.58,346.27,4.13,null
SMAR,2023-04-11 12:14:02.16,46.0906961,11.1157721,346.58,346.27,4.13,null
SMAR,2023-04-11 12:14:02.196,46.0906961,11.1157721,346.58,346.27,4.13,null
SMAR,2023-04-11 12:14:02.228,46.0906961,11.1157721,346.58,346.27,4.13,null
SMAR,2023-04-11 12:14:02.264,46.0906961,11.1157721,346.58,346.27,4.13,null
STON,2023-04-11 12:14:02.264,46.090268773333335,11.115573313333334,12.453889,180.0,1.574896,1025
SMAR,2023-04-11 12:14:02.292,46.0906961,11.1157721,346.58,346.26,4.13,null
SMAR,2023-04-11 12:14:02.324,46.0906961,11.1157721,346.58,346.27,4.13,null
SMAR,2023-04-11 12:14:02.36,46.0906961,11.1157721,346.58,346.27,4.13,null
SMAR,2023-04-11 12:14:02.393,46.0906961,11.1157721,346.59,346.26,4.13,null
SMAR,2023-04-11 12:14:02.428,46.0906961,11.1157721,346.59,346.26,4.13,null
SMAR,2023-04-11 12:14:02.458,46.0906961,11.1157721,346.59,346.26,4.13,null
SMAR,2023-04-11 12:14:02.495,46.0906961,11.1157721,346.58,346.26,4.13,null
STON,2023-04-11 12:14:02.495,46.090268773333335,11.115573313333334,10.187474,180.0,-0.08129,1025
SMAR,2023-04-11 12:14:02.54,46.0906978,11.1157754,346.59,346.26,4.13,null
SMAR,2023-04-11 12:14:02.572,46.0906978,11.1157754,346.59,346.26,4.13,null
SMAR,2023-04-11 12:14:02.607,46.0906978,11.1157754,346.59,346.27,4.13,null
SMAR,2023-04-11 12:14:02.637,46.0906978,11.1157754,346.59,346.27,4.13,null
SMAR,2023-04-11 12:14:02.666,46.0906978,11.1157754,346.59,346.26,4.13,null
SMAR,2023-04-11 12:14:02.699,46.0909985,11.1156063,346.59,346.27,4.13,null
STON,2023-04-11 12:14:02.699,46.090268773333335,11.115573313333334,10.339249,180.0,0.102178,1025
SMAR,2023-04-11 12:14:02.728,46.0909985,11.1156063,346.59,346.27,4.13,null
STON,2023-04-11 12:14:02.728,46.09026877666667,11.115573406666666,10.339249,180.0,0.102178,1025
SMAR,2023-04-11 12:14:02.764,46.0909985,11.1156063,346.59,346.27,4.13,null
STON,2023-04-11 12:14:02.764,46.09026877666667,11.115573406666666,10.339249,180.0,0.102178,1025
SMAR,2023-04-11 12:14:02.817,46.0909985,11.1156063,346.59,346.27,4.13,null
SMAR,2023-04-11 12:14:02.84,46.0909985,11.1156063,346.59,346.27,4.13,null
SMAR,2023-04-11 12:14:02.866,46.0909985,11.1156063,346.59,346.27,4.13,null
SMAR,2023-04-11 12:14:02.904,46.0909985,11.1156063,346.59,346.27,4.13,null
SMAR,2023-04-11 12:14:02.933,46.0909985,11.1156063,346.59,346.27,4.13,null
STON,2023-04-11 12:14:02.933,46.09026877666667,11.115573406666666,11.569885,180.0,-1.060286,1025
SMAR,2023-04-11 12:14:02.963,46.0909985,11.1156063,346.59,346.27,4.13,null
SMAR,2023-04-11 12:14:02.996,46.0909985,11.1156063,346.59,346.27,4.13,null
SMAR,2023-04-11 12:14:03.03,46.0909985,11.1156063,346.59,346.27,4.13,null
SMAR,2023-04-11 12:14:03.065,46.0909985,11.1156063,346.59,346.27,4.13,null
SMAR,2023-04-11 12:14:03.094,46.0909985,11.1156063,346.59,346.27,4.13,null
STON,2023-04-11 12:14:03.094,46.09026877666667,11.115573406666666,10.49077,180.0,0.131307,1025
SMAR,2023-04-11 12:14:03.127,46.0909985,11.1156063,346.59,346.27,4.13,null
SMAR,2023-04-11 12:14:03.164,46.0909985,11.1156063,346.59,346.27,4.13,null
SMAR,2023-04-11 12:14:03.201,46.0909985,11.1156063,346.59,346.27,4.13,null
SMAR,2023-04-11 12:14:03.23,46.0909985,11.1156063,346.59,346.27,4.13,null
SMAR,2023-04-11 12:14:03.264,46.0909985,11.1156063,346.59,346.27,4.13,null
STON,2023-04-11 12:14:03.264,46.09026877666667,11.115573406666666,10.260295,180.0,0.41912,1025
SMAR,2023-04-11 12:14:03.3,46.0909985,11.1156063,346.59,346.27,4.13,null
SMAR,2023-04-11 12:14:03.333,46.0909985,11.1156063,346.59,346.27,4.13,null
SMAR,2023-04-11 12:14:03.364,46.0909985,11.1156063,346.59,346.27,4.13,null
SMAR,2023-04-11 12:14:03.401,46.0909985,11.1156063,346.59,346.27,4.13,null
SMAR,2023-04-11 12:14:03.437,46.0909985,11.1156063,346.59,346.27,4.13,null
SMAR,2023-04-11 12:14:03.467,46.0909985,11.1156063,346.59,346.27,4.13,null
SMAR,2023-04-11 12:14:03.501,46.0909985,11.1156063,346.59,346.27,4.13,null
SMAR,2023-04-11 12:14:03.534,46.0909985,11.1156063,346.59,346.27,4.13,null
STON,2023-04-11 12:14:03.534,46.09026877666667,11.115573406666666,10.30124,180.0,0.593431,1025
SMAR,2023-04-11 12:14:03.566,46.0909985,11.1156063,346.59,346.27,4.13,null
SMAR,2023-04-11 12:14:03.603,46.0909985,11.1156063,346.59,346.27,4.13,null
SMAR,2023-04-11 12:14:03.632,46.0909985,11.1156063,346.59,346.27,4.13,null
SMAR,2023-04-11 12:14:03.663,46.0912054,11.1154908,346.59,346.27,4.13,null
SMAR,2023-04-11 12:14:03.696,46.0912054,11.1154908,346.59,346.27,4.13,null
SMAR,2023-04-11 12:14:03.732,46.0912054,11.1154908,346.59,346.27,4.13,null
SMAR,2023-04-11 12:14:03.767,46.0912054,11.1154908,346.59,346.27,4.13,null
SMAR,2023-04-11 12:14:03.8,46.0912054,11.1154908,346.59,346.27,4.13,null
SMAR,2023-04-11 12:14:03.835,46.0912054,11.1154908,346.59,346.27,4.13,null
SMAR,2023-04-11 12:14:03.865,46.0912054,11.1154908,346.59,346.27,4.13,null
SMAR,2023-04-11 12:14:03.899,46.0912054,11.1154908,346.59,346.27,4.13,null
SMAR,2023-04-11 12:14:03.933,46.0912054,11.1154908,346.59,346.27,4.13,null
SMAR,2023-04-11 12:14:03.967,46.0912054,11.1154908,346.59,346.27,4.13,null
STON,2023-04-11 12:14:03.967,46.09026877666667,11.115573406666666,10.687749,180.0,0.343111,1025
STON,2023-04-11 12:14:03.967,46.09026895833333,11.115573403333334,10.687749,180.0,0.343111,1025
STON,2023-04-11 12:14:03.967,46.09026895833333,11.115573403333334,10.687749,180.0,0.343111,1025
SMAR,2023-04-11 12:14:03.998,46.0912054,11.1154908,346.59,346.27,4.13,null
STON,2023-04-11 12:14:03.998,46.09026895833333,11.115573403333334,9.830423,180.0,0.849597,1025
SMAR,2023-04-11 12:14:04.031,46.0912054,11.1154908,346.59,346.27,4.13,null
SMAR,2023-04-11 12:14:04.067,46.0912054,11.1154908,346.59,346.27,4.13,null
SMAR,2023-04-11 12:14:04.101,46.0912054,11.1154908,346.59,346.27,4.13,null
SMAR,2023-04-11 12:14:04.13,46.0912054,11.1154908,346.59,346.27,4.13,null
STON,2023-04-11 12:14:04.13,46.09026895833333,11.115573403333334,10.054257,180.0,0.863671,1025
SMAR,2023-04-11 12:14:04.165,46.0912054,11.1154908,346.59,346.27,4.13,null
SMAR,2023-04-11 12:14:04.203,46.0912054,11.1154908,346.59,346.27,4.13,null
SMAR,2023-04-11 12:14:04.238,46.0912054,11.1154908,346.58,346.27,4.13,null
SMAR,2023-04-11 12:14:04.267,46.0912054,11.1154908,346.58,346.27,4.13,null
SMAR,2023-04-11 12:14:04.301,46.0912054,11.1154908,346.58,346.27,4.13,null
STON,2023-04-11 12:14:04.301,46.09026895833333,11.115573403333334,9.916811,180.0,1.099024,1025
SMAR,2023-04-11 12:14:04.332,46.0912054,11.1154908,346.58,346.27,4.13,null
SMAR,2023-04-11 12:14:04.369,46.0912054,11.1154908,346.58,346.27,4.13,null
SMAR,2023-04-11 12:14:04.402,46.0912054,11.1154908,346.58,346.27,4.13,null
SMAR,2023-04-11 12:14:04.438,46.0912054,11.1154908,346.58,346.27,4.13,null
SMAR,2023-04-11 12:14:04.474,46.0912054,11.1154908,346.58,346.27,4.13,null
SMAR,2023-04-11 12:14:04.503,46.0912054,11.1154908,346.58,346.27,4.13,null
SMAR,2023-04-11 12:14:04.544,46.0912054,11.1154908,346.58,346.27,4.13,null
STON,2023-04-11 12:14:04.544,46.09026895833333,11.115573403333334,9.613377,180.0,0.971054,1025
SMAR,2023-04-11 12:14:04.576,46.0912054,11.1154908,346.59,346.27,4.13,null
SMAR,2023-04-11 12:14:04.605,46.0912054,11.1154908,346.58,346.27,4.13,null
SMAR,2023-04-11 12:14:04.642,46.0912054,11.1154908,346.58,346.27,4.13,null
SMAR,2023-04-11 12:14:04.669,46.0912054,11.1154908,346.59,346.27,4.13,null
SMAR,2023-04-11 12:14:04.704,46.0912054,11.1154908,346.58,346.27,4.13,null
SMAR,2023-04-11 12:14:04.739,46.0912405,11.1154703,346.58,346.27,4.13,null
STON,2023-04-11 12:14:04.739,46.09026895833333,11.115573403333334,9.603206,180.0,1.125409,1025
SMAR,2023-04-11 12:14:04.771,46.0912405,11.1154703,346.58,346.27,4.13,null
STON,2023-04-11 12:14:04.771,46.09026905,11.115573058333334,9.603206,180.0,1.125409,1025
STON,2023-04-11 12:14:04.771,46.09026905,11.115573058333334,9.603206,180.0,1.125409,1025
SMAR,2023-04-11 12:14:04.801,46.0912405,11.1154703,346.58,346.27,4.13,null
SMAR,2023-04-11 12:14:04.836,46.0912405,11.1154703,346.58,346.27,4.13,null
SMAR,2023-04-11 12:14:04.871,46.0912405,11.1154703,346.58,346.27,4.13,null
SMAR,2023-04-11 12:14:04.903,46.0912405,11.1154703,346.58,346.27,4.13,null
SMAR,2023-04-11 12:14:04.934,46.0912405,11.1154703,346.58,346.27,4.13,null
STON,2023-04-11 12:14:04.934,46.09026905,11.115573058333334,9.236421,180.0,1.014075,1025
SMAR,2023-04-11 12:14:04.965,46.0912405,11.1154703,346.58,346.27,4.13,null
SMAR,2023-04-11 12:14:05.001,46.0912405,11.1154703,346.58,346.27,4.13,null
SMAR,2023-04-11 12:14:05.04,46.0912405,11.1154703,346.58,346.27,4.13,null
SMAR,2023-04-11 12:14:05.072,46.0912405,11.1154703,346.58,346.27,4.13,null
SMAR,2023-04-11 12:14:05.103,46.0912405,11.1154703,346.58,346.27,4.14,null
SMAR,2023-04-11 12:14:05.136,46.0912405,11.1154703,346.58,346.27,4.13,null
SMAR,2023-04-11 12:14:05.17,46.0912405,11.1154703,346.58,346.27,4.14,null
STON,2023-04-11 12:14:05.17,46.09026905,11.115573058333334,9.401088,180.0,1.277095,1025
SMAR,2023-04-11 12:14:05.209,46.0912405,11.1154703,346.59,346.27,4.13,null
SMAR,2023-04-11 12:14:05.25,46.0912405,11.1154703,346.59,346.27,4.13,null
SMAR,2023-04-11 12:14:05.28,46.0912405,11.1154703,346.59,346.27,4.13,null
SMAR,2023-04-11 12:14:05.308,46.0912405,11.1154703,346.59,346.27,4.14,null
STON,2023-04-11 12:14:05.308,46.09026905,11.115573058333334,9.19668,180.0,1.191832,1025
SMAR,2023-04-11 12:14:05.339,46.0912405,11.1154703,346.59,346.27,4.14,null
SMAR,2023-04-11 12:14:05.37,46.0912405,11.1154703,346.59,346.27,4.14,null
SMAR,2023-04-11 12:14:05.409,46.0912405,11.1154703,346.59,346.27,4.14,null
SMAR,2023-04-11 12:14:05.444,46.0912405,11.1154703,346.59,346.27,4.14,null
SMAR,2023-04-11 12:14:05.475,46.0912405,11.1154703,346.59,346.27,4.14,null
SMAR,2023-04-11 12:14:05.508,46.0912405,11.1154703,346.59,346.27,4.14,null
SMAR,2023-04-11 12:14:05.548,46.0912405,11.1154703,346.59,346.27,4.14,null
STON,2023-04-11 12:14:05.548,46.09026905,11.115573058333334,9.216617,180.0,1.162379,1025
SMAR,2023-04-11 12:14:05.582,46.0912405,11.1154703,346.59,346.27,4.14,null
SMAR,2023-04-11 12:14:05.611,46.0912405,11.1154703,346.59,346.28,4.14,null
SMAR,2023-04-11 12:14:05.638,46.0912405,11.1154703,346.59,346.27,4.14,null
SMAR,2023-04-11 12:14:05.669,46.0912405,11.1154703,346.59,346.27,4.14,null
SMAR,2023-04-11 12:14:05.7,46.0912297,11.1154757,346.59,346.28,4.14,null
SMAR,2023-04-11 12:14:05.735,46.0912297,11.1154757,346.59,346.27,4.14,null
STON,2023-04-11 12:14:05.735,46.09026905,11.115573058333334,9.312359,180.0,0.952961,1025
SMAR,2023-04-11 12:14:05.772,46.0912297,11.1154757,346.59,346.28,4.14,null
STON,2023-04-11 12:14:05.772,46.09026909166667,11.115572511666667,9.312359,180.0,0.952961,1025
STON,2023-04-11 12:14:05.772,46.09026909166667,11.115572511666667,9.312359,180.0,0.952961,1025
SMAR,2023-04-11 12:14:05.805,46.0912297,11.1154757,346.59,346.27,4.14,null
SMAR,2023-04-11 12:14:05.845,46.0912297,11.1154757,346.59,346.27,4.14,null
SMAR,2023-04-11 12:14:05.879,46.0912297,11.1154757,346.59,346.28,4.14,null
SMAR,2023-04-11 12:14:05.916,46.0912297,11.1154757,346.59,346.27,4.14,null
STON,2023-04-11 12:14:05.916,46.09026909166667,11.115572511666667,9.300314,180.0,1.770497,1025
SMAR,2023-04-11 12:14:05.938,46.0912297,11.1154757,346.59,346.28,4.14,null
SMAR,2023-04-11 12:14:05.977,46.0912297,11.1154757,346.59,346.28,4.14,null
SMAR,2023-04-11 12:14:06.007,46.0912297,11.1154757,346.59,346.28,4.14,null
SMAR,2023-04-11 12:14:06.043,46.0912297,11.1154757,346.59,346.28,4.14,null
SMAR,2023-04-11 12:14:06.072,46.0912297,11.1154757,346.59,346.28,4.14,null
SMAR,2023-04-11 12:14:06.105,46.0912297,11.1154757,346.59,346.28,4.14,null
SMAR,2023-04-11 12:14:06.138,46.0912297,11.1154757,346.59,346.28,4.14,null
SMAR,2023-04-11 12:14:06.174,46.0912297,11.1154757,346.59,346.28,4.14,null
STON,2023-04-11 12:14:06.174,46.09026909166667,11.115572511666667,9.063475,180.0,1.65722,1025
SMAR,2023-04-11 12:14:06.217,46.0912297,11.1154757,346.58,346.28,4.14,null
SMAR,2023-04-11 12:14:06.244,46.0912297,11.1154757,346.58,346.28,4.14,null
SMAR,2023-04-11 12:14:06.281,46.0912297,11.1154757,346.59,346.28,4.14,null
SMAR,2023-04-11 12:14:06.31,46.0912297,11.1154757,346.58,346.27,4.14,null
SMAR,2023-04-11 12:14:06.341,46.0912297,11.1154757,346.58,346.27,4.14,null
SMAR,2023-04-11 12:14:06.375,46.0912297,11.1154757,346.58,346.28,4.14,null
SMAR,2023-04-11 12:14:06.405,46.0912297,11.1154757,346.58,346.28,4.14,null
SMAR,2023-04-11 12:14:06.436,46.0912297,11.1154757,346.58,346.28,4.14,null
SMAR,2023-04-11 12:14:06.47,46.0912297,11.1154757,346.58,346.28,4.14,null
SMAR,2023-04-11 12:14:06.506,46.0912297,11.1154757,346.58,346.28,4.14,null
SMAR,2023-04-11 12:14:06.543,46.0912297,11.1154757,346.58,346.28,4.14,null
STON,2023-04-11 12:14:06.543,46.09026909166667,11.115572511666667,8.598333,180.0,1.50952,1025
SMAR,2023-04-11 12:14:06.576,46.0912297,11.1154757,346.58,346.28,4.14,null
SMAR,2023-04-11 12:14:06.606,46.0912297,11.1154757,346.58,346.27,4.14,null
SMAR,2023-04-11 12:14:06.639,46.0912297,11.1154757,346.58,346.27,4.14,null
SMAR,2023-04-11 12:14:06.672,46.0912297,11.1154757,346.58,346.27,4.14,null
SMAR,2023-04-11 12:14:06.705,46.0912172,11.1154825,346.58,346.27,4.14,null
STON,2023-04-11 12:14:06.705,46.09026909166667,11.115572511666667,8.160557,180.0,1.211079,1025
SMAR,2023-04-11 12:14:06.739,46.0912172,11.1154825,346.58,346.27,4.14,null
SMAR,2023-04-11 12:14:06.775,46.0912172,11.1154825,346.58,346.27,4.14,null
SMAR,2023-04-11 12:14:06.808,46.0912172,11.1154825,346.59,346.27,4.14,null
SMAR,2023-04-11 12:14:06.842,46.0912172,11.1154825,346.59,346.27,4.14,null
SMAR,2023-04-11 12:14:06.873,46.0912172,11.1154825,346.59,346.27,4.14,null
STON,2023-04-11 12:14:06.873,46.09026913666667,11.11557214,8.160557,180.0,1.211079,1025
SMAR,2023-04-11 12:14:06.905,46.0912172,11.1154825,346.59,346.27,4.14,null
STON,2023-04-11 12:14:06.905,46.09026913666667,11.11557214,8.160557,180.0,1.211079,1025
SMAR,2023-04-11 12:14:06.94,46.0912172,11.1154825,346.59,346.27,4.14,null
SMAR,2023-04-11 12:14:06.971,46.0912172,11.1154825,346.59,346.27,4.14,null
SMAR,2023-04-11 12:14:07.009,46.0912172,11.1154825,346.59,346.27,4.14,null
STON,2023-04-11 12:14:07.009,46.09026913666667,11.11557214,7.901812,180.0,0.849212,1025
SMAR,2023-04-11 12:14:07.039,46.0912172,11.1154825,346.59,346.27,4.14,null
SMAR,2023-04-11 12:14:07.073,46.0912172,11.1154825,346.59,346.27,4.14,null
SMAR,2023-04-11 12:14:07.105,46.0912172,11.1154825,346.59,346.27,4.14,null
SMAR,2023-04-11 12:14:07.142,46.0912172,11.1154825,346.59,346.27,4.14,null
STON,2023-04-11 12:14:07.142,46.09026913666667,11.11557214,7.554131,180.0,0.41212,1025
SMAR,2023-04-11 12:14:07.174,46.0912172,11.1154825,346.59,346.27,4.14,null
SMAR,2023-04-11 12:14:07.21,46.0912172,11.1154825,346.59,346.27,4.14,null
SMAR,2023-04-11 12:14:07.25,46.0912172,11.1154825,346.59,346.27,4.14,null
SMAR,2023-04-11 12:14:07.284,46.0912172,11.1154825,346.59,346.27,4.13,null
SMAR,2023-04-11 12:14:07.311,46.0912172,11.1154825,346.59,346.27,4.13,null
STON,2023-04-11 12:14:07.311,46.09026913666667,11.11557214,8.263081,180.0,0.78719,1025
SMAR,2023-04-11 12:14:07.344,46.0912172,11.1154825,346.59,346.27,4.13,null
SMAR,2023-04-11 12:14:07.375,46.0912172,11.1154825,346.59,346.27,4.13,null
SMAR,2023-04-11 12:14:07.412,46.0912172,11.1154825,346.59,346.27,4.13,null
SMAR,2023-04-11 12:14:07.44,46.0912172,11.1154825,346.59,346.27,4.13,null
SMAR,2023-04-11 12:14:07.471,46.0912172,11.1154825,346.59,346.27,4.13,null
SMAR,2023-04-11 12:14:07.504,46.0912172,11.1154825,346.59,346.27,4.13,null
SMAR,2023-04-11 12:14:07.542,46.0912172,11.1154825,346.59,346.27,4.13,null
STON,2023-04-11 12:14:07.542,46.09026913666667,11.11557214,8.115533,180.0,0.318351,1025
SMAR,2023-04-11 12:14:07.574,46.0912172,11.1154825,346.59,346.27,4.13,null
SMAR,2023-04-11 12:14:07.608,46.0912172,11.1154825,346.59,346.27,4.13,null
SMAR,2023-04-11 12:14:07.643,46.0912172,11.1154825,346.59,346.27,4.13,null
SMAR,2023-04-11 12:14:07.673,46.0912172,11.1154825,346.59,346.27,4.13,null
SMAR,2023-04-11 12:14:07.707,46.0912067,11.1154883,346.59,346.27,4.13,null
SMAR,2023-04-11 12:14:07.741,46.0912067,11.1154883,346.59,346.27,4.13,null
STON,2023-04-11 12:14:07.741,46.09026913666667,11.11557214,7.804419,180.0,-0.036652,1025
SMAR,2023-04-11 12:14:07.776,46.0912067,11.1154883,346.59,346.27,4.13,null
STON,2023-04-11 12:14:07.776,46.09026915166667,11.11557204,7.804419,180.0,-0.036652,1025
STON,2023-04-11 12:14:07.776,46.09026915166667,11.11557204,7.804419,180.0,-0.036652,1025
SMAR,2023-04-11 12:14:07.808,46.0912067,11.1154883,346.59,346.27,4.13,null
SMAR,2023-04-11 12:14:07.844,46.0912067,11.1154883,346.59,346.27,4.13,null
SMAR,2023-04-11 12:14:07.874,46.0912067,11.1154883,346.59,346.27,4.13,null
SMAR,2023-04-11 12:14:07.906,46.0912067,11.1154883,346.59,346.27,4.13,null
