Input,Time,Latitude,Longitude,Pitch,Yaw,Roll,Stonex_status
STON,2023-04-11 15:30:30.68,46.09030377333333,11.115565143333333,13.042488,152.515173,13.668211,1
SMAR,2023-04-11 15:30:30.713,46.0902483,11.115515,350.05,7.76,3.04,null
SMAR,2023-04-11 15:30:30.753,46.0902483,11.115515,350.05,7.77,3.03,null
STON,2023-04-11 15:30:30.753,46.09030429166667,11.11556643,13.042488,152.515173,13.668211,1
SMAR,2023-04-11 15:30:30.785,46.0902483,11.115515,350.05,7.78,3.03,null
STON,2023-04-11 15:30:30.785,46.09030429166667,11.11556643,13.042488,152.515173,13.668211,1
SMAR,2023-04-11 15:30:30.823,46.0902483,11.115515,350.05,7.78,3.03,null
SMAR,2023-04-11 15:30:30.856,46.0902483,11.115515,350.05,7.77,3.03,null
SMAR,2023-04-11 15:30:30.891,46.0902483,11.115515,350.05,7.78,3.03,null
STON,2023-04-11 15:30:30.891,46.09030429166667,11.11556643,10.244987,152.15359899999999,6.62131,1
SMAR,2023-04-11 15:30:30.933,46.0902483,11.115515,350.05,7.78,3.03,null
SMAR,2023-04-11 15:30:30.964,46.0902483,11.115515,350.05,7.78,3.03,null
SMAR,2023-04-11 15:30:30.996,46.0902483,11.115515,350.05,7.78,3.03,null
SMAR,2023-04-11 15:30:31.031,46.0902483,11.115515,350.05,7.78,3.03,null
SMAR,2023-04-11 15:30:31.069,46.0902483,11.115515,350.05,7.78,3.03,null
SMAR,2023-04-11 15:30:31.092,46.0902483,11.115515,350.05,7.78,3.03,null
STON,2023-04-11 15:30:31.092,46.09030429166667,11.11556643,1.91554,152.451242,-4.974612,1
SMAR,2023-04-11 15:30:31.133,46.0902483,11.115515,350.05,7.78,3.03,null
SMAR,2023-04-11 15:30:31.16,46.0902483,11.115515,350.05,7.78,3.03,null
SMAR,2023-04-11 15:30:31.197,46.0902483,11.115515,350.06,7.77,3.02,null
SMAR,2023-04-11 15:30:31.23,46.0902483,11.115515,350.06,7.77,3.02,null
SMAR,2023-04-11 15:30:31.263,46.0902483,11.115515,350.06,7.77,3.02,null
SMAR,2023-04-11 15:30:31.294,46.0902483,11.115515,350.06,7.77,3.03,null
STON,2023-04-11 15:30:31.294,46.09030429166667,11.11556643,-2.774888,151.951128,-16.114981,1
SMAR,2023-04-11 15:30:31.33,46.0902483,11.115515,350.06,7.78,3.03,null
SMAR,2023-04-11 15:30:31.366,46.0902483,11.115515,350.06,7.78,3.03,null
SMAR,2023-04-11 15:30:31.393,46.0902483,11.115515,350.06,7.78,3.03,null
SMAR,2023-04-11 15:30:31.426,46.0902483,11.115515,350.06,7.78,3.03,null
SMAR,2023-04-11 15:30:31.462,46.0902483,11.115515,350.06,7.78,3.03,null
SMAR,2023-04-11 15:30:31.492,46.0902483,11.115515,350.06,7.78,3.03,null
SMAR,2023-04-11 15:30:31.523,46.0902483,11.115515,350.06,7.78,3.03,null
STON,2023-04-11 15:30:31.523,46.09030429166667,11.11556643,-5.204752,150.973198,-24.210678,1
SMAR,2023-04-11 15:30:31.56,46.0902483,11.115515,350.06,7.78,3.03,null
SMAR,2023-04-11 15:30:31.592,46.0902483,11.115515,350.06,7.77,3.03,null
SMAR,2023-04-11 15:30:31.632,46.0902483,11.115515,350.06,7.77,3.03,null
SMAR,2023-04-11 15:30:31.665,46.0902483,11.115515,350.06,7.78,3.03,null
SMAR,2023-04-11 15:30:31.694,46.0902483,11.115515,350.06,7.78,3.02,null
SMAR,2023-04-11 15:30:31.731,46.0902483,11.115515,350.06,7.78,3.02,null
STON,2023-04-11 15:30:31.731,46.09030429166667,11.11556643,8.452991,151.084335,-8.281279,1
SMAR,2023-04-11 15:30:31.762,46.0902483,11.115515,350.06,7.78,3.02,null
SMAR,2023-04-11 15:30:31.793,46.0902483,11.115515,350.06,7.78,3.02,null
SMAR,2023-04-11 15:30:31.827,46.0902483,11.115515,350.06,7.78,3.02,null
STON,2023-04-11 15:30:31.827,46.090305451666666,11.115567506666666,8.452991,151.084335,-8.281279,1
SMAR,2023-04-11 15:30:31.857,46.0902483,11.115515,350.06,7.78,3.02,null
STON,2023-04-11 15:30:31.857,46.090305451666666,11.115567506666666,8.452991,151.084335,-8.281279,1
SMAR,2023-04-11 15:30:31.893,46.0902483,11.115515,350.06,7.78,3.02,null
SMAR,2023-04-11 15:30:31.927,46.0902483,11.115515,350.06,7.78,3.02,null
SMAR,2023-04-11 15:30:31.961,46.0902483,11.115515,350.06,7.78,3.02,null
SMAR,2023-04-11 15:30:31.998,46.0902483,11.115515,350.05,7.78,3.02,null
SMAR,2023-04-11 15:30:32.03,46.0902483,11.115515,350.05,7.78,3.03,null
SMAR,2023-04-11 15:30:32.068,46.0902483,11.115515,350.05,7.78,3.02,null
SMAR,2023-04-11 15:30:32.102,46.0902483,11.115515,350.05,7.78,3.03,null
SMAR,2023-04-11 15:30:32.133,46.0902483,11.115515,350.05,7.78,3.03,null
STON,2023-04-11 15:30:32.133,46.090305451666666,11.115567506666666,16.580858,146.221832,4.257703,1
SMAR,2023-04-11 15:30:32.171,46.0902483,11.115515,350.05,7.78,3.03,null
SMAR,2023-04-11 15:30:32.199,46.0902483,11.115515,350.05,7.78,3.03,null
SMAR,2023-04-11 15:30:32.228,46.0902483,11.115515,350.05,7.78,3.03,null
SMAR,2023-04-11 15:30:32.285,46.0902483,11.115515,350.05,7.78,3.03,null
SMAR,2023-04-11 15:30:32.315,46.0902483,11.115515,350.05,7.78,3.03,null
SMAR,2023-04-11 15:30:32.336,46.0902483,11.115515,350.05,7.79,3.03,null
STON,2023-04-11 15:30:32.336,46.090305451666666,11.115567506666666,16.184536,146.639702,9.088219,1
SMAR,2023-04-11 15:30:32.367,46.0902483,11.115515,350.05,7.79,3.02,null
SMAR,2023-04-11 15:30:32.397,46.0902483,11.115515,350.05,7.79,3.02,null
SMAR,2023-04-11 15:30:32.427,46.0902483,11.115515,350.05,7.79,3.02,null
SMAR,2023-04-11 15:30:32.461,46.0902483,11.115515,350.05,7.79,3.02,null
SMAR,2023-04-11 15:30:32.493,46.0902483,11.115515,350.05,7.79,3.02,null
STON,2023-04-11 15:30:32.493,46.090305451666666,11.115567506666666,16.259205,148.101957,11.8857,1
SMAR,2023-04-11 15:30:32.524,46.0902483,11.115515,350.05,7.79,3.02,null
SMAR,2023-04-11 15:30:32.56,46.0902483,11.115515,350.05,7.79,3.02,null
SMAR,2023-04-11 15:30:32.605,46.0902483,11.115515,350.05,7.79,3.03,null
SMAR,2023-04-11 15:30:32.631,46.0902483,11.115515,350.05,7.79,3.03,null
SMAR,2023-04-11 15:30:32.664,46.0902483,11.115515,350.05,7.79,3.02,null
SMAR,2023-04-11 15:30:32.698,46.0902483,11.115515,350.05,7.79,3.03,null
SMAR,2023-04-11 15:30:32.737,46.0902483,11.115515,350.05,7.79,3.03,null
SMAR,2023-04-11 15:30:32.767,46.0902483,11.115515,350.05,7.79,3.03,null
STON,2023-04-11 15:30:32.767,46.090305451666666,11.115567506666666,11.592635,144.949219,11.000782,1
STON,2023-04-11 15:30:32.767,46.090306355,11.115568213333333,11.592635,144.949219,11.000782,1
SMAR,2023-04-11 15:30:32.795,46.0902483,11.115515,350.05,7.79,3.03,null
STON,2023-04-11 15:30:32.795,46.090306355,11.115568213333333,11.592635,144.949219,11.000782,1
SMAR,2023-04-11 15:30:32.835,46.0902483,11.115515,350.05,7.79,3.03,null
SMAR,2023-04-11 15:30:32.864,46.0902483,11.115515,350.05,7.79,3.03,null
SMAR,2023-04-11 15:30:32.91,46.0902483,11.115515,350.05,7.79,3.03,null
SMAR,2023-04-11 15:30:32.95,46.0902483,11.115515,350.05,7.79,3.03,null
STON,2023-04-11 15:30:32.95,46.090306355,11.115568213333333,7.867085,142.54139700000002,12.076673,1
SMAR,2023-04-11 15:30:32.995,46.0902483,11.115515,350.05,7.79,3.03,null
SMAR,2023-04-11 15:30:33.021,46.0902483,11.115515,350.05,7.79,3.03,null
SMAR,2023-04-11 15:30:33.047,46.0902483,11.115515,350.05,7.79,3.03,null
SMAR,2023-04-11 15:30:33.092,46.0902483,11.115515,350.05,7.79,3.03,null
SMAR,2023-04-11 15:30:33.118,46.0902483,11.115515,350.05,7.79,3.03,null
SMAR,2023-04-11 15:30:33.14,46.0902483,11.115515,350.05,7.79,3.03,null
SMAR,2023-04-11 15:30:33.174,46.0902483,11.115515,350.06,7.79,3.03,null
SMAR,2023-04-11 15:30:33.204,46.0902483,11.115515,350.05,7.79,3.03,null
SMAR,2023-04-11 15:30:33.241,46.0902483,11.115515,350.05,7.79,3.03,null
SMAR,2023-04-11 15:30:33.272,46.0902483,11.115515,350.05,7.79,3.03,null
SMAR,2023-04-11 15:30:33.304,46.0902483,11.115515,350.05,7.79,3.03,null
SMAR,2023-04-11 15:30:33.337,46.0902483,11.115515,350.05,7.79,3.03,null
SMAR,2023-04-11 15:30:33.373,46.0902483,11.115515,350.05,7.79,3.03,null
STON,2023-04-11 15:30:33.373,46.090306355,11.115568213333333,15.653129,144.969353,1.302102,1
STON,2023-04-11 15:30:33.373,46.090306355,11.115568213333333,26.914629,147.321926,-9.159337,1
SMAR,2023-04-11 15:30:33.42,46.0902483,11.115515,350.05,7.78,3.03,null
SMAR,2023-04-11 15:30:33.455,46.0902483,11.115515,350.05,7.78,3.03,null
STON,2023-04-11 15:30:33.455,46.090306355,11.115568213333333,31.374611,147.927013,-8.445757,1
SMAR,2023-04-11 15:30:33.49,46.0902483,11.115515,350.05,7.78,3.03,null
SMAR,2023-04-11 15:30:33.52,46.0902483,11.115515,350.05,7.78,3.03,null
SMAR,2023-04-11 15:30:33.553,46.0902483,11.115515,350.05,7.78,3.03,null
SMAR,2023-04-11 15:30:33.571,46.0902483,11.115515,350.05,7.78,3.03,null
SMAR,2023-04-11 15:30:33.618,46.0902483,11.115515,350.05,7.78,3.03,null
SMAR,2023-04-11 15:30:33.651,46.0902483,11.115515,350.05,7.78,3.03,null
SMAR,2023-04-11 15:30:33.685,46.0902483,11.115515,350.05,7.78,3.03,null
STON,2023-04-11 15:30:33.685,46.090306355,11.115568213333333,28.557028,147.9613,-6.653227,1
SMAR,2023-04-11 15:30:33.718,46.0902483,11.115515,350.05,7.78,3.03,null
SMAR,2023-04-11 15:30:33.751,46.0902483,11.115515,350.05,7.78,3.03,null
STON,2023-04-11 15:30:33.751,46.09030772,11.115568481666667,28.557028,147.9613,-6.653227,1
STON,2023-04-11 15:30:33.751,46.09030772,11.115568481666667,28.557028,147.9613,-6.653227,1
SMAR,2023-04-11 15:30:33.773,46.0902483,11.115515,350.05,7.78,3.03,null
SMAR,2023-04-11 15:30:33.819,46.0902483,11.115515,350.05,7.78,3.03,null
SMAR,2023-04-11 15:30:33.85,46.0902483,11.115515,350.05,7.78,3.03,null
STON,2023-04-11 15:30:33.85,46.09030772,11.115568481666667,23.72864,145.213497,-3.976889,1
SMAR,2023-04-11 15:30:33.883,46.0902483,11.115515,350.05,7.78,3.02,null
SMAR,2023-04-11 15:30:33.918,46.0902483,11.115515,350.05,7.78,3.02,null
SMAR,2023-04-11 15:30:33.951,46.0902483,11.115515,350.05,7.78,3.02,null
SMAR,2023-04-11 15:30:33.985,46.0902483,11.115515,350.05,7.78,3.02,null
SMAR,2023-04-11 15:30:34.016,46.0902483,11.115515,350.05,7.78,3.02,null
SMAR,2023-04-11 15:30:34.049,46.0902483,11.115515,350.05,7.78,3.02,null
SMAR,2023-04-11 15:30:34.081,46.0902483,11.115515,350.05,7.78,3.02,null
SMAR,2023-04-11 15:30:34.115,46.0902483,11.115515,350.05,7.78,3.02,null
SMAR,2023-04-11 15:30:34.148,46.0902483,11.115515,350.05,7.78,3.02,null
SMAR,2023-04-11 15:30:34.181,46.0902483,11.115515,350.05,7.78,3.02,null
SMAR,2023-04-11 15:30:34.215,46.0902483,11.115515,350.05,7.78,3.02,null
SMAR,2023-04-11 15:30:34.248,46.0902483,11.115515,350.05,7.78,3.02,null
SMAR,2023-04-11 15:30:34.282,46.0902483,11.115515,350.05,7.78,3.02,null
SMAR,2023-04-11 15:30:34.315,46.0902483,11.115515,350.05,7.78,3.02,null
STON,2023-04-11 15:30:34.315,46.09030772,11.115568481666667,17.780249,144.22602799999999,-0.195847,1
SMAR,2023-04-11 15:30:34.352,46.0902483,11.115515,350.05,7.78,3.02,null
SMAR,2023-04-11 15:30:34.381,46.0902483,11.115515,350.05,7.78,3.02,null
SMAR,2023-04-11 15:30:34.413,46.0902483,11.115515,350.05,7.78,3.02,null
SMAR,2023-04-11 15:30:34.447,46.0902483,11.115515,350.05,7.78,3.02,null
SMAR,2023-04-11 15:30:34.479,46.0902483,11.115515,350.05,7.78,3.02,null
STON,2023-04-11 15:30:34.479,46.09030772,11.115568481666667,16.231447,144.387405,-0.882753,1
SMAR,2023-04-11 15:30:34.512,46.0902483,11.115515,350.05,7.78,3.02,null
SMAR,2023-04-11 15:30:34.546,46.0902483,11.115515,350.05,7.78,3.02,null
SMAR,2023-04-11 15:30:34.579,46.0902483,11.115515,350.05,7.78,3.02,null
SMAR,2023-04-11 15:30:34.612,46.0902483,11.115515,350.05,7.78,3.02,null
SMAR,2023-04-11 15:30:34.645,46.0902483,11.115515,350.05,7.78,3.02,null
SMAR,2023-04-11 15:30:34.68,46.0902483,11.115515,350.05,7.78,3.02,null
STON,2023-04-11 15:30:34.68,46.09030772,11.115568481666667,15.624433,144.384628,-0.871975,1
SMAR,2023-04-11 15:30:34.71,46.0902483,11.115515,350.05,7.78,3.02,null
STON,2023-04-11 15:30:34.71,46.090308555,11.115569261666666,15.624433,144.384628,-0.871975,1
SMAR,2023-04-11 15:30:34.748,46.0902483,11.115515,350.05,7.78,3.02,null
STON,2023-04-11 15:30:34.748,46.090308555,11.115569261666666,15.624433,144.384628,-0.871975,1
SMAR,2023-04-11 15:30:34.777,46.0902483,11.115515,350.05,7.78,3.02,null
SMAR,2023-04-11 15:30:34.812,46.0902483,11.115515,350.05,7.78,3.02,null
SMAR,2023-04-11 15:30:34.844,46.0902483,11.115515,350.05,7.78,3.02,null
SMAR,2023-04-11 15:30:34.88,46.0902483,11.115515,350.05,7.78,3.02,null
STON,2023-04-11 15:30:34.88,46.090308555,11.115569261666666,15.739405,144.383602,-1.313317,1
SMAR,2023-04-11 15:30:34.91,46.0902483,11.115515,350.05,7.78,3.02,null
SMAR,2023-04-11 15:30:34.946,46.0902483,11.115515,350.05,7.78,3.02,null
SMAR,2023-04-11 15:30:34.977,46.0902483,11.115515,350.05,7.78,3.02,null
SMAR,2023-04-11 15:30:35.009,46.0902483,11.115515,350.05,7.78,3.02,null
SMAR,2023-04-11 15:30:35.044,46.0902483,11.115515,350.05,7.78,3.02,null
SMAR,2023-04-11 15:30:35.078,46.0902483,11.115515,350.05,7.78,3.02,null
SMAR,2023-04-11 15:30:35.11,46.0902483,11.115515,350.05,7.77,3.02,null
STON,2023-04-11 15:30:35.11,46.090308555,11.115569261666666,15.829139,144.738686,-0.877781,1
SMAR,2023-04-11 15:30:35.141,46.0902483,11.115515,350.05,7.78,3.02,null
SMAR,2023-04-11 15:30:35.174,46.0902483,11.115515,350.05,7.78,3.02,null
SMAR,2023-04-11 15:30:35.208,46.0902483,11.115515,350.05,7.77,3.02,null
SMAR,2023-04-11 15:30:35.242,46.0902483,11.115515,350.05,7.77,3.02,null
SMAR,2023-04-11 15:30:35.277,46.0902483,11.115515,350.05,7.77,3.02,null
STON,2023-04-11 15:30:35.277,46.090308555,11.115569261666666,16.1614,144.90017699999999,-1.071798,1
SMAR,2023-04-11 15:30:35.309,46.0902483,11.115515,350.05,7.77,3.02,null
SMAR,2023-04-11 15:30:35.341,46.0902483,11.115515,350.05,7.77,3.02,null
SMAR,2023-04-11 15:30:35.375,46.0902483,11.115515,350.05,7.77,3.02,null
SMAR,2023-04-11 15:30:35.407,46.0902483,11.115515,350.05,7.77,3.02,null
SMAR,2023-04-11 15:30:35.44,46.0902483,11.115515,350.05,7.77,3.03,null
SMAR,2023-04-11 15:30:35.475,46.0902483,11.115515,350.05,7.77,3.02,null
SMAR,2023-04-11 15:30:35.507,46.0902483,11.115515,350.05,7.77,3.02,null
STON,2023-04-11 15:30:35.507,46.090308555,11.115569261666666,16.454391,145.109184,-1.231602,1
SMAR,2023-04-11 15:30:35.539,46.0902483,11.115515,350.05,7.77,3.02,null
SMAR,2023-04-11 15:30:35.572,46.0902483,11.115515,350.05,7.77,3.02,null
SMAR,2023-04-11 15:30:35.609,46.0902483,11.115515,350.05,7.77,3.02,null
SMAR,2023-04-11 15:30:35.64,46.0902483,11.115515,350.05,7.77,3.02,null
SMAR,2023-04-11 15:30:35.688,46.0902483,11.115515,350.05,7.77,3.02,null
STON,2023-04-11 15:30:35.688,46.090308555,11.115569261666666,17.174713,145.037556,-0.530134,1
SMAR,2023-04-11 15:30:35.709,46.0902483,11.115515,350.05,7.77,3.02,null
SMAR,2023-04-11 15:30:35.752,46.0902483,11.115515,350.05,7.77,3.02,null
SMAR,2023-04-11 15:30:35.788,46.0902483,11.115515,350.05,7.77,3.02,null
STON,2023-04-11 15:30:35.788,46.09030923666667,11.115569746666667,17.174713,145.037556,-0.530134,1
STON,2023-04-11 15:30:35.788,46.09030923666667,11.115569746666667,17.174713,145.037556,-0.530134,1
SMAR,2023-04-11 15:30:35.819,46.0902483,11.115515,350.05,7.77,3.02,null
SMAR,2023-04-11 15:30:35.852,46.0902483,11.115515,350.05,7.77,3.02,null
STON,2023-04-11 15:30:35.852,46.09030923666667,11.115569746666667,17.015099,145.110737,-0.657935,1
SMAR,2023-04-11 15:30:35.888,46.0902483,11.115515,350.05,7.77,3.02,null
SMAR,2023-04-11 15:30:35.918,46.0902483,11.115515,350.05,7.77,3.02,null
SMAR,2023-04-11 15:30:35.955,46.0902483,11.115515,350.05,7.77,3.02,null
SMAR,2023-04-11 15:30:35.987,46.0902483,11.115515,350.05,7.77,3.02,null
SMAR,2023-04-11 15:30:36.026,46.0902483,11.115515,350.05,7.77,3.02,null
SMAR,2023-04-11 15:30:36.05,46.0902483,11.115515,350.05,7.77,3.02,null
SMAR,2023-04-11 15:30:36.092,46.0902483,11.115515,350.05,7.77,3.02,null
STON,2023-04-11 15:30:36.092,46.09030923666667,11.115569746666667,16.953136,145.019993,-0.646897,1
SMAR,2023-04-11 15:30:36.123,46.0902483,11.115515,350.05,7.77,3.02,null
SMAR,2023-04-11 15:30:36.158,46.0902483,11.115515,350.05,7.77,3.02,null
SMAR,2023-04-11 15:30:36.188,46.0902483,11.115515,350.05,7.77,3.02,null
SMAR,2023-04-11 15:30:36.221,46.0902483,11.115515,350.05,7.77,3.02,null
SMAR,2023-04-11 15:30:36.258,46.0902483,11.115515,350.05,7.77,3.02,null
SMAR,2023-04-11 15:30:36.284,46.0902483,11.115515,350.05,7.77,3.02,null
SMAR,2023-04-11 15:30:36.325,46.0902483,11.115515,350.05,7.77,3.03,null
STON,2023-04-11 15:30:36.325,46.09030923666667,11.115569746666667,17.268494,145.04361,-0.315035,1
SMAR,2023-04-11 15:30:36.359,46.0902483,11.115515,350.05,7.77,3.03,null
SMAR,2023-04-11 15:30:36.395,46.0902483,11.115515,350.05,7.77,3.03,null
SMAR,2023-04-11 15:30:36.423,46.0902483,11.115515,350.05,7.77,3.03,null
SMAR,2023-04-11 15:30:36.448,46.0902483,11.115515,350.05,7.77,3.03,null
SMAR,2023-04-11 15:30:36.483,46.0902483,11.115515,350.05,7.77,3.03,null
STON,2023-04-11 15:30:36.483,46.09030923666667,11.115569746666667,17.068871,145.125767,-0.587851,1
SMAR,2023-04-11 15:30:36.52,46.0902483,11.115515,350.05,7.77,3.03,null
SMAR,2023-04-11 15:30:36.551,46.0902483,11.115515,350.05,7.77,3.03,null
SMAR,2023-04-11 15:30:36.58,46.0902483,11.115515,350.05,7.77,3.03,null
SMAR,2023-04-11 15:30:36.613,46.0902483,11.115515,350.05,7.77,3.03,null
SMAR,2023-04-11 15:30:36.647,46.0902483,11.115515,350.05,7.77,3.03,null
SMAR,2023-04-11 15:30:36.682,46.0902483,11.115515,350.05,7.77,3.03,null
SMAR,2023-04-11 15:30:36.713,46.0902483,11.115515,350.05,7.77,3.03,null
STON,2023-04-11 15:30:36.713,46.09030923666667,11.115569746666667,16.89048,145.133316,-0.523127,1
SMAR,2023-04-11 15:30:36.746,46.0902483,11.115515,350.05,7.77,3.03,null
SMAR,2023-04-11 15:30:36.781,46.0902483,11.115515,350.05,7.77,3.03,null
SMAR,2023-04-11 15:30:36.813,46.0902483,11.115515,350.05,7.77,3.03,null
STON,2023-04-11 15:30:36.813,46.090309755,11.115570095,16.89048,145.133316,-0.523127,1
STON,2023-04-11 15:30:36.813,46.090309755,11.115570095,16.89048,145.133316,-0.523127,1
SMAR,2023-04-11 15:30:36.847,46.0902483,11.115515,350.05,7.77,3.03,null
SMAR,2023-04-11 15:30:36.879,46.0902483,11.115515,350.05,7.77,3.03,null
SMAR,2023-04-11 15:30:36.912,46.0902483,11.115515,350.05,7.77,3.03,null
SMAR,2023-04-11 15:30:36.945,46.0902483,11.115515,350.05,7.77,3.03,null
SMAR,2023-04-11 15:30:36.979,46.0902483,11.115515,350.05,7.77,3.03,null
SMAR,2023-04-11 15:30:37.013,46.0902483,11.115515,350.05,7.77,3.03,null
SMAR,2023-04-11 15:30:37.048,46.0902483,11.115515,350.05,7.77,3.03,null
SMAR,2023-04-11 15:30:37.078,46.0902483,11.115515,350.05,7.77,3.03,null
SMAR,2023-04-11 15:30:37.109,46.0902483,11.115515,350.05,7.77,3.03,null
STON,2023-04-11 15:30:37.109,46.090309755,11.115570095,16.480659,145.142796,-0.775786,1
SMAR,2023-04-11 15:30:37.143,46.0902483,11.115515,350.05,7.77,3.03,null
SMAR,2023-04-11 15:30:37.178,46.0902483,11.115515,350.05,7.77,3.03,null
SMAR,2023-04-11 15:30:37.21,46.0902483,11.115515,350.05,7.77,3.03,null
SMAR,2023-04-11 15:30:37.243,46.0902483,11.115515,350.05,7.77,3.03,null
SMAR,2023-04-11 15:30:37.277,46.0902483,11.115515,350.05,7.77,3.03,null
STON,2023-04-11 15:30:37.277,46.090309755,11.115570095,16.832689,145.171806,-0.518055,1
SMAR,2023-04-11 15:30:37.312,46.0902483,11.115515,350.05,7.76,3.03,null
SMAR,2023-04-11 15:30:37.344,46.0902483,11.115515,350.05,7.76,3.03,null
SMAR,2023-04-11 15:30:37.381,46.0902483,11.115515,350.05,7.77,3.03,null
SMAR,2023-04-11 15:30:37.412,46.0902483,11.115515,350.05,7.76,3.03,null
SMAR,2023-04-11 15:30:37.441,46.0902483,11.115515,350.05,7.76,3.04,null
SMAR,2023-04-11 15:30:37.475,46.0902483,11.115515,350.05,7.76,3.03,null
SMAR,2023-04-11 15:30:37.507,46.0902483,11.115515,350.05,7.77,3.03,null
SMAR,2023-04-11 15:30:37.548,46.0902483,11.115515,350.05,7.76,3.03,null
SMAR,2023-04-11 15:30:37.579,46.0902483,11.115515,350.05,7.76,3.03,null
SMAR,2023-04-11 15:30:37.621,46.0902483,11.115515,350.05,7.77,3.04,null
SMAR,2023-04-11 15:30:37.65,46.0902483,11.115515,350.05,7.77,3.04,null
SMAR,2023-04-11 15:30:37.683,46.0902483,11.115515,350.05,7.77,3.04,null
SMAR,2023-04-11 15:30:37.717,46.0902483,11.115515,350.05,7.77,3.03,null
STON,2023-04-11 15:30:37.717,46.090309755,11.115570095,16.874519,145.18239599999998,-0.423932,1
SMAR,2023-04-11 15:30:37.744,46.0902483,11.115515,350.05,7.77,3.03,null
STON,2023-04-11 15:30:37.744,46.0903102,11.115570411666667,16.874519,145.18239599999998,-0.423932,1
STON,2023-04-11 15:30:37.744,46.0903102,11.115570411666667,16.874519,145.18239599999998,-0.423932,1
SMAR,2023-04-11 15:30:37.784,46.0902483,11.115515,350.05,7.77,3.03,null
SMAR,2023-04-11 15:30:37.809,46.0902483,11.115515,350.05,7.77,3.03,null
SMAR,2023-04-11 15:30:37.854,46.0902483,11.115515,350.05,7.77,3.04,null
SMAR,2023-04-11 15:30:37.885,46.0902483,11.115515,350.05,7.77,3.04,null
SMAR,2023-04-11 15:30:37.909,46.0902483,11.115515,350.05,7.77,3.04,null
STON,2023-04-11 15:30:37.909,46.0903102,11.115570411666667,16.705801,145.03892100000002,-0.465874,1
SMAR,2023-04-11 15:30:37.951,46.0902483,11.115515,350.05,7.77,3.04,null
SMAR,2023-04-11 15:30:37.974,46.0902483,11.115515,350.05,7.77,3.04,null
SMAR,2023-04-11 15:30:38.04,46.0902483,11.115515,350.05,7.77,3.04,null
SMAR,2023-04-11 15:30:38.069,46.0902483,11.115515,350.05,7.77,3.04,null
SMAR,2023-04-11 15:30:38.095,46.0902483,11.115515,350.05,7.77,3.04,null
STON,2023-04-11 15:30:38.095,46.0903102,11.115570411666667,17.012581,145.252514,-0.570685,1
SMAR,2023-04-11 15:30:38.119,46.0902483,11.115515,350.05,7.77,3.03,null
SMAR,2023-04-11 15:30:38.152,46.0902483,11.115515,350.05,7.77,3.03,null
SMAR,2023-04-11 15:30:38.186,46.0902483,11.115515,350.05,7.77,3.03,null
SMAR,2023-04-11 15:30:38.22,46.0902483,11.115515,350.05,7.77,3.03,null
SMAR,2023-04-11 15:30:38.253,46.0902483,11.115515,350.05,7.77,3.03,null
SMAR,2023-04-11 15:30:38.289,46.0902483,11.115515,350.05,7.77,3.03,null
STON,2023-04-11 15:30:38.289,46.0903102,11.115570411666667,17.142025,145.276974,-0.231856,1
SMAR,2023-04-11 15:30:38.319,46.0902483,11.115515,350.05,7.77,3.03,null
SMAR,2023-04-11 15:30:38.354,46.0902483,11.115515,350.05,7.77,3.03,null
SMAR,2023-04-11 15:30:38.385,46.0902483,11.115515,350.05,7.77,3.03,null
SMAR,2023-04-11 15:30:38.418,46.0902483,11.115515,350.05,7.77,3.03,null
SMAR,2023-04-11 15:30:38.451,46.0902483,11.115515,350.05,7.77,3.03,null
SMAR,2023-04-11 15:30:38.484,46.0902483,11.115515,350.05,7.77,3.03,null
SMAR,2023-04-11 15:30:38.519,46.0902483,11.115515,350.05,7.77,3.03,null
SMAR,2023-04-11 15:30:38.555,46.0902483,11.115515,350.05,7.77,3.03,null
SMAR,2023-04-11 15:30:38.587,46.0902483,11.115515,350.05,7.77,3.03,null
SMAR,2023-04-11 15:30:38.618,46.0902483,11.115515,350.05,7.77,3.03,null
SMAR,2023-04-11 15:30:38.652,46.0902483,11.115515,350.05,7.77,3.03,null
SMAR,2023-04-11 15:30:38.683,46.0902483,11.115515,350.05,7.77,3.03,null
SMAR,2023-04-11 15:30:38.719,46.0902483,11.115515,350.05,7.77,3.03,null
SMAR,2023-04-11 15:30:38.749,46.0902483,11.115515,350.05,7.77,3.03,null
SMAR,2023-04-11 15:30:38.784,46.0902483,11.115515,350.05,7.77,3.03,null
SMAR,2023-04-11 15:30:38.817,46.0902483,11.115515,350.05,7.78,3.03,null
SMAR,2023-04-11 15:30:38.85,46.0902483,11.115515,350.05,7.77,3.03,null
SMAR,2023-04-11 15:30:38.883,46.0902483,11.115515,350.05,7.77,3.03,null
SMAR,2023-04-11 15:30:38.919,46.0902483,11.115515,350.05,7.77,3.03,null
SMAR,2023-04-11 15:30:38.951,46.0902483,11.115515,350.05,7.77,3.03,null
SMAR,2023-04-11 15:30:38.982,46.0902483,11.115515,350.06,7.77,3.03,null
SMAR,2023-04-11 15:30:39.017,46.0902483,11.115515,350.05,7.77,3.03,null
SMAR,2023-04-11 15:30:39.049,46.0902483,11.115515,350.05,7.77,3.03,null
SMAR,2023-04-11 15:30:39.083,46.0902483,11.115515,350.06,7.77,3.03,null
SMAR,2023-04-11 15:30:39.115,46.0902483,11.115515,350.06,7.77,3.03,null
SMAR,2023-04-11 15:30:39.149,46.0902483,11.115515,350.06,7.77,3.03,null
SMAR,2023-04-11 15:30:39.18,46.0902483,11.115515,350.06,7.77,3.03,null
SMAR,2023-04-11 15:30:39.213,46.0902483,11.115515,350.06,7.78,3.03,null
SMAR,2023-04-11 15:30:39.247,46.0902483,11.115515,350.06,7.78,3.03,null
SMAR,2023-04-11 15:30:39.28,46.0902483,11.115515,350.05,7.78,3.03,null
SMAR,2023-04-11 15:30:39.314,46.0902483,11.115515,350.05,7.78,3.03,null
SMAR,2023-04-11 15:30:39.347,46.0902483,11.115515,350.05,7.78,3.03,null
STON,2023-04-11 15:30:39.347,46.0903102,11.115570411666667,17.512787,145.571907,-0.624606,1
SMAR,2023-04-11 15:30:39.384,46.0902483,11.115515,350.05,7.78,3.03,null
SMAR,2023-04-11 15:30:39.413,46.0902483,11.115515,350.05,7.78,3.03,null
SMAR,2023-04-11 15:30:39.447,46.0902483,11.115515,350.05,7.78,3.03,null
STON,2023-04-11 15:30:39.447,46.0903102,11.115570411666667,17.856768,145.775154,-0.127327,1
STON,2023-04-11 15:30:39.447,46.09031066666667,11.11557073,17.856768,145.775154,-0.127327,1
SMAR,2023-04-11 15:30:39.479,46.0902483,11.115515,350.05,7.78,3.03,null
STON,2023-04-11 15:30:39.479,46.09031066666667,11.11557073,17.856768,145.775154,-0.127327,1
STON,2023-04-11 15:30:39.479,46.09031066666667,11.11557073,17.586403,145.931667,-0.478385,1
STON,2023-04-11 15:30:39.479,46.09031066666667,11.11557073,17.611738,146.110188,-0.682011,1
SMAR,2023-04-11 15:30:39.509,46.0902483,11.115515,350.05,7.78,3.03,null
SMAR,2023-04-11 15:30:39.545,46.0902483,11.115515,350.05,7.78,3.03,null
STON,2023-04-11 15:30:39.545,46.09031066666667,11.11557073,17.327631,146.480511,-0.10273,1
STON,2023-04-11 15:30:39.545,46.09031066666667,11.11557073,18.019899,146.292381,0.734188,1
SMAR,2023-04-11 15:30:39.579,46.0902483,11.115515,350.05,7.78,3.03,null
SMAR,2023-04-11 15:30:39.608,46.0902483,11.115515,350.05,7.78,3.03,null
SMAR,2023-04-11 15:30:39.647,46.0902483,11.115515,350.05,7.78,3.03,null
SMAR,2023-04-11 15:30:39.679,46.0902483,11.115515,350.05,7.78,3.03,null
STON,2023-04-11 15:30:39.679,46.09031066666667,11.11557073,18.378977,146.58659,0.623723,1
SMAR,2023-04-11 15:30:39.713,46.0902483,11.115515,350.05,7.78,3.03,null
STON,2023-04-11 15:30:39.713,46.09031106,11.115570923333333,18.378977,146.58659,0.623723,1
SMAR,2023-04-11 15:30:39.754,46.0902483,11.115515,350.05,7.78,3.03,null
STON,2023-04-11 15:30:39.754,46.09031106,11.115570923333333,18.378977,146.58659,0.623723,1
SMAR,2023-04-11 15:30:39.792,46.0902483,11.115515,350.05,7.78,3.03,null
SMAR,2023-04-11 15:30:39.822,46.0902483,11.115515,350.05,7.78,3.03,null
SMAR,2023-04-11 15:30:39.848,46.0902483,11.115515,350.05,7.78,3.03,null
SMAR,2023-04-11 15:30:39.881,46.0902483,11.115515,350.05,7.78,3.03,null
STON,2023-04-11 15:30:39.881,46.09031106,11.115570923333333,18.901247,146.748844,1.038411,1
SMAR,2023-04-11 15:30:39.914,46.0902483,11.115515,350.05,7.78,3.03,null
SMAR,2023-04-11 15:30:39.948,46.0902483,11.115515,350.05,7.78,3.03,null
SMAR,2023-04-11 15:30:39.98,46.0902483,11.115515,350.05,7.78,3.03,null
SMAR,2023-04-11 15:30:40.015,46.0902483,11.115515,350.05,7.78,3.03,null
SMAR,2023-04-11 15:30:40.046,46.0902483,11.115515,350.05,7.78,3.03,null
SMAR,2023-04-11 15:30:40.077,46.0902483,11.115515,350.05,7.78,3.03,null
STON,2023-04-11 15:30:40.077,46.09031106,11.115570923333333,18.595818,146.731266,1.079391,1
SMAR,2023-04-11 15:30:40.11,46.0902483,11.115515,350.05,7.78,3.03,null
SMAR,2023-04-11 15:30:40.144,46.0902483,11.115515,350.05,7.78,3.03,null
SMAR,2023-04-11 15:30:40.176,46.0902483,11.115515,350.05,7.78,3.03,null
SMAR,2023-04-11 15:30:40.212,46.0902483,11.115515,350.05,7.78,3.03,null
SMAR,2023-04-11 15:30:40.244,46.0902483,11.115515,350.05,7.78,3.03,null
SMAR,2023-04-11 15:30:40.28,46.0902483,11.115515,350.05,7.78,3.03,null
SMAR,2023-04-11 15:30:40.318,46.0902483,11.115515,350.05,7.78,3.03,null
STON,2023-04-11 15:30:40.318,46.09031106,11.115570923333333,18.317339,146.70423499999998,0.970381,1
SMAR,2023-04-11 15:30:40.358,46.0902483,11.115515,350.05,7.78,3.03,null
SMAR,2023-04-11 15:30:40.402,46.0902483,11.115515,350.05,7.78,3.03,null
SMAR,2023-04-11 15:30:40.422,46.0902483,11.115515,350.05,7.78,3.03,null
SMAR,2023-04-11 15:30:40.453,46.0902483,11.115515,350.05,7.78,3.03,null
SMAR,2023-04-11 15:30:40.486,46.0902483,11.115515,350.05,7.78,3.03,null
STON,2023-04-11 15:30:40.486,46.09031106,11.115570923333333,17.72484,146.851677,0.674539,1
SMAR,2023-04-11 15:30:40.52,46.0902483,11.115515,350.05,7.78,3.03,null
SMAR,2023-04-11 15:30:40.553,46.0902483,11.115515,350.05,7.78,3.03,null
SMAR,2023-04-11 15:30:40.588,46.0902483,11.115515,350.05,7.78,3.03,null
SMAR,2023-04-11 15:30:40.623,46.0902483,11.115515,350.05,7.79,3.03,null
SMAR,2023-04-11 15:30:40.651,46.0902932,11.1156168,350.05,7.79,3.03,null
SMAR,2023-04-11 15:30:40.691,46.0902932,11.1156168,350.05,7.79,3.03,null
STON,2023-04-11 15:30:40.691,46.09031106,11.115570923333333,18.012764,147.205036,0.494425,1
SMAR,2023-04-11 15:30:40.73,46.0902932,11.1156168,350.05,7.79,3.03,null
SMAR,2023-04-11 15:30:40.765,46.0902932,11.1156168,350.05,7.79,3.03,null
SMAR,2023-04-11 15:30:40.801,46.0902932,11.1156168,350.05,7.79,3.03,null
STON,2023-04-11 15:30:40.801,46.090311245,11.115570851666666,18.012764,147.205036,0.494425,1
SMAR,2023-04-11 15:30:40.824,46.0902932,11.1156168,350.05,7.78,3.03,null
STON,2023-04-11 15:30:40.824,46.090311245,11.115570851666666,18.012764,147.205036,0.494425,1
SMAR,2023-04-11 15:30:40.868,46.0902932,11.1156168,350.05,7.78,3.03,null
SMAR,2023-04-11 15:30:40.893,46.0902932,11.1156168,350.05,7.78,3.03,null
SMAR,2023-04-11 15:30:40.917,46.0902932,11.1156168,350.05,7.78,3.03,null
SMAR,2023-04-11 15:30:40.948,46.0902932,11.1156168,350.05,7.78,3.03,null
STON,2023-04-11 15:30:40.948,46.090311245,11.115570851666666,17.946627,147.291252,0.269095,1
SMAR,2023-04-11 15:30:40.983,46.0902932,11.1156168,350.05,7.79,3.03,null
SMAR,2023-04-11 15:30:41.018,46.0902932,11.1156168,350.05,7.79,3.03,null
SMAR,2023-04-11 15:30:41.061,46.0902932,11.1156168,350.05,7.79,3.03,null
SMAR,2023-04-11 15:30:41.092,46.0902932,11.1156168,350.05,7.79,3.03,null
SMAR,2023-04-11 15:30:41.127,46.0902932,11.1156168,350.05,7.79,3.03,null
STON,2023-04-11 15:30:41.127,46.090311245,11.115570851666666,17.377047,147.00164,-0.543572,1
SMAR,2023-04-11 15:30:41.166,46.0902932,11.1156168,350.05,7.79,3.03,null
SMAR,2023-04-11 15:30:41.201,46.0902932,11.1156168,350.05,7.79,3.03,null
SMAR,2023-04-11 15:30:41.265,46.0902932,11.1156168,350.05,7.79,3.03,null
SMAR,2023-04-11 15:30:41.282,46.0902932,11.1156168,350.05,7.79,3.03,null
STON,2023-04-11 15:30:41.282,46.090311245,11.115570851666666,18.144766,146.959866,-0.526602,1
SMAR,2023-04-11 15:30:41.315,46.0902932,11.1156168,350.05,7.79,3.03,null
SMAR,2023-04-11 15:30:41.346,46.0902932,11.1156168,350.05,7.79,3.03,null
SMAR,2023-04-11 15:30:41.379,46.0902932,11.1156168,350.05,7.79,3.03,null
SMAR,2023-04-11 15:30:41.413,46.0902932,11.1156168,350.05,7.79,3.04,null
SMAR,2023-04-11 15:30:41.447,46.0902932,11.1156168,350.05,7.79,3.04,null
SMAR,2023-04-11 15:30:41.479,46.0902932,11.1156168,350.05,7.79,3.04,null
STON,2023-04-11 15:30:41.479,46.090311245,11.115570851666666,17.464725,146.990089,-1.05789,1
SMAR,2023-04-11 15:30:41.515,46.0902932,11.1156168,350.05,7.79,3.03,null
SMAR,2023-04-11 15:30:41.545,46.0902932,11.1156168,350.05,7.79,3.03,null
SMAR,2023-04-11 15:30:41.577,46.0902932,11.1156168,350.05,7.79,3.03,null
SMAR,2023-04-11 15:30:41.611,46.0902932,11.1156168,350.05,7.79,3.03,null
SMAR,2023-04-11 15:30:41.644,46.0903013,11.115635,350.05,7.79,3.03,null
SMAR,2023-04-11 15:30:41.679,46.0903013,11.115635,350.05,7.79,3.03,null
SMAR,2023-04-11 15:30:41.71,46.0903013,11.115635,350.05,7.78,3.03,null
STON,2023-04-11 15:30:41.71,46.090311245,11.115570851666666,17.881397,146.728828,-0.510628,1
SMAR,2023-04-11 15:30:41.746,46.0903013,11.115635,350.05,7.78,3.03,null
SMAR,2023-04-11 15:30:41.78,46.0903013,11.115635,350.05,7.78,3.03,null
SMAR,2023-04-11 15:30:41.809,46.0903013,11.115635,350.05,7.78,3.03,null
SMAR,2023-04-11 15:30:41.844,46.0903013,11.115635,350.05,7.78,3.03,null
STON,2023-04-11 15:30:41.844,46.090311418333336,11.115570918333333,17.881397,146.728828,-0.510628,1
STON,2023-04-11 15:30:41.844,46.090311418333336,11.115570918333333,17.881397,146.728828,-0.510628,1
SMAR,2023-04-11 15:30:41.878,46.0903013,11.115635,350.05,7.78,3.03,null
SMAR,2023-04-11 15:30:41.909,46.0903013,11.115635,350.05,7.78,3.03,null
STON,2023-04-11 15:30:41.909,46.090311418333336,11.115570918333333,18.099691,146.813766,-0.261905,1
SMAR,2023-04-11 15:30:41.949,46.0903013,11.115635,350.05,7.79,3.03,null
SMAR,2023-04-11 15:30:41.976,46.0903013,11.115635,350.05,7.79,3.03,null
SMAR,2023-04-11 15:30:42.008,46.0903013,11.115635,350.05,7.79,3.03,null
SMAR,2023-04-11 15:30:42.041,46.0903013,11.115635,350.05,7.79,3.03,null
SMAR,2023-04-11 15:30:42.075,46.0903013,11.115635,350.05,7.79,3.03,null
SMAR,2023-04-11 15:30:42.108,46.0903013,11.115635,350.05,7.79,3.03,null
STON,2023-04-11 15:30:42.108,46.090311418333336,11.115570918333333,18.057072,146.79063,-0.288351,1
SMAR,2023-04-11 15:30:42.141,46.0903013,11.115635,350.05,7.79,3.03,null
SMAR,2023-04-11 15:30:42.174,46.0903013,11.115635,350.05,7.79,3.03,null
SMAR,2023-04-11 15:30:42.207,46.0903013,11.115635,350.05,7.79,3.03,null
SMAR,2023-04-11 15:30:42.24,46.0903013,11.115635,350.05,7.79,3.03,null
SMAR,2023-04-11 15:30:42.275,46.0903013,11.115635,350.05,7.79,3.03,null
SMAR,2023-04-11 15:30:42.306,46.0903013,11.115635,350.05,7.79,3.03,null
SMAR,2023-04-11 15:30:42.342,46.0903013,11.115635,350.06,7.79,3.03,null
SMAR,2023-04-11 15:30:42.374,46.0903013,11.115635,350.06,7.79,3.03,null
SMAR,2023-04-11 15:30:42.405,46.0903013,11.115635,350.06,7.79,3.03,null
SMAR,2023-04-11 15:30:42.444,46.0903013,11.115635,350.06,7.78,3.03,null
SMAR,2023-04-11 15:30:42.471,46.0903013,11.115635,350.06,7.78,3.03,null
SMAR,2023-04-11 15:30:42.505,46.0903013,11.115635,350.06,7.78,3.03,null
STON,2023-04-11 15:30:42.505,46.090311418333336,11.115570918333333,18.383034,146.779789,-0.613827,1
SMAR,2023-04-11 15:30:42.54,46.0903013,11.115635,350.05,7.78,3.03,null
SMAR,2023-04-11 15:30:42.573,46.0903013,11.115635,350.06,7.78,3.03,null
SMAR,2023-04-11 15:30:42.605,46.0903013,11.115635,350.05,7.78,3.03,null
SMAR,2023-04-11 15:30:42.637,46.0903013,11.115635,350.05,7.78,3.03,null
SMAR,2023-04-11 15:30:42.672,46.0903009,11.1156341,350.05,7.78,3.03,null
SMAR,2023-04-11 15:30:42.719,46.0903009,11.1156341,350.05,7.78,3.03,null
STON,2023-04-11 15:30:42.719,46.090311418333336,11.115570918333333,19.418348,146.651413,-0.399164,1
STON,2023-04-11 15:30:42.719,46.09031154833333,11.115571008333333,19.418348,146.651413,-0.399164,1
STON,2023-04-11 15:30:42.719,46.09031154833333,11.115571008333333,19.418348,146.651413,-0.399164,1
SMAR,2023-04-11 15:30:42.753,46.0903009,11.1156341,350.05,7.78,3.03,null
SMAR,2023-04-11 15:30:42.788,46.0903009,11.1156341,350.05,7.78,3.03,null
SMAR,2023-04-11 15:30:42.829,46.0903009,11.1156341,350.05,7.78,3.03,null
SMAR,2023-04-11 15:30:42.875,46.0903009,11.1156341,350.05,7.78,3.03,null
SMAR,2023-04-11 15:30:42.899,46.0903009,11.1156341,350.05,7.78,3.03,null
STON,2023-04-11 15:30:42.899,46.09031154833333,11.115571008333333,19.071468,146.55471,-0.479049,1
SMAR,2023-04-11 15:30:42.932,46.0903009,11.1156341,350.05,7.78,3.03,null
SMAR,2023-04-11 15:30:42.964,46.0903009,11.1156341,350.05,7.78,3.03,null
SMAR,2023-04-11 15:30:43.007,46.0903009,11.1156341,350.05,7.78,3.03,null
SMAR,2023-04-11 15:30:43.041,46.0903009,11.1156341,350.05,7.78,3.03,null
SMAR,2023-04-11 15:30:43.067,46.0903009,11.1156341,350.05,7.78,3.03,null
SMAR,2023-04-11 15:30:43.098,46.0903009,11.1156341,350.05,7.78,3.04,null
STON,2023-04-11 15:30:43.098,46.09031154833333,11.115571008333333,19.0797,146.63998800000002,-0.664024,1
SMAR,2023-04-11 15:30:43.143,46.0903009,11.1156341,350.05,7.78,3.04,null
SMAR,2023-04-11 15:30:43.169,46.0903009,11.1156341,350.05,7.77,3.04,null
SMAR,2023-04-11 15:30:43.203,46.0903009,11.1156341,350.05,7.78,3.04,null
SMAR,2023-04-11 15:30:43.247,46.0903009,11.1156341,350.05,7.78,3.04,null
SMAR,2023-04-11 15:30:43.271,46.0903009,11.1156341,350.05,7.78,3.04,null
SMAR,2023-04-11 15:30:43.303,46.0903009,11.1156341,350.05,7.78,3.04,null
SMAR,2023-04-11 15:30:43.336,46.0903009,11.1156341,350.05,7.78,3.04,null
STON,2023-04-11 15:30:43.336,46.09031154833333,11.115571008333333,19.014551,146.619923,-0.568347,1
SMAR,2023-04-11 15:30:43.37,46.0903009,11.1156341,350.05,7.78,3.04,null
SMAR,2023-04-11 15:30:43.405,46.0903009,11.1156341,350.05,7.78,3.04,null
SMAR,2023-04-11 15:30:43.438,46.0903009,11.1156341,350.05,7.78,3.04,null
SMAR,2023-04-11 15:30:43.472,46.0903009,11.1156341,350.05,7.78,3.04,null
SMAR,2023-04-11 15:30:43.505,46.0903009,11.1156341,350.05,7.78,3.04,null
SMAR,2023-04-11 15:30:43.535,46.0903009,11.1156341,350.05,7.77,3.04,null
SMAR,2023-04-11 15:30:43.575,46.0903009,11.1156341,350.05,7.78,3.04,null
SMAR,2023-04-11 15:30:43.6,46.0903009,11.1156341,350.05,7.77,3.04,null
SMAR,2023-04-11 15:30:43.64,46.0903009,11.1156341,350.05,7.77,3.04,null
SMAR,2023-04-11 15:30:43.665,46.0903009,11.1156341,350.05,7.77,3.04,null
SMAR,2023-04-11 15:30:43.697,46.0903009,11.1156341,350.05,7.77,3.04,null
SMAR,2023-04-11 15:30:43.728,46.0902995,11.1156311,350.05,7.78,3.04,null
STON,2023-04-11 15:30:43.728,46.09031154833333,11.115571008333333,18.599588,146.637318,-0.669954,1
SMAR,2023-04-11 15:30:43.758,46.0902995,11.1156311,350.05,7.78,3.04,null
SMAR,2023-04-11 15:30:43.79,46.0902995,11.1156311,350.05,7.78,3.04,null
STON,2023-04-11 15:30:43.79,46.09031158333333,11.115571061666667,18.599588,146.637318,-0.669954,1
STON,2023-04-11 15:30:43.79,46.09031158333333,11.115571061666667,18.599588,146.637318,-0.669954,1
SMAR,2023-04-11 15:30:43.821,46.0902995,11.1156311,350.05,7.78,3.03,null
SMAR,2023-04-11 15:30:43.854,46.0902995,11.1156311,350.05,7.78,3.03,null
SMAR,2023-04-11 15:30:43.885,46.0902995,11.1156311,350.05,7.78,3.03,null
SMAR,2023-04-11 15:30:43.919,46.0902995,11.1156311,350.05,7.78,3.03,null
STON,2023-04-11 15:30:43.919,46.09031158333333,11.115571061666667,18.540565,146.60931399999998,-0.604386,1
SMAR,2023-04-11 15:30:43.952,46.0902995,11.1156311,350.05,7.78,3.03,null
SMAR,2023-04-11 15:30:43.987,46.0902995,11.1156311,350.05,7.78,3.03,null
SMAR,2023-04-11 15:30:44.023,46.0902995,11.1156311,350.05,7.78,3.03,null
SMAR,2023-04-11 15:30:44.056,46.0902995,11.1156311,350.05,7.78,3.03,null
SMAR,2023-04-11 15:30:44.089,46.0902995,11.1156311,350.05,7.78,3.03,null
STON,2023-04-11 15:30:44.089,46.09031158333333,11.115571061666667,18.51195,146.666927,-0.738478,1
SMAR,2023-04-11 15:30:44.122,46.0902995,11.1156311,350.05,7.78,3.03,null
SMAR,2023-04-11 15:30:44.155,46.0902995,11.1156311,350.05,7.78,3.03,null
SMAR,2023-04-11 15:30:44.186,46.0902995,11.1156311,350.05,7.78,3.03,null
SMAR,2023-04-11 15:30:44.221,46.0902995,11.1156311,350.05,7.78,3.03,null
SMAR,2023-04-11 15:30:44.257,46.0902995,11.1156311,350.05,7.78,3.03,null
SMAR,2023-04-11 15:30:44.29,46.0902995,11.1156311,350.05,7.78,3.03,null
SMAR,2023-04-11 15:30:44.322,46.0902995,11.1156311,350.05,7.78,3.03,null
STON,2023-04-11 15:30:44.322,46.09031158333333,11.115571061666667,18.86541,146.44496900000001,-0.205096,1
SMAR,2023-04-11 15:30:44.354,46.0902995,11.1156311,350.06,7.78,3.03,null
SMAR,2023-04-11 15:30:44.391,46.0902995,11.1156311,350.06,7.78,3.03,null
SMAR,2023-04-11 15:30:44.422,46.0902995,11.1156311,350.05,7.78,3.03,null
SMAR,2023-04-11 15:30:44.457,46.0902995,11.1156311,350.05,7.78,3.03,null
SMAR,2023-04-11 15:30:44.489,46.0902995,11.1156311,350.05,7.78,3.03,null
SMAR,2023-04-11 15:30:44.523,46.0902995,11.1156311,350.05,7.78,3.03,null
SMAR,2023-04-11 15:30:44.553,46.0902995,11.1156311,350.05,7.79,3.03,null
SMAR,2023-04-11 15:30:44.589,46.0902995,11.1156311,350.05,7.79,3.03,null
SMAR,2023-04-11 15:30:44.621,46.0902995,11.1156311,350.05,7.79,3.03,null
SMAR,2023-04-11 15:30:44.655,46.0902987,11.1156293,350.05,7.79,3.03,null
SMAR,2023-04-11 15:30:44.691,46.0902987,11.1156293,350.05,7.79,3.03,null
SMAR,2023-04-11 15:30:44.723,46.0902987,11.1156293,350.05,7.79,3.03,null
SMAR,2023-04-11 15:30:44.755,46.0902987,11.1156293,350.06,7.79,3.03,null
SMAR,2023-04-11 15:30:44.789,46.0902987,11.1156293,350.06,7.79,3.03,null
SMAR,2023-04-11 15:30:44.821,46.0902987,11.1156293,350.05,7.79,3.03,null
SMAR,2023-04-11 15:30:44.856,46.0902987,11.1156293,350.05,7.79,3.03,null
SMAR,2023-04-11 15:30:44.889,46.0902987,11.1156293,350.05,7.78,3.03,null
STON,2023-04-11 15:30:44.889,46.09031158333333,11.115571061666667,18.380495,146.624725,-0.547375,1
STON,2023-04-11 15:30:44.889,46.09031158333333,11.115571061666667,18.381123,146.846237,-0.401567,1
SMAR,2023-04-11 15:30:44.921,46.0902987,11.1156293,350.05,7.78,3.03,null
SMAR,2023-04-11 15:30:44.958,46.0902987,11.1156293,350.05,7.78,3.03,null
STON,2023-04-11 15:30:44.958,46.09030874333333,11.115571456666666,18.381123,146.846237,-0.401567,1
STON,2023-04-11 15:30:44.958,46.09030874333333,11.115571456666666,18.381123,146.846237,-0.401567,1
SMAR,2023-04-11 15:30:44.996,46.0902987,11.1156293,350.05,7.78,3.03,null
STON,2023-04-11 15:30:44.996,46.09030874333333,11.115571456666666,18.514772,146.978512,-0.00925,1
SMAR,2023-04-11 15:30:45.036,46.0902987,11.1156293,350.05,7.78,3.03,null
SMAR,2023-04-11 15:30:45.076,46.0902987,11.1156293,350.05,7.78,3.03,null
SMAR,2023-04-11 15:30:45.106,46.0902987,11.1156293,350.05,7.78,3.03,null
SMAR,2023-04-11 15:30:45.153,46.0902987,11.1156293,350.05,7.78,3.03,null
SMAR,2023-04-11 15:30:45.173,46.0902987,11.1156293,350.05,7.78,3.03,null
STON,2023-04-11 15:30:45.173,46.09030874333333,11.115571456666666,19.137581,147.08405299999998,0.155344,1
SMAR,2023-04-11 15:30:45.255,46.0902987,11.1156293,350.05,7.78,3.03,null
SMAR,2023-04-11 15:30:45.272,46.0902987,11.1156293,350.05,7.78,3.03,null
SMAR,2023-04-11 15:30:45.289,46.0902987,11.1156293,350.06,7.78,3.03,null
STON,2023-04-11 15:30:45.289,46.09030874333333,11.115571456666666,19.314466,146.999191,0.302104,1
SMAR,2023-04-11 15:30:45.319,46.0902987,11.1156293,350.06,7.78,3.03,null
SMAR,2023-04-11 15:30:45.352,46.0902987,11.1156293,350.05,7.78,3.02,null
SMAR,2023-04-11 15:30:45.386,46.0902987,11.1156293,350.05,7.78,3.02,null
SMAR,2023-04-11 15:30:45.419,46.0902987,11.1156293,350.05,7.78,3.02,null
SMAR,2023-04-11 15:30:45.453,46.0902987,11.1156293,350.05,7.78,3.02,null
SMAR,2023-04-11 15:30:45.484,46.0902987,11.1156293,350.05,7.78,3.03,null
SMAR,2023-04-11 15:30:45.518,46.0902987,11.1156293,350.05,7.78,3.03,null
STON,2023-04-11 15:30:45.518,46.09030874333333,11.115571456666666,19.267534,147.077862,0.196703,1
SMAR,2023-04-11 15:30:45.551,46.0902987,11.1156293,350.05,7.78,3.03,null
SMAR,2023-04-11 15:30:45.583,46.0902987,11.1156293,350.05,7.78,3.03,null
SMAR,2023-04-11 15:30:45.617,46.0902987,11.1156293,350.05,7.79,3.02,null
SMAR,2023-04-11 15:30:45.649,46.0902984,11.1156286,350.05,7.79,3.02,null
SMAR,2023-04-11 15:30:45.682,46.0902984,11.1156286,350.05,7.79,3.02,null
STON,2023-04-11 15:30:45.682,46.09030874333333,11.115571456666666,19.305021,146.809418,0.214765,1
SMAR,2023-04-11 15:30:45.715,46.0902984,11.1156286,350.05,7.79,3.02,null
STON,2023-04-11 15:30:45.715,46.09030471333333,11.11557065,19.305021,146.809418,0.214765,1
STON,2023-04-11 15:30:45.715,46.09030471333333,11.11557065,19.305021,146.809418,0.214765,1
SMAR,2023-04-11 15:30:45.749,46.0902984,11.1156286,350.05,7.79,3.02,null
SMAR,2023-04-11 15:30:45.782,46.0902984,11.1156286,350.05,7.79,3.02,null
SMAR,2023-04-11 15:30:45.817,46.0902984,11.1156286,350.05,7.79,3.02,null
SMAR,2023-04-11 15:30:45.848,46.0902984,11.1156286,350.05,7.79,3.02,null
SMAR,2023-04-11 15:30:45.882,46.0902984,11.1156286,350.05,7.79,3.02,null
SMAR,2023-04-11 15:30:45.915,46.0902984,11.1156286,350.05,7.79,3.03,null
STON,2023-04-11 15:30:45.915,46.09030471333333,11.11557065,19.631281,147.442947,-0.681882,1
SMAR,2023-04-11 15:30:45.948,46.0902984,11.1156286,350.05,7.79,3.03,null
SMAR,2023-04-11 15:30:45.98,46.0902984,11.1156286,350.05,7.79,3.02,null
SMAR,2023-04-11 15:30:46.014,46.0902984,11.1156286,350.05,7.79,3.03,null
SMAR,2023-04-11 15:30:46.047,46.0902984,11.1156286,350.05,7.79,3.03,null
SMAR,2023-04-11 15:30:46.08,46.0902984,11.1156286,350.05,7.79,3.03,null
SMAR,2023-04-11 15:30:46.112,46.0902984,11.1156286,350.05,7.79,3.02,null
STON,2023-04-11 15:30:46.112,46.09030471333333,11.11557065,19.704359,147.468536,-0.767281,1
SMAR,2023-04-11 15:30:46.146,46.0902984,11.1156286,350.05,7.79,3.03,null
SMAR,2023-04-11 15:30:46.178,46.0902984,11.1156286,350.05,7.78,3.02,null
SMAR,2023-04-11 15:30:46.211,46.0902984,11.1156286,350.05,7.78,3.02,null
SMAR,2023-04-11 15:30:46.244,46.0902984,11.1156286,350.05,7.78,3.02,null
SMAR,2023-04-11 15:30:46.279,46.0902984,11.1156286,350.05,7.79,3.02,null
STON,2023-04-11 15:30:46.279,46.09030471333333,11.11557065,19.891159,147.365803,-0.490481,1
SMAR,2023-04-11 15:30:46.314,46.0902984,11.1156286,350.05,7.79,3.02,null
SMAR,2023-04-11 15:30:46.346,46.0902984,11.1156286,350.05,7.79,3.02,null
SMAR,2023-04-11 15:30:46.379,46.0902984,11.1156286,350.05,7.78,3.02,null
SMAR,2023-04-11 15:30:46.412,46.0902984,11.1156286,350.05,7.78,3.02,null
SMAR,2023-04-11 15:30:46.443,46.0902984,11.1156286,350.05,7.78,3.03,null
SMAR,2023-04-11 15:30:46.481,46.0902984,11.1156286,350.05,7.79,3.02,null
STON,2023-04-11 15:30:46.481,46.09030471333333,11.11557065,19.990389,147.352207,-0.301677,1
SMAR,2023-04-11 15:30:46.507,46.0902984,11.1156286,350.05,7.78,3.03,null
SMAR,2023-04-11 15:30:46.544,46.0902984,11.1156286,350.05,7.78,3.03,null
SMAR,2023-04-11 15:30:46.581,46.0902984,11.1156286,350.05,7.78,3.03,null
SMAR,2023-04-11 15:30:46.617,46.0902984,11.1156286,350.05,7.78,3.03,null
SMAR,2023-04-11 15:30:46.643,46.0902984,11.1156286,350.05,7.78,3.03,null
SMAR,2023-04-11 15:30:46.678,46.0902984,11.1156286,350.05,7.78,3.03,null
STON,2023-04-11 15:30:46.678,46.09030471333333,11.11557065,20.07831,147.26905399999998,-0.182826,1
SMAR,2023-04-11 15:30:46.713,46.0902983,11.1156283,350.05,7.78,3.03,null
SMAR,2023-04-11 15:30:46.74,46.0902983,11.1156283,350.05,7.78,3.03,null
SMAR,2023-04-11 15:30:46.775,46.0902983,11.1156283,350.05,7.78,3.03,null
SMAR,2023-04-11 15:30:46.809,46.0902983,11.1156283,350.05,7.78,3.03,null
SMAR,2023-04-11 15:30:46.841,46.0902983,11.1156283,350.05,7.78,3.03,null
STON,2023-04-11 15:30:46.841,46.09030186166667,11.115569366666668,20.07831,147.26905399999998,-0.182826,1
SMAR,2023-04-11 15:30:46.875,46.0902983,11.1156283,350.05,7.78,3.03,null
SMAR,2023-04-11 15:30:46.908,46.0902983,11.1156283,350.05,7.78,3.03,null
SMAR,2023-04-11 15:30:46.941,46.0902983,11.1156283,350.05,7.78,3.03,null
STON,2023-04-11 15:30:46.941,46.09030186166667,11.115569366666668,20.07831,147.26905399999998,-0.182826,1
SMAR,2023-04-11 15:30:46.973,46.0902983,11.1156283,350.05,7.78,3.03,null
SMAR,2023-04-11 15:30:47.01,46.0902983,11.1156283,350.05,7.78,3.03,null
SMAR,2023-04-11 15:30:47.041,46.0902983,11.1156283,350.05,7.78,3.03,null
STON,2023-04-11 15:30:47.041,46.09030186166667,11.115569366666668,20.160061,147.263985,-0.013972,1
SMAR,2023-04-11 15:30:47.072,46.0902983,11.1156283,350.05,7.78,3.03,null
STON,2023-04-11 15:30:47.072,46.09030186166667,11.115569366666668,20.137213,147.327595,0.004777,1
SMAR,2023-04-11 15:30:47.106,46.0902983,11.1156283,350.05,7.78,3.03,null
SMAR,2023-04-11 15:30:47.139,46.0902983,11.1156283,350.05,7.78,3.03,null
SMAR,2023-04-11 15:30:47.173,46.0902983,11.1156283,350.06,7.78,3.03,null
SMAR,2023-04-11 15:30:47.207,46.0902983,11.1156283,350.06,7.78,3.03,null
SMAR,2023-04-11 15:30:47.239,46.0902983,11.1156283,350.06,7.78,3.03,null
SMAR,2023-04-11 15:30:47.272,46.0902983,11.1156283,350.06,7.78,3.03,null
STON,2023-04-11 15:30:47.272,46.09030186166667,11.115569366666668,20.182171,147.291737,0.04635,1
SMAR,2023-04-11 15:30:47.321,46.0902983,11.1156283,350.05,7.78,3.03,null
SMAR,2023-04-11 15:30:47.355,46.0902983,11.1156283,350.06,7.78,3.03,null
SMAR,2023-04-11 15:30:47.387,46.0902983,11.1156283,350.06,7.78,3.03,null
SMAR,2023-04-11 15:30:47.429,46.0902983,11.1156283,350.05,7.78,3.03,null
SMAR,2023-04-11 15:30:47.446,46.0902983,11.1156283,350.06,7.78,3.03,null
SMAR,2023-04-11 15:30:47.487,46.0902983,11.1156283,350.06,7.78,3.03,null
SMAR,2023-04-11 15:30:47.51,46.0902983,11.1156283,350.06,7.78,3.03,null
STON,2023-04-11 15:30:47.51,46.09030186166667,11.115569366666668,20.083534,147.316319,0.077766,1
SMAR,2023-04-11 15:30:47.552,46.0902983,11.1156283,350.05,7.78,3.03,null
SMAR,2023-04-11 15:30:47.586,46.0902983,11.1156283,350.05,7.78,3.03,null
SMAR,2023-04-11 15:30:47.618,46.0902983,11.1156283,350.05,7.78,3.03,null
SMAR,2023-04-11 15:30:47.653,46.0902983,11.1156283,350.06,7.78,3.03,null
SMAR,2023-04-11 15:30:47.687,46.0902983,11.1156283,350.06,7.78,3.03,null
SMAR,2023-04-11 15:30:47.718,46.0902983,11.1156283,350.06,7.78,3.02,null
SMAR,2023-04-11 15:30:47.751,46.0902983,11.1156283,350.06,7.78,3.02,null
STON,2023-04-11 15:30:47.751,46.09030186166667,11.115569366666668,20.1231,147.250092,0.148414,1
SMAR,2023-04-11 15:30:47.783,46.0902983,11.1156283,350.05,7.78,3.02,null
STON,2023-04-11 15:30:47.783,46.09029916833333,11.115568156666667,20.1231,147.250092,0.148414,1
STON,2023-04-11 15:30:47.783,46.09029916833333,11.115568156666667,20.1231,147.250092,0.148414,1
SMAR,2023-04-11 15:30:47.818,46.0902983,11.1156283,350.05,7.78,3.02,null
SMAR,2023-04-11 15:30:47.851,46.0902983,11.1156283,350.05,7.78,3.02,null
STON,2023-04-11 15:30:47.851,46.09029916833333,11.115568156666667,20.174541,147.267258,0.256332,1
SMAR,2023-04-11 15:30:47.887,46.0902983,11.1156283,350.05,7.78,3.02,null
SMAR,2023-04-11 15:30:47.916,46.0902983,11.1156283,350.05,7.78,3.02,null
SMAR,2023-04-11 15:30:47.951,46.0902983,11.1156283,350.05,7.78,3.02,null
SMAR,2023-04-11 15:30:47.982,46.0902983,11.1156283,350.05,7.78,3.02,null
SMAR,2023-04-11 15:30:48.015,46.0902983,11.1156283,350.05,7.78,3.02,null
SMAR,2023-04-11 15:30:48.049,46.0902983,11.1156283,350.05,7.78,3.02,null
SMAR,2023-04-11 15:30:48.083,46.0902983,11.1156283,350.05,7.78,3.02,null
SMAR,2023-04-11 15:30:48.114,46.0902983,11.1156283,350.05,7.78,3.02,null
STON,2023-04-11 15:30:48.114,46.09029916833333,11.115568156666667,20.224167,147.275383,0.378839,1
SMAR,2023-04-11 15:30:48.147,46.0902983,11.1156283,350.05,7.79,3.02,null
SMAR,2023-04-11 15:30:48.18,46.0902983,11.1156283,350.05,7.79,3.02,null
SMAR,2023-04-11 15:30:48.215,46.0902983,11.1156283,350.05,7.78,3.02,null
SMAR,2023-04-11 15:30:48.247,46.0902983,11.1156283,350.05,7.78,3.02,null
SMAR,2023-04-11 15:30:48.28,46.0902983,11.1156283,350.05,7.78,3.02,null
SMAR,2023-04-11 15:30:48.314,46.0902983,11.1156283,350.05,7.79,3.02,null
STON,2023-04-11 15:30:48.314,46.09029916833333,11.115568156666667,20.164881,147.332485,0.289604,1
SMAR,2023-04-11 15:30:48.346,46.0902983,11.1156283,350.05,7.78,3.02,null
SMAR,2023-04-11 15:30:48.379,46.0902983,11.1156283,350.05,7.78,3.02,null
SMAR,2023-04-11 15:30:48.415,46.0902983,11.1156283,350.05,7.78,3.02,null
SMAR,2023-04-11 15:30:48.445,46.0902983,11.1156283,350.05,7.78,3.02,null
SMAR,2023-04-11 15:30:48.479,46.0902983,11.1156283,350.05,7.78,3.02,null
STON,2023-04-11 15:30:48.479,46.09029916833333,11.115568156666667,20.133074,147.372387,0.270186,1
SMAR,2023-04-11 15:30:48.512,46.0902983,11.1156283,350.05,7.78,3.02,null
SMAR,2023-04-11 15:30:48.552,46.0902983,11.1156283,350.05,7.78,3.02,null
SMAR,2023-04-11 15:30:48.583,46.0902983,11.1156283,350.05,7.78,3.02,null
SMAR,2023-04-11 15:30:48.613,46.0902983,11.1156283,350.05,7.78,3.02,null
SMAR,2023-04-11 15:30:48.659,46.0902983,11.1156283,350.05,7.78,3.02,null
SMAR,2023-04-11 15:30:48.693,46.0902983,11.1156283,350.05,7.78,3.02,null
STON,2023-04-11 15:30:48.693,46.09029916833333,11.115568156666667,20.151819,147.33176,0.343819,1
SMAR,2023-04-11 15:30:48.722,46.0902983,11.1156283,350.05,7.78,3.02,null
STON,2023-04-11 15:30:48.722,46.09029712,11.115569448333334,20.151819,147.33176,0.343819,1
STON,2023-04-11 15:30:48.722,46.09029712,11.115569448333334,20.151819,147.33176,0.343819,1
SMAR,2023-04-11 15:30:48.745,46.0902983,11.1156283,350.05,7.78,3.02,null
SMAR,2023-04-11 15:30:48.776,46.0902983,11.1156283,350.05,7.78,3.02,null
SMAR,2023-04-11 15:30:48.812,46.0902983,11.1156283,350.05,7.78,3.02,null
SMAR,2023-04-11 15:30:48.845,46.0902983,11.1156283,350.05,7.78,3.02,null
SMAR,2023-04-11 15:30:48.876,46.0902983,11.1156283,350.05,7.78,3.02,null
SMAR,2023-04-11 15:30:48.909,46.0902983,11.1156283,350.05,7.78,3.02,null
SMAR,2023-04-11 15:30:48.947,46.0902983,11.1156283,350.05,7.78,3.02,null
STON,2023-04-11 15:30:48.947,46.09029712,11.115569448333334,20.086815,147.31373200000002,0.403345,1
SMAR,2023-04-11 15:30:48.975,46.0902983,11.1156283,350.05,7.78,3.02,null
SMAR,2023-04-11 15:30:49.009,46.0902983,11.1156283,350.05,7.78,3.02,null
SMAR,2023-04-11 15:30:49.042,46.0902983,11.1156283,350.05,7.78,3.02,null
SMAR,2023-04-11 15:30:49.077,46.0902983,11.1156283,350.05,7.78,3.02,null
SMAR,2023-04-11 15:30:49.108,46.0902983,11.1156283,350.05,7.78,3.02,null
STON,2023-04-11 15:30:49.108,46.09029712,11.115569448333334,20.120369,147.452385,0.406082,1
SMAR,2023-04-11 15:30:49.142,46.0902983,11.1156283,350.05,7.78,3.02,null
SMAR,2023-04-11 15:30:49.177,46.0902983,11.1156283,350.05,7.78,3.02,null
SMAR,2023-04-11 15:30:49.211,46.0902983,11.1156283,350.05,7.78,3.02,null
SMAR,2023-04-11 15:30:49.241,46.0902983,11.1156283,350.05,7.78,3.02,null
SMAR,2023-04-11 15:30:49.273,46.0902983,11.1156283,350.06,7.78,3.02,null
STON,2023-04-11 15:30:49.273,46.09029712,11.115569448333334,20.119967,147.4459,0.414448,1
SMAR,2023-04-11 15:30:49.311,46.0902983,11.1156283,350.06,7.78,3.02,null
SMAR,2023-04-11 15:30:49.34,46.0902983,11.1156283,350.06,7.78,3.02,null
SMAR,2023-04-11 15:30:49.373,46.0902983,11.1156283,350.05,7.78,3.02,null
SMAR,2023-04-11 15:30:49.407,46.0902983,11.1156283,350.06,7.78,3.02,null
SMAR,2023-04-11 15:30:49.44,46.0902983,11.1156283,350.06,7.78,3.02,null
SMAR,2023-04-11 15:30:49.472,46.0902983,11.1156283,350.06,7.78,3.02,null
STON,2023-04-11 15:30:49.472,46.09029712,11.115569448333334,20.173378,147.41075899999998,0.472616,1
SMAR,2023-04-11 15:30:49.506,46.0902983,11.1156283,350.06,7.78,3.02,null
SMAR,2023-04-11 15:30:49.538,46.0902983,11.1156283,350.06,7.78,3.03,null
SMAR,2023-04-11 15:30:49.571,46.0902983,11.1156283,350.06,7.78,3.03,null
SMAR,2023-04-11 15:30:49.621,46.0902983,11.1156283,350.05,7.78,3.03,null
SMAR,2023-04-11 15:30:49.654,46.0902983,11.1156283,350.05,7.78,3.03,null
SMAR,2023-04-11 15:30:49.675,46.0902983,11.1156283,350.05,7.78,3.03,null
STON,2023-04-11 15:30:49.675,46.09029712,11.115569448333334,20.18154,147.415142,0.460057,1
SMAR,2023-04-11 15:30:49.72,46.0902983,11.1156283,350.05,7.78,3.03,null
SMAR,2023-04-11 15:30:49.757,46.0902983,11.1156283,350.05,7.78,3.03,null
STON,2023-04-11 15:30:49.757,46.090295841666666,11.115572766666666,20.18154,147.415142,0.460057,1
STON,2023-04-11 15:30:49.757,46.090295841666666,11.115572766666666,20.18154,147.415142,0.460057,1
SMAR,2023-04-11 15:30:49.784,46.0902983,11.1156283,350.05,7.78,3.03,null
SMAR,2023-04-11 15:30:49.823,46.0902983,11.1156283,350.05,7.78,3.03,null
SMAR,2023-04-11 15:30:49.854,46.0902983,11.1156283,350.05,7.78,3.03,null
SMAR,2023-04-11 15:30:49.887,46.0902983,11.1156283,350.05,7.78,3.03,null
SMAR,2023-04-11 15:30:49.918,46.0902983,11.1156283,350.05,7.78,3.03,null
STON,2023-04-11 15:30:49.918,46.090295841666666,11.115572766666666,20.170788,147.438293,0.459232,1
SMAR,2023-04-11 15:30:49.953,46.0902983,11.1156283,350.05,7.78,3.03,null
SMAR,2023-04-11 15:30:49.991,46.0902983,11.1156283,350.05,7.78,3.03,null
SMAR,2023-04-11 15:30:50.018,46.0902983,11.1156283,350.05,7.78,3.03,null
SMAR,2023-04-11 15:30:50.053,46.0902983,11.1156283,350.05,7.78,3.03,null
SMAR,2023-04-11 15:30:50.086,46.0902983,11.1156283,350.05,7.78,3.03,null
SMAR,2023-04-11 15:30:50.128,46.0902983,11.1156283,350.05,7.78,3.03,null
SMAR,2023-04-11 15:30:50.158,46.0902983,11.1156283,350.05,7.78,3.03,null
SMAR,2023-04-11 15:30:50.189,46.0902983,11.1156283,350.05,7.78,3.03,null
SMAR,2023-04-11 15:30:50.22,46.0902983,11.1156283,350.05,7.78,3.03,null
SMAR,2023-04-11 15:30:50.249,46.0902983,11.1156283,350.05,7.78,3.02,null
SMAR,2023-04-11 15:30:50.284,46.0902983,11.1156283,350.05,7.78,3.02,null
SMAR,2023-04-11 15:30:50.322,46.0902983,11.1156283,350.05,7.78,3.02,null
SMAR,2023-04-11 15:30:50.355,46.0902983,11.1156283,350.05,7.78,3.02,null
SMAR,2023-04-11 15:30:50.384,46.0902983,11.1156283,350.06,7.78,3.02,null
SMAR,2023-04-11 15:30:50.417,46.0902983,11.1156283,350.06,7.78,3.02,null
SMAR,2023-04-11 15:30:50.474,46.0902983,11.1156283,350.06,7.78,3.02,null
SMAR,2023-04-11 15:30:50.507,46.0902983,11.1156283,350.06,7.78,3.02,null
SMAR,2023-04-11 15:30:50.534,46.0902983,11.1156283,350.06,7.78,3.02,null
SMAR,2023-04-11 15:30:50.554,46.0902983,11.1156283,350.06,7.78,3.02,null
SMAR,2023-04-11 15:30:50.589,46.0902983,11.1156283,350.06,7.78,3.02,null
SMAR,2023-04-11 15:30:50.618,46.0902983,11.1156283,350.06,7.78,3.02,null
SMAR,2023-04-11 15:30:50.665,46.0902983,11.1156283,350.06,7.78,3.02,null
STON,2023-04-11 15:30:50.665,46.090295841666666,11.115572766666666,20.206953,147.401722,0.455836,1
STON,2023-04-11 15:30:50.665,46.090295841666666,11.115572766666666,20.232353,147.432343,0.462269,1
SMAR,2023-04-11 15:30:50.687,46.0902983,11.1156283,350.06,7.78,3.02,null
STON,2023-04-11 15:30:50.687,46.090295841666666,11.115572766666666,20.279663,147.380508,0.424829,1
SMAR,2023-04-11 15:30:50.717,46.0902983,11.1156283,350.06,7.78,3.02,null
STON,2023-04-11 15:30:50.717,46.090295841666666,11.115572766666666,20.272846,147.385433,0.428796,1
STON,2023-04-11 15:30:50.717,46.09029464,11.115575038333333,20.272846,147.385433,0.428796,1
SMAR,2023-04-11 15:30:50.752,46.0902983,11.1156283,350.06,7.78,3.02,null
STON,2023-04-11 15:30:50.752,46.09029464,11.115575038333333,20.272846,147.385433,0.428796,1
SMAR,2023-04-11 15:30:50.792,46.0902983,11.1156283,350.06,7.78,3.02,null
SMAR,2023-04-11 15:30:50.826,46.0902983,11.1156283,350.06,7.79,3.01,null
SMAR,2023-04-11 15:30:50.855,46.0902983,11.1156283,350.06,7.79,3.01,null
SMAR,2023-04-11 15:30:50.892,46.0902983,11.1156283,350.06,7.79,3.01,null
STON,2023-04-11 15:30:50.892,46.09029464,11.115575038333333,20.347725,147.474995,0.499527,1
SMAR,2023-04-11 15:30:50.924,46.0902983,11.1156283,350.06,7.79,3.01,null
SMAR,2023-04-11 15:30:50.958,46.0902983,11.1156283,350.06,7.79,3.01,null
SMAR,2023-04-11 15:30:50.984,46.0902983,11.1156283,350.05,7.79,3.01,null
SMAR,2023-04-11 15:30:51.016,46.0902983,11.1156283,350.05,7.79,3.01,null
SMAR,2023-04-11 15:30:51.047,46.0902983,11.1156283,350.05,7.79,3.01,null
SMAR,2023-04-11 15:30:51.081,46.0902983,11.1156283,350.05,7.79,3.01,null
SMAR,2023-04-11 15:30:51.113,46.0902983,11.1156283,350.05,7.79,3.01,null
STON,2023-04-11 15:30:51.113,46.09029464,11.115575038333333,20.385317,147.516453,0.527499,1
SMAR,2023-04-11 15:30:51.145,46.0902983,11.1156283,350.06,7.79,3.02,null
SMAR,2023-04-11 15:30:51.178,46.0902983,11.1156283,350.06,7.79,3.02,null
SMAR,2023-04-11 15:30:51.212,46.0902983,11.1156283,350.06,7.79,3.02,null
SMAR,2023-04-11 15:30:51.241,46.0902983,11.1156283,350.06,7.79,3.02,null
SMAR,2023-04-11 15:30:51.277,46.0902983,11.1156283,350.06,7.79,3.02,null
STON,2023-04-11 15:30:51.277,46.09029464,11.115575038333333,20.409227,147.599594,0.502167,1
SMAR,2023-04-11 15:30:51.308,46.0902983,11.1156283,350.06,7.79,3.02,null
SMAR,2023-04-11 15:30:51.341,46.0902983,11.1156283,350.06,7.79,3.02,null
SMAR,2023-04-11 15:30:51.391,46.0902983,11.1156283,350.06,7.79,3.02,null
SMAR,2023-04-11 15:30:51.426,46.0902983,11.1156283,350.06,7.79,3.02,null
SMAR,2023-04-11 15:30:51.462,46.0902983,11.1156283,350.06,7.79,3.02,null
SMAR,2023-04-11 15:30:51.495,46.0902983,11.1156283,350.06,7.79,3.02,null
SMAR,2023-04-11 15:30:51.529,46.0902983,11.1156283,350.06,7.79,3.02,null
SMAR,2023-04-11 15:30:51.562,46.0902983,11.1156283,350.06,7.79,3.02,null
SMAR,2023-04-11 15:30:51.593,46.0902983,11.1156283,350.06,7.79,3.02,null
SMAR,2023-04-11 15:30:51.619,46.0902983,11.1156283,350.06,7.79,3.02,null
SMAR,2023-04-11 15:30:51.697,46.0902983,11.1156283,350.06,7.79,3.02,null
SMAR,2023-04-11 15:30:51.726,46.0902983,11.1156283,350.06,7.79,3.02,null
STON,2023-04-11 15:30:51.726,46.09029464,11.115575038333333,20.449503,147.671432,0.617184,1
SMAR,2023-04-11 15:30:51.751,46.0902983,11.1156283,350.06,7.79,3.02,null
SMAR,2023-04-11 15:30:51.786,46.0902983,11.1156283,350.06,7.79,3.02,null
STON,2023-04-11 15:30:51.786,46.09029350666667,11.115576775,20.449503,147.671432,0.617184,1
SMAR,2023-04-11 15:30:51.805,46.0902983,11.1156283,350.06,7.79,3.02,null
SMAR,2023-04-11 15:30:51.838,46.0902983,11.1156283,350.06,7.79,3.02,null
STON,2023-04-11 15:30:51.838,46.09029350666667,11.115576775,20.449503,147.671432,0.617184,1
SMAR,2023-04-11 15:30:51.889,46.0902983,11.1156283,350.06,7.79,3.02,null
SMAR,2023-04-11 15:30:51.92,46.0902983,11.1156283,350.06,7.79,3.02,null
SMAR,2023-04-11 15:30:51.954,46.0902983,11.1156283,350.06,7.79,3.02,null
STON,2023-04-11 15:30:51.954,46.09029350666667,11.115576775,20.422262,147.664246,0.532412,1
SMAR,2023-04-11 15:30:51.986,46.0902983,11.1156283,350.06,7.79,3.02,null
SMAR,2023-04-11 15:30:52.019,46.0902983,11.1156283,350.06,7.78,3.02,null
SMAR,2023-04-11 15:30:52.053,46.0902983,11.1156283,350.06,7.78,3.02,null
