Input,Time,Latitude,Longitude,Altitude,Pitch,Yaw,Roll,Stonex_status
SMAR,2023-05-09 17:15:55.336,46.0898234,11.1155436,244.89999389648438,-11.17,-73.97,0.84,null
SMAR,2023-05-09 17:15:55.369,46.0898234,11.1155436,244.89999389648438,-11.19,-73.89,0.82,null
STON,2023-05-09 17:15:55.369,46.089760535,11.115524808333333,198.26,-10.691818,-1.929142,-0.842404,2
SMAR,2023-05-09 17:15:55.402,46.0898234,11.1155436,244.89999389648438,-11.22,-73.93,0.82,null
SMAR,2023-05-09 17:15:55.432,46.0898234,11.1155436,244.89999389648438,-11.25,-73.91,0.81,null
SMAR,2023-05-09 17:15:55.463,46.0898234,11.1155436,244.89999389648438,-11.28,-73.83,0.78,null
STON,2023-05-09 17:15:55.463,46.089760535,11.115524808333333,198.26,-10.712424,-1.641561,-0.917443,2
SMAR,2023-05-09 17:15:55.5,46.0898234,11.1155436,244.89999389648438,-11.3,-73.81,0.78,null
SMAR,2023-05-09 17:15:55.532,46.0898234,11.1155436,244.89999389648438,-11.32,-73.85,0.79,null
SMAR,2023-05-09 17:15:55.565,46.0898234,11.1155436,244.89999389648438,-11.36,-73.79,0.78,null
STON,2023-05-09 17:15:55.565,46.089760565,11.115524818333334,198.26,-10.712424,-1.641561,-0.917443,2
SMAR,2023-05-09 17:15:55.598,46.0898234,11.1155436,244.89999389648438,-11.38,-73.71,0.76,null
SMAR,2023-05-09 17:15:55.632,46.0898234,11.1155436,244.89999389648438,-11.42,-73.67,0.74,null
STON,2023-05-09 17:15:55.632,46.089760565,11.115524818333334,198.26,-10.869088,-1.526051,-0.967361,2
SMAR,2023-05-09 17:15:55.664,46.0898234,11.1155436,244.89999389648438,-11.46,-73.62,0.73,null
SMAR,2023-05-09 17:15:55.697,46.0898234,11.1155436,244.89999389648438,-11.5,-73.54,0.71,null
SMAR,2023-05-09 17:15:55.731,46.0898234,11.1155436,244.89999389648438,-11.54,-73.45,0.69,null
SMAR,2023-05-09 17:15:55.765,46.0898234,11.1155436,244.89999389648438,-11.59,-73.38,0.68,null
STON,2023-05-09 17:15:55.765,46.089760616666666,11.11552483,198.26,-10.869088,-1.526051,-0.967361,2
SMAR,2023-05-09 17:15:55.798,46.0898234,11.1155436,244.89999389648438,-11.63,-73.33,0.68,null
SMAR,2023-05-09 17:15:55.83,46.0898234,11.1155436,244.89999389648438,-11.68,-73.24,0.67,null
STON,2023-05-09 17:15:55.83,46.089760616666666,11.11552483,198.26,-11.096369,-1.072838,-1.07209,2
SMAR,2023-05-09 17:15:55.864,46.0898234,11.1155436,244.89999389648438,-11.72,-73.14,0.65,null
SMAR,2023-05-09 17:15:55.898,46.0898234,11.1155436,244.89999389648438,-11.76,-73.05,0.64,null
SMAR,2023-05-09 17:15:55.935,46.0898234,11.1155436,244.89999389648438,-11.81,-72.96,0.63,null
SMAR,2023-05-09 17:15:55.967,46.0898234,11.1155436,244.89999389648438,-11.86,-72.92,0.62,null
SMAR,2023-05-09 17:15:55.999,46.0898233,11.1155434,244.89999389648438,-11.92,-72.98,0.64,null
SMAR,2023-05-09 17:15:56.033,46.0898233,11.1155434,244.89999389648438,-11.98,-73.0,0.65,null
SMAR,2023-05-09 17:15:56.065,46.0898233,11.1155434,244.89999389648438,-12.04,-72.99,0.64,null
STON,2023-05-09 17:15:56.065,46.089760676666664,11.115524841666666,198.253,-11.096369,-1.072838,-1.07209,2
STON,2023-05-09 17:15:56.065,46.089760676666664,11.115524841666666,198.253,-11.368176,-0.581384,-1.133538,2
SMAR,2023-05-09 17:15:56.099,46.0898233,11.1155434,244.89999389648438,-12.11,-73.05,0.65,null
SMAR,2023-05-09 17:15:56.134,46.0898233,11.1155434,244.89999389648438,-12.16,-73.11,0.68,null
SMAR,2023-05-09 17:15:56.165,46.0898233,11.1155434,244.89999389648438,-12.21,-73.07,0.7,null
SMAR,2023-05-09 17:15:56.199,46.0898233,11.1155434,244.89999389648438,-12.24,-72.97,0.69,null
STON,2023-05-09 17:15:56.199,46.08976073833333,11.11552485,198.251,-11.368176,-0.581384,-1.133538,2
SMAR,2023-05-09 17:15:56.233,46.0898233,11.1155434,244.89999389648438,-12.26,-72.91,0.68,null
SMAR,2023-05-09 17:15:56.267,46.0898233,11.1155434,244.89999389648438,-12.27,-72.86,0.67,null
STON,2023-05-09 17:15:56.267,46.08976073833333,11.11552485,198.251,-11.709364,-0.730773,-1.076628,2
SMAR,2023-05-09 17:15:56.3,46.0898233,11.1155434,244.89999389648438,-12.26,-72.83,0.68,null
SMAR,2023-05-09 17:15:56.336,46.0898233,11.1155434,244.89999389648438,-12.24,-72.8,0.71,null
SMAR,2023-05-09 17:15:56.368,46.0898233,11.1155434,244.89999389648438,-12.2,-72.73,0.74,null
STON,2023-05-09 17:15:56.368,46.08976076166667,11.115524883333332,198.255,-11.709364,-0.730773,-1.076628,2
SMAR,2023-05-09 17:15:56.4,46.0898233,11.1155434,244.89999389648438,-12.16,-72.69,0.79,null
SMAR,2023-05-09 17:15:56.437,46.0898233,11.1155434,244.89999389648438,-12.13,-72.68,0.84,null
STON,2023-05-09 17:15:56.437,46.08976076166667,11.115524883333332,198.255,-11.721462,-0.402098,-1.019057,2
SMAR,2023-05-09 17:15:56.468,46.0898233,11.1155434,244.89999389648438,-12.1,-72.66,0.89,null
SMAR,2023-05-09 17:15:56.504,46.0898233,11.1155434,244.89999389648438,-12.09,-72.52,0.9,null
SMAR,2023-05-09 17:15:56.535,46.0898233,11.1155434,244.89999389648438,-12.09,-72.3,0.9,null
STON,2023-05-09 17:15:56.535,46.089760786666666,11.115524973333333,198.262,-11.721462,-0.402098,-1.019057,2
SMAR,2023-05-09 17:15:56.569,46.0898233,11.1155434,244.89999389648438,-12.1,-72.08,0.9,null
SMAR,2023-05-09 17:15:56.602,46.0898233,11.1155434,244.89999389648438,-12.12,-71.88,0.9,null
SMAR,2023-05-09 17:15:56.638,46.0898233,11.1155434,244.89999389648438,-12.16,-71.7,0.92,null
STON,2023-05-09 17:15:56.638,46.089760786666666,11.115524973333333,198.262,-11.603158,0.209124,-0.859218,2
SMAR,2023-05-09 17:15:56.671,46.0898233,11.1155434,244.89999389648438,-12.2,-71.57,0.94,null
SMAR,2023-05-09 17:15:56.704,46.0898233,11.1155434,244.89999389648438,-12.25,-71.49,0.97,null
SMAR,2023-05-09 17:15:56.733,46.0898233,11.1155434,244.89999389648438,-12.29,-71.45,1.0,null
STON,2023-05-09 17:15:56.733,46.089760901666665,11.115525075,198.305,-11.603158,0.209124,-0.859218,2
SMAR,2023-05-09 17:15:56.768,46.0898233,11.1155434,244.89999389648438,-12.33,-71.37,1.01,null
SMAR,2023-05-09 17:15:56.804,46.0898233,11.1155434,244.89999389648438,-12.36,-71.25,1.02,null
SMAR,2023-05-09 17:15:56.834,46.0898233,11.1155434,244.89999389648438,-12.39,-71.13,1.02,null
SMAR,2023-05-09 17:15:56.866,46.0898233,11.1155434,244.89999389648438,-12.4,-70.99,1.01,null
SMAR,2023-05-09 17:15:56.9,46.0898233,11.1155434,244.89999389648438,-12.42,-70.85,1.01,null
STON,2023-05-09 17:15:56.9,46.089760901666665,11.115525075,198.305,-11.840371,0.927068,-0.735205,2
SMAR,2023-05-09 17:15:56.936,46.0898233,11.1155434,244.89999389648438,-12.43,-70.75,1.02,null
SMAR,2023-05-09 17:15:56.966,46.0898233,11.1155434,244.89999389648438,-12.43,-70.66,1.02,null
SMAR,2023-05-09 17:15:57.003,46.0898233,11.1155434,244.89999389648438,-12.43,-70.53,1.03,null
SMAR,2023-05-09 17:15:57.033,46.0898233,11.1155434,244.89999389648438,-12.43,-70.42,1.04,null
SMAR,2023-05-09 17:15:57.069,46.0898233,11.1155434,244.89999389648438,-12.41,-70.26,1.06,null
STON,2023-05-09 17:15:57.069,46.08976098,11.115525086666667,198.303,-11.840371,0.927068,-0.735205,2
SMAR,2023-05-09 17:15:57.1,46.0898233,11.1155434,244.89999389648438,-12.39,-70.06,1.07,null
STON,2023-05-09 17:15:57.1,46.08976098,11.115525086666667,198.303,-11.948129,1.633607,-0.711796,2
SMAR,2023-05-09 17:15:57.134,46.0898233,11.1155434,244.89999389648438,-12.36,-69.88,1.09,null
SMAR,2023-05-09 17:15:57.17,46.0898233,11.1155434,244.89999389648438,-12.33,-69.64,1.1,null
STON,2023-05-09 17:15:57.17,46.08976112166667,11.115525011666668,198.315,-11.948129,1.633607,-0.711796,2
SMAR,2023-05-09 17:15:57.201,46.0898233,11.1155434,244.89999389648438,-12.29,-69.36,1.11,null
SMAR,2023-05-09 17:15:57.236,46.0898233,11.1155434,244.89999389648438,-12.25,-69.05,1.11,null
STON,2023-05-09 17:15:57.236,46.08976112166667,11.115525011666668,198.315,-11.864853,2.607817,-0.632472,2
SMAR,2023-05-09 17:15:57.268,46.0898233,11.1155434,244.89999389648438,-12.19,-68.69,1.11,null
SMAR,2023-05-09 17:15:57.302,46.0898233,11.1155434,244.89999389648438,-12.13,-68.31,1.12,null
SMAR,2023-05-09 17:15:57.335,46.0898233,11.1155434,244.89999389648438,-12.05,-67.91,1.15,null
SMAR,2023-05-09 17:15:57.369,46.0898233,11.1155434,244.89999389648438,-11.96,-67.58,1.19,null
SMAR,2023-05-09 17:15:57.402,46.0898233,11.1155434,244.89999389648438,-11.87,-67.33,1.26,null
STON,2023-05-09 17:15:57.402,46.089761368333335,11.115524846666666,198.325,-11.864853,2.607817,-0.632472,2
SMAR,2023-05-09 17:15:57.436,46.0898233,11.1155434,244.89999389648438,-11.77,-67.0,1.32,null
STON,2023-05-09 17:15:57.436,46.089761368333335,11.115524846666666,198.325,-11.513277,4.658807,-0.54929,2
SMAR,2023-05-09 17:15:57.469,46.0898233,11.1155434,244.89999389648438,-11.67,-66.44,1.34,null
SMAR,2023-05-09 17:15:57.505,46.0898233,11.1155434,244.89999389648438,-11.55,-65.66,1.33,null
SMAR,2023-05-09 17:15:57.535,46.0898233,11.1155434,244.89999389648438,-11.44,-64.86,1.32,null
SMAR,2023-05-09 17:15:57.571,46.0898233,11.1155434,244.89999389648438,-11.32,-64.26,1.38,null
STON,2023-05-09 17:15:57.571,46.08976169333334,11.115524625,198.34,-11.513277,4.658807,-0.54929,2
SMAR,2023-05-09 17:15:57.603,46.0898233,11.1155434,244.89999389648438,-11.22,-63.87,1.47,null
SMAR,2023-05-09 17:15:57.635,46.0898233,11.1155434,244.89999389648438,-11.12,-63.49,1.57,null
SMAR,2023-05-09 17:15:57.672,46.0898233,11.1155434,244.89999389648438,-11.02,-63.0,1.63,null
SMAR,2023-05-09 17:15:57.702,46.0898233,11.1155434,244.89999389648438,-10.92,-62.46,1.69,null
SMAR,2023-05-09 17:15:57.739,46.0898233,11.1155434,244.89999389648438,-10.83,-62.06,1.76,null
SMAR,2023-05-09 17:15:57.769,46.0898233,11.1155434,244.89999389648438,-10.73,-61.93,1.84,null
STON,2023-05-09 17:15:57.769,46.08976205333333,11.115524481666666,198.34,-11.513277,4.658807,-0.54929,2
SMAR,2023-05-09 17:15:57.806,46.0898233,11.1155434,244.89999389648438,-10.63,-62.02,1.94,null
SMAR,2023-05-09 17:15:57.837,46.0898233,11.1155434,244.89999389648438,-10.53,-62.13,2.0,null
STON,2023-05-09 17:15:57.837,46.08976205333333,11.115524481666666,198.34,-10.277958,10.309203,0.072136,2
SMAR,2023-05-09 17:15:57.873,46.0898233,11.1155434,244.89999389648438,-10.43,-62.11,2.0,null
SMAR,2023-05-09 17:15:57.908,46.0898233,11.1155434,244.89999389648438,-10.33,-62.07,1.97,null
SMAR,2023-05-09 17:15:57.939,46.0898233,11.1155434,244.89999389648438,-10.23,-62.15,1.93,null
SMAR,2023-05-09 17:15:57.975,46.0898233,11.1155434,244.89999389648438,-10.13,-62.36,1.88,null
SMAR,2023-05-09 17:15:58.006,46.0898233,11.1155433,244.89999389648438,-10.02,-62.67,1.83,null
SMAR,2023-05-09 17:15:58.041,46.0898233,11.1155433,244.89999389648438,-9.9,-63.13,1.79,null
STON,2023-05-09 17:15:58.041,46.089762658333335,11.115524628333333,198.346,-10.277958,10.309203,0.072136,2
SMAR,2023-05-09 17:15:58.072,46.0898233,11.1155433,244.89999389648438,-9.76,-63.8,1.77,null
SMAR,2023-05-09 17:15:58.106,46.0898233,11.1155433,244.89999389648438,-9.58,-64.7,1.8,null
SMAR,2023-05-09 17:15:58.136,46.0898233,11.1155433,244.89999389648438,-9.41,-65.66,1.84,null
STON,2023-05-09 17:15:58.136,46.089762658333335,11.115524628333333,198.346,-9.689999,9.991158,0.162533,2
SMAR,2023-05-09 17:15:58.17,46.0898233,11.1155433,244.89999389648438,-9.23,-66.5,1.85,null
SMAR,2023-05-09 17:15:58.204,46.0898233,11.1155433,244.89999389648438,-9.07,-67.03,1.8,null
STON,2023-05-09 17:15:58.204,46.089763555,11.115525015,198.35,-9.689999,9.991158,0.162533,2
SMAR,2023-05-09 17:15:58.242,46.0898233,11.1155433,244.89999389648438,-8.92,-67.31,1.68,null
SMAR,2023-05-09 17:15:58.272,46.0898233,11.1155433,244.89999389648438,-8.82,-67.5,1.55,null
SMAR,2023-05-09 17:15:58.308,46.0898233,11.1155433,244.89999389648438,-8.71,-67.86,1.42,null
STON,2023-05-09 17:15:58.308,46.089763555,11.115525015,198.35,-8.8071,6.086349,0.136549,2
SMAR,2023-05-09 17:15:58.338,46.0898233,11.1155433,244.89999389648438,-8.61,-68.57,1.32,null
SMAR,2023-05-09 17:15:58.373,46.0898233,11.1155433,244.89999389648438,-8.52,-69.53,1.25,null
STON,2023-05-09 17:15:58.373,46.08976442,11.115525275,198.36,-8.8071,6.086349,0.136549,2
SMAR,2023-05-09 17:15:58.406,46.0898233,11.1155433,244.89999389648438,-8.44,-70.33,1.16,null
SMAR,2023-05-09 17:15:58.442,46.0898233,11.1155433,244.89999389648438,-8.39,-70.71,1.01,null
STON,2023-05-09 17:15:58.442,46.08976442,11.115525275,198.36,-8.069763,3.240962,-0.450135,2
SMAR,2023-05-09 17:15:58.474,46.0898233,11.1155433,244.89999389648438,-8.34,-70.84,0.85,null
SMAR,2023-05-09 17:15:58.505,46.0898233,11.1155433,244.89999389648438,-8.31,-70.9,0.7,null
SMAR,2023-05-09 17:15:58.541,46.0898233,11.1155433,244.89999389648438,-8.29,-71.13,0.59,null
SMAR,2023-05-09 17:15:58.574,46.0898233,11.1155433,244.89999389648438,-8.29,-71.58,0.52,null
SMAR,2023-05-09 17:15:58.604,46.0898233,11.1155433,244.89999389648438,-8.29,-72.15,0.5,null
SMAR,2023-05-09 17:15:58.639,46.0898233,11.1155433,244.89999389648438,-8.28,-72.64,0.49,null
SMAR,2023-05-09 17:15:58.672,46.0898233,11.1155433,244.89999389648438,-8.29,-72.89,0.48,null
SMAR,2023-05-09 17:15:58.706,46.0898233,11.1155433,244.89999389648438,-8.28,-72.91,0.45,null
STON,2023-05-09 17:15:58.706,46.08976527,11.115525315,198.367,-8.069763,3.240962,-0.450135,2
STON,2023-05-09 17:15:58.706,46.08976527,11.115525315,198.367,-7.803231,1.122257,-1.194502,2
SMAR,2023-05-09 17:15:58.74,46.0898233,11.1155433,244.89999389648438,-8.27,-72.84,0.42,null
SMAR,2023-05-09 17:15:58.772,46.0898233,11.1155433,244.89999389648438,-8.27,-72.79,0.43,null
STON,2023-05-09 17:15:58.772,46.08976628,11.115525025,198.349,-7.803231,1.122257,-1.194502,2
SMAR,2023-05-09 17:15:58.809,46.0898233,11.1155433,244.89999389648438,-8.28,-72.81,0.44,null
SMAR,2023-05-09 17:15:58.839,46.0898233,11.1155433,244.89999389648438,-8.28,-72.96,0.5,null
STON,2023-05-09 17:15:58.839,46.08976628,11.115525025,198.349,-7.776573,-0.268396,-1.33204,2
SMAR,2023-05-09 17:15:58.873,46.0898233,11.1155433,244.89999389648438,-8.27,-73.03,0.56,null
SMAR,2023-05-09 17:15:58.907,46.0898233,11.1155433,244.89999389648438,-8.24,-72.95,0.61,null
SMAR,2023-05-09 17:15:58.94,46.0898233,11.1155433,244.89999389648438,-8.2,-72.72,0.64,null
SMAR,2023-05-09 17:15:58.972,46.0898233,11.1155433,244.89999389648438,-8.18,-72.51,0.69,null
SMAR,2023-05-09 17:15:59.008,46.0898233,11.1155433,244.89999389648438,-8.15,-72.41,0.76,null
SMAR,2023-05-09 17:15:59.041,46.0898233,11.1155433,244.89999389648438,-8.13,-72.24,0.82,null
STON,2023-05-09 17:15:59.041,46.08976733,11.115524548333333,198.345,-7.776573,-0.268396,-1.33204,2
STON,2023-05-09 17:15:59.041,46.08976733,11.115524548333333,198.345,-7.696576,-0.041454,-1.101881,2
SMAR,2023-05-09 17:15:59.075,46.0898233,11.1155433,244.89999389648438,-8.11,-71.89,0.88,null
SMAR,2023-05-09 17:15:59.106,46.0898233,11.1155433,244.89999389648438,-8.11,-71.42,0.95,null
SMAR,2023-05-09 17:15:59.139,46.0898233,11.1155433,244.89999389648438,-8.11,-71.06,1.04,null
SMAR,2023-05-09 17:15:59.174,46.0898233,11.1155433,244.89999389648438,-8.14,-70.84,1.15,null
STON,2023-05-09 17:15:59.174,46.089768281666665,11.115524226666667,198.361,-7.696576,-0.041454,-1.101881,2
SMAR,2023-05-09 17:15:59.207,46.0898233,11.1155433,244.89999389648438,-8.18,-70.78,1.29,null
SMAR,2023-05-09 17:15:59.241,46.0898233,11.1155433,244.89999389648438,-8.24,-70.75,1.43,null
SMAR,2023-05-09 17:15:59.283,46.0898233,11.1155433,244.89999389648438,-8.3,-70.71,1.57,null
SMAR,2023-05-09 17:15:59.309,46.0898233,11.1155433,244.89999389648438,-8.36,-70.72,1.73,null
SMAR,2023-05-09 17:15:59.347,46.0898233,11.1155433,244.89999389648438,-8.42,-70.9,1.9,null
SMAR,2023-05-09 17:15:59.376,46.0898233,11.1155433,244.89999389648438,-8.46,-71.21,2.06,null
SMAR,2023-05-09 17:15:59.412,46.0898233,11.1155433,244.89999389648438,-8.51,-71.6,2.24,null
SMAR,2023-05-09 17:15:59.442,46.0898233,11.1155433,244.89999389648438,-8.54,-72.04,2.39,null
STON,2023-05-09 17:15:59.442,46.089768281666665,11.115524226666667,198.361,-7.634891,1.591229,-0.665421,2
SMAR,2023-05-09 17:15:59.475,46.0898233,11.1155433,244.89999389648438,-8.56,-72.41,2.51,null
SMAR,2023-05-09 17:15:59.506,46.0898233,11.1155433,244.89999389648438,-8.57,-72.71,2.6,null
SMAR,2023-05-09 17:15:59.541,46.0898233,11.1155433,244.89999389648438,-8.56,-73.12,2.7,null
SMAR,2023-05-09 17:15:59.576,46.0898233,11.1155433,244.89999389648438,-8.53,-73.69,2.79,null
SMAR,2023-05-09 17:15:59.608,46.0898233,11.1155433,244.89999389648438,-8.46,-74.35,2.89,null
STON,2023-05-09 17:15:59.608,46.089769243333336,11.115524183333333,198.352,-7.634891,1.591229,-0.665421,2
SMAR,2023-05-09 17:15:59.641,46.0898233,11.1155433,244.89999389648438,-8.37,-75.26,3.0,null
SMAR,2023-05-09 17:15:59.674,46.0898233,11.1155433,244.89999389648438,-8.27,-76.23,3.09,null
SMAR,2023-05-09 17:15:59.709,46.0898233,11.1155433,244.89999389648438,-8.2,-76.85,3.11,null
STON,2023-05-09 17:15:59.709,46.089769243333336,11.115524183333333,198.352,-7.973148,1.316783,0.24744,2
STON,2023-05-09 17:15:59.709,46.08977034,11.115524381666667,198.319,-7.973148,1.316783,0.24744,2
SMAR,2023-05-09 17:15:59.742,46.0898233,11.1155433,244.89999389648438,-8.14,-77.24,3.1,null
SMAR,2023-05-09 17:15:59.773,46.0898233,11.1155433,244.89999389648438,-8.11,-77.63,3.07,null
STON,2023-05-09 17:15:59.773,46.08977034,11.115524381666667,198.319,-8.088096,-1.130823,1.014519,2
STON,2023-05-09 17:15:59.773,46.08977148333334,11.115524731666667,198.335,-8.088096,-1.130823,1.014519,2
SMAR,2023-05-09 17:15:59.811,46.0898233,11.1155433,244.89999389648438,-8.07,-78.08,3.05,null
SMAR,2023-05-09 17:15:59.841,46.0898233,11.1155433,244.89999389648438,-8.04,-78.52,3.04,null
SMAR,2023-05-09 17:15:59.876,46.0898233,11.1155433,244.89999389648438,-8.01,-78.73,2.98,null
SMAR,2023-05-09 17:15:59.91,46.0898233,11.1155433,244.89999389648438,-7.99,-78.62,2.91,null
SMAR,2023-05-09 17:15:59.946,46.0898233,11.1155433,244.89999389648438,-7.96,-78.4,2.83,null
SMAR,2023-05-09 17:15:59.979,46.0898233,11.1155433,244.89999389648438,-7.92,-78.27,2.79,null
SMAR,2023-05-09 17:16:00.01,46.0898233,11.1155433,244.89999389648438,-7.86,-78.33,2.78,null
SMAR,2023-05-09 17:16:00.045,46.0898291,11.1155443,244.89999389648438,-7.81,-78.43,2.76,null
SMAR,2023-05-09 17:16:00.077,46.0898291,11.1155443,244.89999389648438,-7.75,-78.43,2.72,null
STON,2023-05-09 17:16:00.077,46.08977242666667,11.115524976666666,198.346,-8.088096,-1.130823,1.014519,2
SMAR,2023-05-09 17:16:00.112,46.0898291,11.1155443,244.89999389648438,-7.71,-78.32,2.66,null
SMAR,2023-05-09 17:16:00.145,46.0898291,11.1155443,244.89999389648438,-7.67,-78.1,2.58,null
SMAR,2023-05-09 17:16:00.177,46.0898291,11.1155443,244.89999389648438,-7.63,-77.85,2.51,null
STON,2023-05-09 17:16:00.177,46.08977242666667,11.115524976666666,198.346,-7.478084,-6.006485,1.108074,2
SMAR,2023-05-09 17:16:00.211,46.0898291,11.1155443,244.89999389648438,-7.59,-77.68,2.42,null
SMAR,2023-05-09 17:16:00.243,46.0898291,11.1155443,244.89999389648438,-7.53,-77.59,2.35,null
SMAR,2023-05-09 17:16:00.28,46.0898291,11.1155443,244.89999389648438,-7.48,-77.49,2.26,null
STON,2023-05-09 17:16:00.28,46.08977324666667,11.115524963333334,198.344,-7.478084,-6.006485,1.108074,2
STON,2023-05-09 17:16:00.28,46.08977324666667,11.115524963333334,198.344,-7.193433,-5.614043,0.831997,2
SMAR,2023-05-09 17:16:00.311,46.0898291,11.1155443,244.89999389648438,-7.43,-77.33,2.16,null
SMAR,2023-05-09 17:16:00.345,46.0898291,11.1155443,244.89999389648438,-7.38,-77.14,2.03,null
SMAR,2023-05-09 17:16:00.375,46.0898291,11.1155443,244.89999389648438,-7.33,-77.0,1.91,null
STON,2023-05-09 17:16:00.375,46.08977423166667,11.115524636666667,198.333,-7.193433,-5.614043,0.831997,2
SMAR,2023-05-09 17:16:00.409,46.0898291,11.1155443,244.89999389648438,-7.27,-76.95,1.79,null
SMAR,2023-05-09 17:16:00.443,46.0898291,11.1155443,244.89999389648438,-7.19,-76.77,1.64,null
SMAR,2023-05-09 17:16:00.478,46.0898291,11.1155443,244.89999389648438,-7.1,-76.39,1.45,null
SMAR,2023-05-09 17:16:00.509,46.0898291,11.1155443,244.89999389648438,-7.0,-75.93,1.27,null
STON,2023-05-09 17:16:00.509,46.08977423166667,11.115524636666667,198.333,-6.879468,-4.64475,0.242908,2
SMAR,2023-05-09 17:16:00.547,46.0898291,11.1155443,244.89999389648438,-6.89,-75.47,1.08,null
SMAR,2023-05-09 17:16:00.576,46.0898291,11.1155443,244.89999389648438,-6.81,-75.19,0.88,null
STON,2023-05-09 17:16:00.576,46.089775185,11.115523956666667,198.334,-6.879468,-4.64475,0.242908,2
SMAR,2023-05-09 17:16:00.613,46.0898291,11.1155443,244.89999389648438,-6.75,-75.13,0.73,null
SMAR,2023-05-09 17:16:00.643,46.0898291,11.1155443,244.89999389648438,-6.72,-75.05,0.58,null
SMAR,2023-05-09 17:16:00.679,46.0898291,11.1155443,244.89999389648438,-6.69,-74.76,0.42,null
SMAR,2023-05-09 17:16:00.712,46.0898291,11.1155443,244.89999389648438,-6.68,-74.18,0.25,null
SMAR,2023-05-09 17:16:00.743,46.0898291,11.1155443,244.89999389648438,-6.68,-73.72,0.13,null
STON,2023-05-09 17:16:00.743,46.089775185,11.115523956666667,198.334,-6.356965,-2.785953,-0.73245,2
STON,2023-05-09 17:16:00.743,46.089776093333334,11.115523308333334,198.346,-6.356965,-2.785953,-0.73245,2
SMAR,2023-05-09 17:16:00.779,46.0898291,11.1155443,244.89999389648438,-6.7,-73.64,0.07,null
SMAR,2023-05-09 17:16:00.812,46.0898291,11.1155443,244.89999389648438,-6.73,-73.99,0.09,null
SMAR,2023-05-09 17:16:00.844,46.0898291,11.1155443,244.89999389648438,-6.77,-74.56,0.15,null
SMAR,2023-05-09 17:16:00.88,46.0898291,11.1155443,244.89999389648438,-6.8,-75.11,0.24,null
STON,2023-05-09 17:16:00.88,46.089776093333334,11.115523308333334,198.346,-6.185755,-1.056737,-1.609341,2
SMAR,2023-05-09 17:16:00.911,46.0898291,11.1155443,244.89999389648438,-6.83,-75.43,0.33,null
SMAR,2023-05-09 17:16:00.946,46.0898291,11.1155443,244.89999389648438,-6.86,-75.52,0.42,null
SMAR,2023-05-09 17:16:00.98,46.0898291,11.1155443,244.89999389648438,-6.9,-75.55,0.5,null
SMAR,2023-05-09 17:16:01.013,46.0898333,11.1155455,244.89999389648438,-6.95,-75.65,0.57,null
SMAR,2023-05-09 17:16:01.045,46.0898333,11.1155455,244.89999389648438,-7.0,-75.85,0.64,null
SMAR,2023-05-09 17:16:01.078,46.0898333,11.1155455,244.89999389648438,-7.04,-76.05,0.69,null
SMAR,2023-05-09 17:16:01.117,46.0898333,11.1155455,244.89999389648438,-7.06,-76.18,0.71,null
STON,2023-05-09 17:16:01.117,46.089776973333336,11.11552287,198.343,-6.185755,-1.056737,-1.609341,2
STON,2023-05-09 17:16:01.117,46.089776973333336,11.11552287,198.343,-6.380658,-3.031242,-1.254441,2
SMAR,2023-05-09 17:16:01.147,46.0898333,11.1155455,244.89999389648438,-7.07,-76.33,0.72,null
SMAR,2023-05-09 17:16:01.178,46.0898333,11.1155455,244.89999389648438,-7.07,-76.59,0.71,null
SMAR,2023-05-09 17:16:01.214,46.0898333,11.1155455,244.89999389648438,-7.06,-77.0,0.71,null
SMAR,2023-05-09 17:16:01.25,46.0898333,11.1155455,244.89999389648438,-7.03,-77.6,0.73,null
STON,2023-05-09 17:16:01.25,46.08977805666667,11.115522725,198.331,-6.380658,-3.031242,-1.254441,2
SMAR,2023-05-09 17:16:01.283,46.0898333,11.1155455,244.89999389648438,-7.0,-78.34,0.76,null
SMAR,2023-05-09 17:16:01.316,46.0898333,11.1155455,244.89999389648438,-6.96,-79.11,0.78,null
SMAR,2023-05-09 17:16:01.347,46.0898333,11.1155455,244.89999389648438,-6.94,-79.65,0.77,null
SMAR,2023-05-09 17:16:01.388,46.0898333,11.1155455,244.89999389648438,-6.93,-79.8,0.69,null
STON,2023-05-09 17:16:01.388,46.08977805666667,11.115522725,198.331,-6.58783,-4.025307,-0.975745,2
STON,2023-05-09 17:16:01.388,46.08977927666667,11.115522698333333,198.331,-6.58783,-4.025307,-0.975745,2
SMAR,2023-05-09 17:16:01.417,46.0898333,11.1155455,244.89999389648438,-6.93,-79.63,0.58,null
SMAR,2023-05-09 17:16:01.452,46.0898333,11.1155455,244.89999389648438,-6.95,-79.6,0.47,null
SMAR,2023-05-09 17:16:01.485,46.0898333,11.1155455,244.89999389648438,-6.99,-80.16,0.41,null
SMAR,2023-05-09 17:16:01.514,46.0898333,11.1155455,244.89999389648438,-7.05,-81.21,0.43,null
STON,2023-05-09 17:16:01.514,46.08977927666667,11.115522698333333,198.331,-6.454917,-7.361601,-0.933193,2
SMAR,2023-05-09 17:16:01.546,46.0898333,11.1155455,244.89999389648438,-7.13,-82.28,0.43,null
SMAR,2023-05-09 17:16:01.581,46.0898333,11.1155455,244.89999389648438,-7.22,-82.7,0.37,null
SMAR,2023-05-09 17:16:01.614,46.0898333,11.1155455,244.89999389648438,-7.36,-82.64,0.27,null
SMAR,2023-05-09 17:16:01.649,46.0898333,11.1155455,244.89999389648438,-7.51,-82.42,0.18,null
STON,2023-05-09 17:16:01.649,46.0897804,11.115522555,198.34,-6.454917,-7.361601,-0.933193,2
SMAR,2023-05-09 17:16:01.68,46.0898333,11.1155455,244.89999389648438,-7.69,-82.38,0.12,null
STON,2023-05-09 17:16:01.68,46.0897804,11.115522555,198.34,-6.682652,-10.166528,-1.224825,2
SMAR,2023-05-09 17:16:01.713,46.0898333,11.1155455,244.89999389648438,-7.85,-82.69,0.12,null
SMAR,2023-05-09 17:16:01.747,46.0898333,11.1155455,244.89999389648438,-8.01,-83.2,0.16,null
SMAR,2023-05-09 17:16:01.781,46.0898333,11.1155455,244.89999389648438,-8.18,-83.71,0.2,null
SMAR,2023-05-09 17:16:01.818,46.0898333,11.1155455,244.89999389648438,-8.33,-84.0,0.22,null
STON,2023-05-09 17:16:01.818,46.08978152,11.115522195,198.355,-6.682652,-10.166528,-1.224825,2
SMAR,2023-05-09 17:16:01.849,46.0898333,11.1155455,244.89999389648438,-8.46,-84.04,0.22,null
SMAR,2023-05-09 17:16:01.88,46.0898333,11.1155455,244.89999389648438,-8.58,-83.92,0.2,null
SMAR,2023-05-09 17:16:01.916,46.0898333,11.1155455,244.89999389648438,-8.68,-83.83,0.18,null
STON,2023-05-09 17:16:01.916,46.08978152,11.115522195,198.355,-7.593039,-11.251516,-1.430175,2
SMAR,2023-05-09 17:16:01.951,46.0898333,11.1155455,244.89999389648438,-8.75,-83.84,0.19,null
SMAR,2023-05-09 17:16:01.982,46.0898333,11.1155455,244.89999389648438,-8.79,-83.94,0.22,null
SMAR,2023-05-09 17:16:02.016,46.0898333,11.1155455,244.89999389648438,-8.81,-83.99,0.25,null
SMAR,2023-05-09 17:16:02.051,46.0898387,11.1155476,244.89999389648438,-8.78,-83.67,0.24,null
SMAR,2023-05-09 17:16:02.081,46.0898387,11.1155476,244.89999389648438,-8.74,-82.89,0.17,null
SMAR,2023-05-09 17:16:02.118,46.0898387,11.1155476,244.89999389648438,-8.68,-82.2,0.12,null
SMAR,2023-05-09 17:16:02.151,46.0898387,11.1155476,244.89999389648438,-8.64,-81.98,0.14,null
STON,2023-05-09 17:16:02.151,46.08978263,11.11552153,198.342,-7.593039,-11.251516,-1.430175,2
STON,2023-05-09 17:16:02.151,46.08978263,11.11552153,198.342,-8.275549,-11.819683,-1.406089,2
SMAR,2023-05-09 17:16:02.18,46.0898387,11.1155476,244.89999389648438,-8.61,-81.96,0.22,null
SMAR,2023-05-09 17:16:02.217,46.0898387,11.1155476,244.89999389648438,-8.55,-81.73,0.28,null
SMAR,2023-05-09 17:16:02.248,46.0898387,11.1155476,244.89999389648438,-8.47,-81.23,0.32,null
STON,2023-05-09 17:16:02.248,46.08978360166667,11.11552067,198.342,-8.275549,-11.819683,-1.406089,2
SMAR,2023-05-09 17:16:02.285,46.0898387,11.1155476,244.89999389648438,-8.38,-80.64,0.38,null
SMAR,2023-05-09 17:16:02.314,46.0898387,11.1155476,244.89999389648438,-8.3,-80.14,0.45,null
STON,2023-05-09 17:16:02.314,46.08978360166667,11.11552067,198.342,-8.132217,-9.964867,-1.455091,2
SMAR,2023-05-09 17:16:02.351,46.0898387,11.1155476,244.89999389648438,-8.22,-79.76,0.56,null
SMAR,2023-05-09 17:16:02.38,46.0898387,11.1155476,244.89999389648438,-8.15,-79.44,0.68,null
STON,2023-05-09 17:16:02.38,46.08978439166667,11.11552008,198.353,-8.132217,-9.964867,-1.455091,2
SMAR,2023-05-09 17:16:02.419,46.0898387,11.1155476,244.89999389648438,-8.08,-79.16,0.8,null
SMAR,2023-05-09 17:16:02.449,46.0898387,11.1155476,244.89999389648438,-8.01,-78.9,0.91,null
SMAR,2023-05-09 17:16:02.485,46.0898387,11.1155476,244.89999389648438,-7.95,-78.56,1.01,null
STON,2023-05-09 17:16:02.485,46.08978439166667,11.11552008,198.353,-7.690522,-7.738891,-1.034116,2
SMAR,2023-05-09 17:16:02.514,46.0898387,11.1155476,244.89999389648438,-7.9,-78.1,1.06,null
SMAR,2023-05-09 17:16:02.551,46.0898387,11.1155476,244.89999389648438,-7.88,-77.58,1.08,null
SMAR,2023-05-09 17:16:02.584,46.0898387,11.1155476,244.89999389648438,-7.87,-77.05,1.06,null
STON,2023-05-09 17:16:02.584,46.089785176666666,11.115519828333333,198.349,-7.690522,-7.738891,-1.034116,2
SMAR,2023-05-09 17:16:02.617,46.0898387,11.1155476,244.89999389648438,-7.88,-76.54,1.02,null
SMAR,2023-05-09 17:16:02.649,46.0898387,11.1155476,244.89999389648438,-7.9,-75.93,0.94,null
SMAR,2023-05-09 17:16:02.682,46.0898387,11.1155476,244.89999389648438,-7.92,-75.3,0.84,null
SMAR,2023-05-09 17:16:02.716,46.0898387,11.1155476,244.89999389648438,-7.94,-74.81,0.76,null
STON,2023-05-09 17:16:02.716,46.089785176666666,11.115519828333333,198.349,-7.369968,-5.598847,-0.556768,2
SMAR,2023-05-09 17:16:02.751,46.0898387,11.1155476,244.89999389648438,-7.96,-74.5,0.71,null
SMAR,2023-05-09 17:16:02.785,46.0898387,11.1155476,244.89999389648438,-7.96,-74.32,0.71,null
SMAR,2023-05-09 17:16:02.816,46.0898387,11.1155476,244.89999389648438,-7.96,-74.24,0.73,null
STON,2023-05-09 17:16:02.816,46.089786085,11.115519906666666,198.337,-7.369968,-5.598847,-0.556768,2
SMAR,2023-05-09 17:16:02.849,46.0898387,11.1155476,244.89999389648438,-7.96,-74.25,0.79,null
SMAR,2023-05-09 17:16:02.886,46.0898387,11.1155476,244.89999389648438,-7.95,-74.39,0.87,null
SMAR,2023-05-09 17:16:02.918,46.0898387,11.1155476,244.89999389648438,-7.94,-74.43,0.94,null
STON,2023-05-09 17:16:02.918,46.089786085,11.115519906666666,198.337,-7.453537,-2.618137,-0.926458,2
SMAR,2023-05-09 17:16:02.95,46.0898387,11.1155476,244.89999389648438,-7.93,-74.29,0.99,null
SMAR,2023-05-09 17:16:02.986,46.0898387,11.1155476,244.89999389648438,-7.91,-74.11,1.0,null
SMAR,2023-05-09 17:16:03.019,46.0898387,11.1155476,244.89999389648438,-7.89,-74.04,1.02,null
SMAR,2023-05-09 17:16:03.053,46.0898449,11.1155487,244.89999389648438,-7.86,-74.25,1.05,null
SMAR,2023-05-09 17:16:03.084,46.0898449,11.1155487,244.89999389648438,-7.84,-74.65,1.07,null
STON,2023-05-09 17:16:03.084,46.08978716166666,11.115520236666667,198.341,-7.453537,-2.618137,-0.926458,2
SMAR,2023-05-09 17:16:03.117,46.0898449,11.1155487,244.89999389648438,-7.83,-75.02,1.08,null
STON,2023-05-09 17:16:03.117,46.08978716166666,11.115520236666667,198.341,-7.415437,-2.489208,-0.618403,2
SMAR,2023-05-09 17:16:03.15,46.0898449,11.1155487,244.89999389648438,-7.83,-75.2,1.05,null
SMAR,2023-05-09 17:16:03.184,46.0898449,11.1155487,244.89999389648438,-7.85,-74.94,0.97,null
SMAR,2023-05-09 17:16:03.218,46.0898449,11.1155487,244.89999389648438,-7.89,-74.35,0.85,null
STON,2023-05-09 17:16:03.218,46.08978825166667,11.11552055,198.348,-7.415437,-2.489208,-0.618403,2
SMAR,2023-05-09 17:16:03.251,46.0898449,11.1155487,244.89999389648438,-7.93,-73.6,0.72,null
SMAR,2023-05-09 17:16:03.284,46.0898449,11.1155487,244.89999389648438,-7.96,-72.98,0.61,null
SMAR,2023-05-09 17:16:03.317,46.0898449,11.1155487,244.89999389648438,-7.99,-72.7,0.56,null
SMAR,2023-05-09 17:16:03.352,46.0898449,11.1155487,244.89999389648438,-8.0,-72.67,0.55,null
SMAR,2023-05-09 17:16:03.383,46.0898449,11.1155487,244.89999389648438,-7.99,-72.67,0.54,null
SMAR,2023-05-09 17:16:03.419,46.0898449,11.1155487,244.89999389648438,-7.96,-72.51,0.53,null
SMAR,2023-05-09 17:16:03.451,46.0898449,11.1155487,244.89999389648438,-7.91,-72.11,0.51,null
SMAR,2023-05-09 17:16:03.484,46.0898449,11.1155487,244.89999389648438,-7.86,-71.56,0.46,null
STON,2023-05-09 17:16:03.484,46.08978825166667,11.11552055,198.348,-7.310695,-3.442699,-0.534562,2
SMAR,2023-05-09 17:16:03.521,46.0898449,11.1155487,244.89999389648438,-7.79,-71.13,0.44,null
STON,2023-05-09 17:16:03.521,46.08978919,11.11552053,198.347,-7.310695,-3.442699,-0.534562,2
SMAR,2023-05-09 17:16:03.551,46.0898449,11.1155487,244.89999389648438,-7.71,-71.07,0.46,null
SMAR,2023-05-09 17:16:03.586,46.0898449,11.1155487,244.89999389648438,-7.61,-71.04,0.44,null
SMAR,2023-05-09 17:16:03.619,46.0898449,11.1155487,244.89999389648438,-7.49,-70.79,0.42,null
STON,2023-05-09 17:16:03.619,46.08978919,11.11552053,198.347,-7.478264,-0.94379,-1.007404,2
STON,2023-05-09 17:16:03.619,46.089790355,11.115520328333334,198.326,-7.478264,-0.94379,-1.007404,2
SMAR,2023-05-09 17:16:03.656,46.0898449,11.1155487,244.89999389648438,-7.35,-70.21,0.37,null
STON,2023-05-09 17:16:03.656,46.089790355,11.115520328333334,198.326,-7.163287,0.618894,-1.036672,2
SMAR,2023-05-09 17:16:03.686,46.0898449,11.1155487,244.89999389648438,-7.21,-69.29,0.26,null
SMAR,2023-05-09 17:16:03.72,46.0898449,11.1155487,244.89999389648438,-7.08,-68.43,0.16,null
SMAR,2023-05-09 17:16:03.754,46.0898449,11.1155487,244.89999389648438,-6.96,-67.78,0.08,null
SMAR,2023-05-09 17:16:03.786,46.0898449,11.1155487,244.89999389648438,-6.86,-67.16,0.02,null
STON,2023-05-09 17:16:03.786,46.089791446666666,11.115519978333333,198.337,-7.163287,0.618894,-1.036672,2
SMAR,2023-05-09 17:16:03.82,46.0898449,11.1155487,244.89999389648438,-6.75,-66.48,-0.04,null
SMAR,2023-05-09 17:16:03.852,46.0898449,11.1155487,244.89999389648438,-6.65,-65.9,-0.07,null
SMAR,2023-05-09 17:16:03.889,46.0898449,11.1155487,244.89999389648438,-6.56,-65.49,-0.07,null
SMAR,2023-05-09 17:16:03.922,46.0898449,11.1155487,244.89999389648438,-6.5,-65.34,-0.03,null
SMAR,2023-05-09 17:16:03.956,46.0898449,11.1155487,244.89999389648438,-6.47,-65.24,0.03,null
SMAR,2023-05-09 17:16:03.988,46.0898449,11.1155487,244.89999389648438,-6.44,-64.95,0.06,null
STON,2023-05-09 17:16:03.988,46.089791446666666,11.115519978333333,198.337,-6.420616,4.089128,-1.378354,2
SMAR,2023-05-09 17:16:04.023,46.0898498,11.1155484,244.89999389648438,-6.42,-64.55,0.1,null
SMAR,2023-05-09 17:16:04.055,46.0898498,11.1155484,244.89999389648438,-6.42,-64.12,0.14,null
SMAR,2023-05-09 17:16:04.086,46.0898498,11.1155484,244.89999389648438,-6.42,-63.83,0.18,null
STON,2023-05-09 17:16:04.086,46.08979238333333,11.115519813333334,198.34,-6.420616,4.089128,-1.378354,2
STON,2023-05-09 17:16:04.086,46.08979238333333,11.115519813333334,198.34,-5.95091,6.554203,-1.399308,2
SMAR,2023-05-09 17:16:04.119,46.0898498,11.1155484,244.89999389648438,-6.44,-63.84,0.27,null
SMAR,2023-05-09 17:16:04.152,46.0898498,11.1155484,244.89999389648438,-6.48,-64.07,0.38,null
SMAR,2023-05-09 17:16:04.187,46.0898498,11.1155484,244.89999389648438,-6.51,-64.37,0.49,null
SMAR,2023-05-09 17:16:04.22,46.0898498,11.1155484,244.89999389648438,-6.54,-64.52,0.58,null
STON,2023-05-09 17:16:04.22,46.08979343833333,11.115520061666667,198.333,-5.95091,6.554203,-1.399308,2
SMAR,2023-05-09 17:16:04.253,46.0898498,11.1155484,244.89999389648438,-6.59,-64.54,0.65,null
SMAR,2023-05-09 17:16:04.286,46.0898498,11.1155484,244.89999389648438,-6.64,-64.71,0.73,null
SMAR,2023-05-09 17:16:04.323,46.0898498,11.1155484,244.89999389648438,-6.69,-65.05,0.84,null
SMAR,2023-05-09 17:16:04.354,46.0898498,11.1155484,244.89999389648438,-6.73,-65.58,0.98,null
SMAR,2023-05-09 17:16:04.387,46.0898498,11.1155484,244.89999389648438,-6.77,-66.19,1.12,null
STON,2023-05-09 17:16:04.387,46.089794686666664,11.115520548333333,198.332,-5.95091,6.554203,-1.399308,2
SMAR,2023-05-09 17:16:04.42,46.0898498,11.1155484,244.89999389648438,-6.82,-66.63,1.26,null
SMAR,2023-05-09 17:16:04.453,46.0898498,11.1155484,244.89999389648438,-6.89,-66.75,1.36,null
SMAR,2023-05-09 17:16:04.487,46.0898498,11.1155484,244.89999389648438,-6.99,-66.61,1.43,null
STON,2023-05-09 17:16:04.487,46.089794686666664,11.115520548333333,198.332,-6.23829,5.881402,-0.360933,2
SMAR,2023-05-09 17:16:04.52,46.0898498,11.1155484,244.89999389648438,-7.1,-66.53,1.49,null
SMAR,2023-05-09 17:16:04.554,46.0898498,11.1155484,244.89999389648438,-7.23,-66.61,1.53,null
SMAR,2023-05-09 17:16:04.59,46.0898498,11.1155484,244.89999389648438,-7.34,-66.8,1.56,null
SMAR,2023-05-09 17:16:04.621,46.0898498,11.1155484,244.89999389648438,-7.46,-66.92,1.53,null
STON,2023-05-09 17:16:04.621,46.08979596,11.115521228333334,198.329,-6.23829,5.881402,-0.360933,2
SMAR,2023-05-09 17:16:04.654,46.0898498,11.1155484,244.89999389648438,-7.6,-66.77,1.43,null
SMAR,2023-05-09 17:16:04.688,46.0898498,11.1155484,244.89999389648438,-7.75,-66.37,1.29,null
SMAR,2023-05-09 17:16:04.721,46.0898498,11.1155484,244.89999389648438,-7.91,-65.95,1.11,null
STON,2023-05-09 17:16:04.721,46.08979596,11.115521228333334,198.329,-6.749368,4.82156,0.190681,2
SMAR,2023-05-09 17:16:04.754,46.0898498,11.1155484,244.89999389648438,-8.06,-65.64,0.94,null
SMAR,2023-05-09 17:16:04.789,46.0898498,11.1155484,244.89999389648438,-8.2,-65.58,0.78,null
SMAR,2023-05-09 17:16:04.826,46.0898498,11.1155484,244.89999389648438,-8.33,-65.7,0.63,null
SMAR,2023-05-09 17:16:04.856,46.0898498,11.1155484,244.89999389648438,-8.45,-65.84,0.49,null
SMAR,2023-05-09 17:16:04.889,46.0898498,11.1155484,244.89999389648438,-8.56,-65.79,0.32,null
SMAR,2023-05-09 17:16:04.926,46.0898498,11.1155484,244.89999389648438,-8.65,-65.57,0.13,null
STON,2023-05-09 17:16:04.926,46.08979720166667,11.115521583333333,198.347,-6.749368,4.82156,0.190681,2
SMAR,2023-05-09 17:16:04.963,46.0898498,11.1155484,244.89999389648438,-8.73,-65.28,-0.06,null
STON,2023-05-09 17:16:04.963,46.08979720166667,11.115521583333333,198.347,-7.589811,5.865447,-0.444085,2
SMAR,2023-05-09 17:16:05.0,46.0898498,11.1155484,244.89999389648438,-8.79,-65.09,-0.22,null
SMAR,2023-05-09 17:16:05.033,46.089858,11.1155443,244.89999389648438,-8.81,-65.06,-0.31,null
SMAR,2023-05-09 17:16:05.067,46.089858,11.1155443,244.89999389648438,-8.79,-65.0,-0.37,null
SMAR,2023-05-09 17:16:05.098,46.089858,11.1155443,244.89999389648438,-8.75,-64.65,-0.47,null
STON,2023-05-09 17:16:05.098,46.089798495,11.115521486666667,198.336,-7.589811,5.865447,-0.444085,2
STON,2023-05-09 17:16:05.098,46.089798495,11.115521486666667,198.336,-8.251105,6.359741,-1.446736,2
SMAR,2023-05-09 17:16:05.136,46.089858,11.1155443,244.89999389648438,-8.7,-64.22,-0.53,null
SMAR,2023-05-09 17:16:05.165,46.089858,11.1155443,244.89999389648438,-8.68,-64.11,-0.52,null
SMAR,2023-05-09 17:16:05.199,46.089858,11.1155443,244.89999389648438,-8.68,-64.13,-0.47,null
STON,2023-05-09 17:16:05.199,46.089799776666666,11.115521038333334,198.332,-8.251105,6.359741,-1.446736,2
SMAR,2023-05-09 17:16:05.229,46.089858,11.1155443,244.89999389648438,-8.66,-63.96,-0.42,null
SMAR,2023-05-09 17:16:05.263,46.089858,11.1155443,244.89999389648438,-8.62,-63.42,-0.39,null
STON,2023-05-09 17:16:05.263,46.089799776666666,11.115521038333334,198.332,-8.198367,7.549672,-1.837599,2
SMAR,2023-05-09 17:16:05.295,46.089858,11.1155443,244.89999389648438,-8.56,-62.69,-0.35,null
SMAR,2023-05-09 17:16:05.329,46.089858,11.1155443,244.89999389648438,-8.52,-62.17,-0.25,null
SMAR,2023-05-09 17:16:05.359,46.089858,11.1155443,244.89999389648438,-8.5,-62.12,-0.07,null
SMAR,2023-05-09 17:16:05.393,46.089858,11.1155443,244.89999389648438,-8.49,-62.31,0.17,null
SMAR,2023-05-09 17:16:05.423,46.089858,11.1155443,244.89999389648438,-8.49,-62.47,0.41,null
SMAR,2023-05-09 17:16:05.462,46.089858,11.1155443,244.89999389648438,-8.48,-62.55,0.64,null
STON,2023-05-09 17:16:05.462,46.08980084666667,11.115520743333333,198.347,-8.198367,7.549672,-1.837599,2
STON,2023-05-09 17:16:05.462,46.08980084666667,11.115520743333333,198.347,-8.030533,9.428374,-1.343512,2
SMAR,2023-05-09 17:16:05.491,46.089858,11.1155443,244.89999389648438,-8.48,-62.5,0.86,null
SMAR,2023-05-09 17:16:05.523,46.089858,11.1155443,244.89999389648438,-8.49,-62.37,1.05,null
SMAR,2023-05-09 17:16:05.558,46.089858,11.1155443,244.89999389648438,-8.51,-62.29,1.22,null
SMAR,2023-05-09 17:16:05.591,46.089858,11.1155443,244.89999389648438,-8.54,-62.38,1.37,null
SMAR,2023-05-09 17:16:05.625,46.089858,11.1155443,244.89999389648438,-8.58,-62.68,1.51,null
SMAR,2023-05-09 17:16:05.663,46.089858,11.1155443,244.89999389648438,-8.61,-63.12,1.62,null
STON,2023-05-09 17:16:05.663,46.08980184,11.115520766666666,198.339,-8.030533,9.428374,-1.343512,2
SMAR,2023-05-09 17:16:05.696,46.089858,11.1155443,244.89999389648438,-8.62,-63.59,1.67,null
SMAR,2023-05-09 17:16:05.73,46.089858,11.1155443,244.89999389648438,-8.64,-64.16,1.73,null
SMAR,2023-05-09 17:16:05.761,46.089858,11.1155443,244.89999389648438,-8.65,-64.72,1.74,null
STON,2023-05-09 17:16:05.761,46.08980184,11.115520766666666,198.339,-8.061402,9.065222,-0.048641,2
SMAR,2023-05-09 17:16:05.792,46.089858,11.1155443,244.89999389648438,-8.65,-65.27,1.75,null
SMAR,2023-05-09 17:16:05.826,46.089858,11.1155443,244.89999389648438,-8.63,-66.05,1.78,null
STON,2023-05-09 17:16:05.826,46.08980304166667,11.11552096,198.332,-8.061402,9.065222,-0.048641,2
SMAR,2023-05-09 17:16:05.857,46.089858,11.1155443,244.89999389648438,-8.59,-67.02,1.83,null
SMAR,2023-05-09 17:16:05.889,46.089858,11.1155443,244.89999389648438,-8.53,-68.04,1.9,null
STON,2023-05-09 17:16:05.889,46.08980304166667,11.11552096,198.332,-8.188655,6.508773,0.49736,2
SMAR,2023-05-09 17:16:05.924,46.089858,11.1155443,244.89999389648438,-8.51,-68.82,1.89,null
SMAR,2023-05-09 17:16:05.96,46.089858,11.1155443,244.89999389648438,-8.49,-69.22,1.81,null
SMAR,2023-05-09 17:16:05.992,46.089858,11.1155443,244.89999389648438,-8.51,-69.38,1.68,null
SMAR,2023-05-09 17:16:06.024,46.0898636,11.1155402,244.89999389648438,-8.53,-69.78,1.57,null
SMAR,2023-05-09 17:16:06.059,46.0898636,11.1155402,244.89999389648438,-8.55,-70.62,1.52,null
SMAR,2023-05-09 17:16:06.092,46.0898636,11.1155402,244.89999389648438,-8.6,-71.79,1.49,null
STON,2023-05-09 17:16:06.092,46.08980432333333,11.115521168333334,198.333,-8.188655,6.508773,0.49736,2
STON,2023-05-09 17:16:06.092,46.08980432333333,11.115521168333334,198.333,-7.996591,2.030904,0.543574,2
SMAR,2023-05-09 17:16:06.126,46.0898636,11.1155402,244.89999389648438,-8.66,-72.73,1.44,null
SMAR,2023-05-09 17:16:06.158,46.0898636,11.1155402,244.89999389648438,-8.73,-73.04,1.32,null
SMAR,2023-05-09 17:16:06.191,46.0898636,11.1155402,244.89999389648438,-8.81,-72.88,1.13,null
SMAR,2023-05-09 17:16:06.225,46.0898636,11.1155402,244.89999389648438,-8.89,-72.71,0.98,null
STON,2023-05-09 17:16:06.225,46.08980547,11.11552126,198.349,-7.996591,2.030904,0.543574,2
SMAR,2023-05-09 17:16:06.259,46.0898636,11.1155402,244.89999389648438,-8.96,-72.75,0.87,null
SMAR,2023-05-09 17:16:06.294,46.0898636,11.1155402,244.89999389648438,-9.03,-73.01,0.8,null
STON,2023-05-09 17:16:06.294,46.08980547,11.11552126,198.349,-8.193661,-1.72502,0.071926,2
SMAR,2023-05-09 17:16:06.326,46.0898636,11.1155402,244.89999389648438,-9.11,-73.25,0.73,null
SMAR,2023-05-09 17:16:06.36,46.0898636,11.1155402,244.89999389648438,-9.19,-73.39,0.66,null
SMAR,2023-05-09 17:16:06.391,46.0898636,11.1155402,244.89999389648438,-9.24,-73.32,0.58,null
STON,2023-05-09 17:16:06.391,46.08980654166667,11.115521075,198.344,-8.193661,-1.72502,0.071926,2
SMAR,2023-05-09 17:16:06.426,46.0898636,11.1155402,244.89999389648438,-9.27,-73.03,0.51,null
SMAR,2023-05-09 17:16:06.458,46.0898636,11.1155402,244.89999389648438,-9.28,-72.7,0.47,null
SMAR,2023-05-09 17:16:06.492,46.0898636,11.1155402,244.89999389648438,-9.27,-72.52,0.46,null
STON,2023-05-09 17:16:06.492,46.08980654166667,11.115521075,198.344,-8.643396,-2.006025,-0.580314,2
SMAR,2023-05-09 17:16:06.525,46.0898636,11.1155402,244.89999389648438,-9.25,-72.57,0.52,null
SMAR,2023-05-09 17:16:06.559,46.0898636,11.1155402,244.89999389648438,-9.2,-72.66,0.6,null
SMAR,2023-05-09 17:16:06.592,46.0898636,11.1155402,244.89999389648438,-9.13,-72.38,0.64,null
SMAR,2023-05-09 17:16:06.627,46.0898636,11.1155402,244.89999389648438,-9.04,-71.72,0.61,null
STON,2023-05-09 17:16:06.627,46.089807748333335,11.115520751666667,198.333,-8.643396,-2.006025,-0.580314,2
SMAR,2023-05-09 17:16:06.661,46.0898636,11.1155402,244.89999389648438,-8.96,-71.01,0.57,null
SMAR,2023-05-09 17:16:06.692,46.0898636,11.1155402,244.89999389648438,-8.92,-70.62,0.59,null
SMAR,2023-05-09 17:16:06.725,46.0898636,11.1155402,244.89999389648438,-8.87,-70.51,0.63,null
STON,2023-05-09 17:16:06.725,46.089807748333335,11.115520751666667,198.333,-8.675544,-1.276077,-0.601045,2
SMAR,2023-05-09 17:16:06.76,46.0898636,11.1155402,244.89999389648438,-8.84,-70.23,0.64,null
SMAR,2023-05-09 17:16:06.792,46.0898636,11.1155402,244.89999389648438,-8.82,-69.65,0.63,null
SMAR,2023-05-09 17:16:06.827,46.0898636,11.1155402,244.89999389648438,-8.8,-69.01,0.61,null
STON,2023-05-09 17:16:06.827,46.089808865,11.115520295,198.333,-8.675544,-1.276077,-0.601045,2
SMAR,2023-05-09 17:16:06.862,46.0898636,11.1155402,244.89999389648438,-8.8,-68.59,0.63,null
SMAR,2023-05-09 17:16:06.892,46.0898636,11.1155402,244.89999389648438,-8.86,-68.52,0.72,null
STON,2023-05-09 17:16:06.892,46.089808865,11.115520295,198.333,-8.335609,1.166544,-0.568994,2
SMAR,2023-05-09 17:16:06.928,46.0898636,11.1155402,244.89999389648438,-8.91,-68.62,0.83,null
SMAR,2023-05-09 17:16:06.963,46.0898636,11.1155402,244.89999389648438,-8.97,-68.64,0.93,null
SMAR,2023-05-09 17:16:06.998,46.0898636,11.1155402,244.89999389648438,-9.04,-68.55,1.04,null
SMAR,2023-05-09 17:16:07.029,46.0898698,11.1155357,244.89999389648438,-9.1,-68.41,1.13,null
SMAR,2023-05-09 17:16:07.059,46.0898698,11.1155357,244.89999389648438,-9.18,-68.31,1.22,null
SMAR,2023-05-09 17:16:07.098,46.0898698,11.1155357,244.89999389648438,-9.26,-68.39,1.36,null
SMAR,2023-05-09 17:16:07.13,46.0898698,11.1155357,244.89999389648438,-9.33,-68.62,1.49,null
STON,2023-05-09 17:16:07.13,46.08980989,11.115519968333333,198.337,-8.335609,1.166544,-0.568994,2
SMAR,2023-05-09 17:16:07.16,46.0898698,11.1155357,244.89999389648438,-9.4,-68.87,1.62,null
SMAR,2023-05-09 17:16:07.194,46.0898698,11.1155357,244.89999389648438,-9.45,-69.09,1.73,null
STON,2023-05-09 17:16:07.194,46.08981105666667,11.115519933333333,198.33,-8.335609,1.166544,-0.568994,2
SMAR,2023-05-09 17:16:07.226,46.0898698,11.1155357,244.89999389648438,-9.49,-69.33,1.83,null
SMAR,2023-05-09 17:16:07.263,46.0898698,11.1155357,244.89999389648438,-9.54,-69.55,1.91,null
SMAR,2023-05-09 17:16:07.297,46.0898698,11.1155357,244.89999389648438,-9.55,-69.71,1.98,null
STON,2023-05-09 17:16:07.297,46.08981105666667,11.115519933333333,198.33,-8.891326,2.357816,0.401065,2
SMAR,2023-05-09 17:16:07.331,46.0898698,11.1155357,244.89999389648438,-9.56,-69.96,2.08,null
SMAR,2023-05-09 17:16:07.362,46.0898698,11.1155357,244.89999389648438,-9.55,-70.47,2.23,null
SMAR,2023-05-09 17:16:07.397,46.0898698,11.1155357,244.89999389648438,-9.53,-71.14,2.39,null
SMAR,2023-05-09 17:16:07.43,46.0898698,11.1155357,244.89999389648438,-9.52,-71.77,2.54,null
STON,2023-05-09 17:16:07.43,46.08981233833333,11.115520123333333,198.309,-8.891326,2.357816,0.401065,2
SMAR,2023-05-09 17:16:07.463,46.0898698,11.1155357,244.89999389648438,-9.55,-72.02,2.61,null
SMAR,2023-05-09 17:16:07.497,46.0898698,11.1155357,244.89999389648438,-9.59,-71.96,2.59,null
SMAR,2023-05-09 17:16:07.529,46.0898698,11.1155357,244.89999389648438,-9.64,-72.05,2.58,null
SMAR,2023-05-09 17:16:07.562,46.0898698,11.1155357,244.89999389648438,-9.68,-72.62,2.62,null
SMAR,2023-05-09 17:16:07.596,46.0898698,11.1155357,244.89999389648438,-9.72,-73.45,2.69,null
STON,2023-05-09 17:16:07.596,46.08981366,11.115520346666667,198.313,-8.891326,2.357816,0.401065,2
SMAR,2023-05-09 17:16:07.629,46.0898698,11.1155357,244.89999389648438,-9.8,-74.0,2.68,null
SMAR,2023-05-09 17:16:07.665,46.0898698,11.1155357,244.89999389648438,-9.9,-74.03,2.57,null
STON,2023-05-09 17:16:07.665,46.08981366,11.115520346666667,198.313,-9.139316,-1.539778,1.471108,2
SMAR,2023-05-09 17:16:07.697,46.0898698,11.1155357,244.89999389648438,-10.01,-73.68,2.42,null
SMAR,2023-05-09 17:16:07.731,46.0898698,11.1155357,244.89999389648438,-10.11,-73.31,2.24,null
SMAR,2023-05-09 17:16:07.763,46.0898698,11.1155357,244.89999389648438,-10.19,-73.1,2.07,null
SMAR,2023-05-09 17:16:07.797,46.0898698,11.1155357,244.89999389648438,-10.24,-73.07,1.91,null
SMAR,2023-05-09 17:16:07.829,46.0898698,11.1155357,244.89999389648438,-10.3,-73.13,1.74,null
STON,2023-05-09 17:16:07.829,46.08981482,11.11552027,198.317,-9.139316,-1.539778,1.471108,2
SMAR,2023-05-09 17:16:07.861,46.0898698,11.1155357,244.89999389648438,-10.36,-73.27,1.59,null
STON,2023-05-09 17:16:07.861,46.08981482,11.11552027,198.317,-9.647855,-2.011992,0.908882,2
SMAR,2023-05-09 17:16:07.895,46.0898698,11.1155357,244.89999389648438,-10.42,-73.35,1.43,null
SMAR,2023-05-09 17:16:07.932,46.0898698,11.1155357,244.89999389648438,-10.47,-73.24,1.26,null
SMAR,2023-05-09 17:16:07.965,46.0898698,11.1155357,244.89999389648438,-10.51,-72.93,1.09,null
SMAR,2023-05-09 17:16:08.001,46.0898698,11.1155357,244.89999389648438,-10.53,-72.56,0.92,null
SMAR,2023-05-09 17:16:08.033,46.0898773,11.1155307,244.89999389648438,-10.54,-72.33,0.79,null
SMAR,2023-05-09 17:16:08.063,46.0898773,11.1155307,244.89999389648438,-10.53,-72.2,0.69,null
SMAR,2023-05-09 17:16:08.099,46.0898773,11.1155307,244.89999389648438,-10.49,-71.9,0.58,null
SMAR,2023-05-09 17:16:08.134,46.0898773,11.1155307,244.89999389648438,-10.43,-71.27,0.45,null
SMAR,2023-05-09 17:16:08.167,46.0898773,11.1155307,244.89999389648438,-10.36,-70.55,0.32,null
STON,2023-05-09 17:16:08.167,46.089815995,11.115519851666667,198.305,-9.647855,-2.011992,0.908882,2
STON,2023-05-09 17:16:08.167,46.089815995,11.115519851666667,198.305,-9.98076,-1.705713,-0.073643,2
SMAR,2023-05-09 17:16:08.201,46.0898773,11.1155307,244.89999389648438,-10.33,-70.07,0.27,null
SMAR,2023-05-09 17:16:08.234,46.0898773,11.1155307,244.89999389648438,-10.29,-69.83,0.27,null
SMAR,2023-05-09 17:16:08.264,46.0898773,11.1155307,244.89999389648438,-10.28,-69.61,0.29,null
STON,2023-05-09 17:16:08.264,46.089817276666665,11.11551923,198.295,-9.98076,-1.705713,-0.073643,2
SMAR,2023-05-09 17:16:08.302,46.0898773,11.1155307,244.89999389648438,-10.26,-69.23,0.31,null
SMAR,2023-05-09 17:16:08.336,46.0898773,11.1155307,244.89999389648438,-10.26,-68.7,0.32,null
SMAR,2023-05-09 17:16:08.367,46.0898773,11.1155307,244.89999389648438,-10.27,-68.22,0.33,null
SMAR,2023-05-09 17:16:08.398,46.0898773,11.1155307,244.89999389648438,-10.3,-68.02,0.41,null
SMAR,2023-05-09 17:16:08.43,46.0898773,11.1155307,244.89999389648438,-10.33,-68.05,0.5,null
STON,2023-05-09 17:16:08.43,46.089817276666665,11.11551923,198.295,-9.868754,0.813764,-0.842653,2
STON,2023-05-09 17:16:08.43,46.08981837166667,11.115518753333333,198.313,-9.868754,0.813764,-0.842653,2
SMAR,2023-05-09 17:16:08.464,46.0898773,11.1155307,244.89999389648438,-10.37,-68.14,0.6,null
SMAR,2023-05-09 17:16:08.497,46.0898773,11.1155307,244.89999389648438,-10.4,-68.19,0.71,null
STON,2023-05-09 17:16:08.497,46.08981837166667,11.115518753333333,198.313,-9.778646,3.163889,-0.864424,2
SMAR,2023-05-09 17:16:08.529,46.0898773,11.1155307,244.89999389648438,-10.44,-68.18,0.77,null
SMAR,2023-05-09 17:16:08.563,46.0898773,11.1155307,244.89999389648438,-10.49,-68.22,0.82,null
SMAR,2023-05-09 17:16:08.6,46.0898773,11.1155307,244.89999389648438,-10.54,-68.41,0.9,null
SMAR,2023-05-09 17:16:08.631,46.0898773,11.1155307,244.89999389648438,-10.58,-68.75,0.98,null
STON,2023-05-09 17:16:08.631,46.089819415,11.115518536666666,198.324,-9.778646,3.163889,-0.864424,2
SMAR,2023-05-09 17:16:08.664,46.0898773,11.1155307,244.89999389648438,-10.62,-69.16,1.05,null
STON,2023-05-09 17:16:08.664,46.089819415,11.115518536666666,198.324,-10.000791,3.153702,-0.410066,2
SMAR,2023-05-09 17:16:08.696,46.0898773,11.1155307,244.89999389648438,-10.57,-69.76,1.06,null
SMAR,2023-05-09 17:16:08.73,46.0898773,11.1155307,244.89999389648438,-10.61,-70.11,1.09,null
SMAR,2023-05-09 17:16:08.765,46.0898773,11.1155307,244.89999389648438,-10.63,-70.4,1.09,null
SMAR,2023-05-09 17:16:08.798,46.0898773,11.1155307,244.89999389648438,-10.59,-70.81,1.14,null
STON,2023-05-09 17:16:08.798,46.08982068666667,11.11551857,198.31,-10.000791,3.153702,-0.410066,2
SMAR,2023-05-09 17:16:08.832,46.0898773,11.1155307,244.89999389648438,-10.53,-71.38,1.27,null
SMAR,2023-05-09 17:16:08.865,46.0898773,11.1155307,244.89999389648438,-10.46,-72.12,1.45,null
SMAR,2023-05-09 17:16:08.899,46.0898773,11.1155307,244.89999389648438,-10.34,-72.84,1.59,null
STON,2023-05-09 17:16:08.899,46.08982068666667,11.11551857,198.31,-10.209175,1.105563,-0.088294,2
SMAR,2023-05-09 17:16:08.932,46.0898773,11.1155307,244.89999389648438,-10.25,-73.19,1.66,null
SMAR,2023-05-09 17:16:08.966,46.0898773,11.1155307,244.89999389648438,-10.17,-73.34,1.67,null
SMAR,2023-05-09 17:16:09.0,46.0898773,11.1155307,244.89999389648438,-10.11,-73.61,1.67,null
SMAR,2023-05-09 17:16:09.033,46.0898821,11.115528,244.89999389648438,-10.07,-74.07,1.67,null
SMAR,2023-05-09 17:16:09.068,46.0898821,11.115528,244.89999389648438,-10.02,-74.57,1.64,null
SMAR,2023-05-09 17:16:09.098,46.0898821,11.115528,244.89999389648438,-9.98,-74.82,1.55,null
SMAR,2023-05-09 17:16:09.134,46.0898821,11.115528,244.89999389648438,-9.97,-74.67,1.36,null
STON,2023-05-09 17:16:09.134,46.08982201833334,11.115518866666667,198.308,-10.209175,1.105563,-0.088294,2
STON,2023-05-09 17:16:09.134,46.08982201833334,11.115518866666667,198.308,-9.795094,-1.861247,0.522218,2
SMAR,2023-05-09 17:16:09.165,46.0898821,11.115528,244.89999389648438,-9.97,-74.27,1.12,null
SMAR,2023-05-09 17:16:09.198,46.0898821,11.115528,244.89999389648438,-9.98,-73.91,0.87,null
STON,2023-05-09 17:16:09.198,46.089823145,11.11551905,198.327,-9.795094,-1.861247,0.522218,2
SMAR,2023-05-09 17:16:09.234,46.0898821,11.115528,244.89999389648438,-9.99,-73.74,0.65,null
SMAR,2023-05-09 17:16:09.265,46.0898821,11.115528,244.89999389648438,-10.02,-73.8,0.46,null
STON,2023-05-09 17:16:09.265,46.089823145,11.11551905,198.327,-9.584962,-2.76994,-6.38E-4,2
SMAR,2023-05-09 17:16:09.299,46.0898821,11.115528,244.89999389648438,-10.04,-73.98,0.31,null
SMAR,2023-05-09 17:16:09.335,46.0898821,11.115528,244.89999389648438,-10.1,-74.14,0.16,null
SMAR,2023-05-09 17:16:09.367,46.0898821,11.115528,244.89999389648438,-10.17,-74.22,0.03,null
SMAR,2023-05-09 17:16:09.399,46.0898821,11.115528,244.89999389648438,-10.25,-74.16,-0.13,null
STON,2023-05-09 17:16:09.399,46.089824308333334,11.115518893333334,198.323,-9.584962,-2.76994,-6.38E-4,2
SMAR,2023-05-09 17:16:09.434,46.0898821,11.115528,244.89999389648438,-10.32,-74.04,-0.24,null
SMAR,2023-05-09 17:16:09.466,46.0898821,11.115528,244.89999389648438,-10.39,-73.97,-0.32,null
SMAR,2023-05-09 17:16:09.502,46.0898821,11.115528,244.89999389648438,-10.46,-73.91,-0.36,null
SMAR,2023-05-09 17:16:09.532,46.0898821,11.115528,244.89999389648438,-10.52,-73.8,-0.39,null
STON,2023-05-09 17:16:09.532,46.089824308333334,11.115518893333334,198.323,-9.780056,-2.436264,-1.13602,2
SMAR,2023-05-09 17:16:09.567,46.0898821,11.115528,244.89999389648438,-10.55,-73.58,-0.43,null
SMAR,2023-05-09 17:16:09.603,46.0898821,11.115528,244.89999389648438,-10.54,-73.07,-0.51,null
STON,2023-05-09 17:16:09.603,46.08982552166667,11.115518431666667,198.314,-9.780056,-2.436264,-1.13602,2
SMAR,2023-05-09 17:16:09.637,46.0898821,11.115528,244.89999389648438,-10.52,-72.24,-0.64,null
SMAR,2023-05-09 17:16:09.668,46.0898821,11.115528,244.89999389648438,-10.52,-71.49,-0.77,null
SMAR,2023-05-09 17:16:09.701,46.0898821,11.115528,244.89999389648438,-10.55,-71.18,-0.84,null
SMAR,2023-05-09 17:16:09.733,46.0898821,11.115528,244.89999389648438,-10.61,-70.96,-0.94,null
SMAR,2023-05-09 17:16:09.769,46.0898821,11.115528,244.89999389648438,-10.67,-70.43,-1.1,null
SMAR,2023-05-09 17:16:09.8,46.0898821,11.115528,244.89999389648438,-10.71,-69.59,-1.31,null
SMAR,2023-05-09 17:16:09.835,46.0898821,11.115528,244.89999389648438,-10.77,-68.65,-1.54,null
STON,2023-05-09 17:16:09.835,46.08982667833333,11.115517918333333,198.302,-9.780056,-2.436264,-1.13602,2
SMAR,2023-05-09 17:16:09.866,46.0898821,11.115528,244.89999389648438,-10.83,-68.04,-1.66,null
SMAR,2023-05-09 17:16:09.9,46.0898821,11.115528,244.89999389648438,-10.85,-67.81,-1.58,null
STON,2023-05-09 17:16:09.9,46.08982667833333,11.115517918333333,198.302,-10.328177,1.416934,-2.289827,2
SMAR,2023-05-09 17:16:09.936,46.0898821,11.115528,244.89999389648438,-10.91,-67.77,-1.43,null
SMAR,2023-05-09 17:16:09.967,46.0898821,11.115528,244.89999389648438,-10.96,-67.76,-1.24,null
SMAR,2023-05-09 17:16:10.0,46.0898821,11.115528,244.89999389648438,-11.0,-67.74,-1.01,null
SMAR,2023-05-09 17:16:10.035,46.0898876,11.1155248,244.89999389648438,-11.05,-67.63,-0.79,null
SMAR,2023-05-09 17:16:10.068,46.0898876,11.1155248,244.89999389648438,-11.09,-67.53,-0.58,null
SMAR,2023-05-09 17:16:10.101,46.0898876,11.1155248,244.89999389648438,-11.13,-67.54,-0.35,null
SMAR,2023-05-09 17:16:10.133,46.0898876,11.1155248,244.89999389648438,-11.17,-67.63,-0.13,null
SMAR,2023-05-09 17:16:10.166,46.0898876,11.1155248,244.89999389648438,-11.19,-67.76,0.07,null
SMAR,2023-05-09 17:16:10.201,46.0898876,11.1155248,244.89999389648438,-11.2,-67.86,0.25,null
SMAR,2023-05-09 17:16:10.236,46.0898876,11.1155248,244.89999389648438,-11.18,-67.91,0.38,null
SMAR,2023-05-09 17:16:10.27,46.0898876,11.1155248,244.89999389648438,-11.15,-67.93,0.48,null
SMAR,2023-05-09 17:16:10.303,46.0898876,11.1155248,244.89999389648438,-11.09,-68.02,0.57,null
SMAR,2023-05-09 17:16:10.334,46.0898876,11.1155248,244.89999389648438,-11.03,-68.23,0.64,null
SMAR,2023-05-09 17:16:10.369,46.0898876,11.1155248,244.89999389648438,-10.94,-68.62,0.73,null
STON,2023-05-09 17:16:10.369,46.08982769333333,11.115517561666667,198.315,-10.328177,1.416934,-2.289827,2
SMAR,2023-05-09 17:16:10.402,46.0898876,11.1155248,244.89999389648438,-10.83,-69.22,0.87,null
STON,2023-05-09 17:16:10.402,46.089828651666664,11.115517561666667,198.318,-10.328177,1.416934,-2.289827,2
STON,2023-05-09 17:16:10.402,46.089828651666664,11.115517561666667,198.318,-10.946198,4.023835,-1.246592,2
STON,2023-05-09 17:16:10.402,46.08982976666667,11.115517705,198.305,-10.946198,4.023835,-1.246592,2
SMAR,2023-05-09 17:16:10.437,46.0898876,11.1155248,244.89999389648438,-10.69,-69.94,1.0,null
SMAR,2023-05-09 17:16:10.47,46.0898876,11.1155248,244.89999389648438,-10.55,-70.66,1.12,null
STON,2023-05-09 17:16:10.47,46.08982976666667,11.115517705,198.305,-10.726423,3.118451,-0.555491,2
SMAR,2023-05-09 17:16:10.501,46.0898876,11.1155248,244.89999389648438,-10.44,-71.25,1.19,null
SMAR,2023-05-09 17:16:10.538,46.0898876,11.1155248,244.89999389648438,-10.35,-71.57,1.17,null
SMAR,2023-05-09 17:16:10.569,46.0898876,11.1155248,244.89999389648438,-10.29,-71.71,1.09,null
SMAR,2023-05-09 17:16:10.608,46.0898876,11.1155248,244.89999389648438,-10.24,-71.89,0.99,null
STON,2023-05-09 17:16:10.608,46.089831018333335,11.115517943333334,198.307,-10.726423,3.118451,-0.555491,2
SMAR,2023-05-09 17:16:10.638,46.0898876,11.1155248,244.89999389648438,-10.2,-72.28,0.91,null
SMAR,2023-05-09 17:16:10.675,46.0898876,11.1155248,244.89999389648438,-10.18,-72.89,0.85,null
STON,2023-05-09 17:16:10.675,46.089831018333335,11.115517943333334,198.307,-10.032434,-0.114482,-0.136964,2
SMAR,2023-05-09 17:16:10.706,46.0898876,11.1155248,244.89999389648438,-10.18,-73.5,0.77,null
SMAR,2023-05-09 17:16:10.738,46.0898876,11.1155248,244.89999389648438,-10.2,-73.7,0.6,null
SMAR,2023-05-09 17:16:10.77,46.0898876,11.1155248,244.89999389648438,-10.23,-73.38,0.35,null
STON,2023-05-09 17:16:10.77,46.089832095,11.115517993333333,198.307,-10.032434,-0.114482,-0.136964,2
SMAR,2023-05-09 17:16:10.807,46.0898876,11.1155248,244.89999389648438,-10.26,-72.93,0.05,null
SMAR,2023-05-09 17:16:10.839,46.0898876,11.1155248,244.89999389648438,-10.3,-72.79,-0.16,null
STON,2023-05-09 17:16:10.839,46.089832095,11.115517993333333,198.307,-9.929366,-1.843563,-0.807708,2
SMAR,2023-05-09 17:16:10.872,46.0898876,11.1155248,244.89999389648438,-10.33,-73.06,-0.31,null
SMAR,2023-05-09 17:16:10.904,46.0898876,11.1155248,244.89999389648438,-10.39,-73.57,-0.42,null
SMAR,2023-05-09 17:16:10.937,46.0898876,11.1155248,244.89999389648438,-10.45,-74.05,-0.52,null
SMAR,2023-05-09 17:16:10.973,46.0898876,11.1155248,244.89999389648438,-10.49,-74.27,-0.64,null
SMAR,2023-05-09 17:16:11.006,46.08989,11.115523,244.89999389648438,-10.51,-74.15,-0.75,null
SMAR,2023-05-09 17:16:11.038,46.08989,11.115523,244.89999389648438,-10.5,-73.87,-0.88,null
STON,2023-05-09 17:16:11.038,46.089832095,11.115517993333333,198.307,-10.159709,-2.409568,-1.821679,2
STON,2023-05-09 17:16:11.038,46.089833155,11.115517725,198.306,-10.159709,-2.409568,-1.821679,2
SMAR,2023-05-09 17:16:11.07,46.08989,11.115523,244.89999389648438,-10.49,-73.58,-1.0,null
SMAR,2023-05-09 17:16:11.105,46.08989,11.115523,244.89999389648438,-10.47,-73.47,-1.07,null
SMAR,2023-05-09 17:16:11.142,46.08989,11.115523,244.89999389648438,-10.44,-73.65,-1.06,null
SMAR,2023-05-09 17:16:11.175,46.08989,11.115523,244.89999389648438,-10.39,-73.66,-1.05,null
STON,2023-05-09 17:16:11.175,46.089834365,11.115517206666667,198.292,-10.159709,-2.409568,-1.821679,2
SMAR,2023-05-09 17:16:11.209,46.08989,11.115523,244.89999389648438,-10.3,-73.13,-1.12,null
SMAR,2023-05-09 17:16:11.241,46.08989,11.115523,244.89999389648438,-10.18,-72.26,-1.23,null
STON,2023-05-09 17:16:11.241,46.089834365,11.115517206666667,198.292,-10.104554,-1.805161,-2.315036,2
SMAR,2023-05-09 17:16:11.274,46.08989,11.115523,244.89999389648438,-10.08,-71.78,-1.26,null
