Input,Time,Latitude,Longitude,Pitch,Yaw,Roll,Status
STON,2023-04-04 12:33:34:168 GMT+02:00 2023,46.08979945,11.11550901,-0.31566,157.714844,-0.701326,1
STON,2023-04-04 12:33:34:251 GMT+02:00 2023,46.08979945,11.11550901,-0.50186,158.47612,-0.709648,1
STON,2023-04-04 12:33:34:351 GMT+02:00 2023,46.08979945,11.11550901,-0.510238,158.85321,-0.581484,1
SMAR,2023-04-04 12:33:34:671 GMT+02:00 2023,null,null,0.0,0.0,0.0,null
SMAR,2023-04-04 12:33:34:730 GMT+02:00 2023,null,null,0.0,0.0,0.0,null
STON,2023-04-04 12:33:34:749 GMT+02:00 2023,46.08979945,11.11550901,-0.521652,159.255081,-0.453192,1
SMAR,2023-04-04 12:33:34:755 GMT+02:00 2023,null,null,0.0,0.0,0.0,null
STON,2023-04-04 12:33:34:787 GMT+02:00 2023,46.08979945,11.11550901,-0.583063,160.114944,-0.310423,1
SMAR,2023-04-04 12:33:34:810 GMT+02:00 2023,null,null,0.0,0.0,0.0,null
STON,2023-04-04 12:33:34:837 GMT+02:00 2023,46.08979934333333,11.115509026666667,-0.583063,160.114944,-0.310423,1
SMAR,2023-04-04 12:33:34:851 GMT+02:00 2023,null,null,0.0,0.0,0.0,null
STON,2023-04-04 12:33:34:860 GMT+02:00 2023,46.08979934333333,11.115509026666667,-0.583063,160.114944,-0.310423,1
SMAR,2023-04-04 12:33:34:876 GMT+02:00 2023,null,null,0.0,0.0,0.0,null
STON,2023-04-04 12:33:34:884 GMT+02:00 2023,46.08979934333333,11.115509026666667,-0.577477,160.527191,-0.214585,1
SMAR,2023-04-04 12:33:34:909 GMT+02:00 2023,null,null,0.0,0.0,0.0,null
SMAR,2023-04-04 12:33:34:956 GMT+02:00 2023,null,null,0.0,0.0,0.0,null
SMAR,2023-04-04 12:33:34:984 GMT+02:00 2023,null,null,0.0,0.0,0.0,null
SMAR,2023-04-04 12:33:35:002 GMT+02:00 2023,null,null,0.0,0.0,0.0,null
SMAR,2023-04-04 12:33:35:035 GMT+02:00 2023,null,null,0.0,0.0,0.0,null
SMAR,2023-04-04 12:33:35:071 GMT+02:00 2023,null,null,0.0,0.0,0.0,null
SMAR,2023-04-04 12:33:35:103 GMT+02:00 2023,null,null,291.07,68.08,85.93,null
SMAR,2023-04-04 12:33:35:134 GMT+02:00 2023,null,null,290.98,67.79,85.95,null
SMAR,2023-04-04 12:33:35:167 GMT+02:00 2023,null,null,296.36,62.01,85.96,null
SMAR,2023-04-04 12:33:35:202 GMT+02:00 2023,null,null,296.37,62.06,85.95,null
SMAR,2023-04-04 12:33:35:234 GMT+02:00 2023,null,null,296.34,62.19,85.97,null
SMAR,2023-04-04 12:33:35:268 GMT+02:00 2023,null,null,295.15,63.43,86.07,null
SMAR,2023-04-04 12:33:35:298 GMT+02:00 2023,null,null,295.21,63.28,86.08,null
SMAR,2023-04-04 12:33:35:333 GMT+02:00 2023,null,null,295.32,63.09,86.1,null
SMAR,2023-04-04 12:33:35:365 GMT+02:00 2023,null,null,293.19,65.21,86.04,null
SMAR,2023-04-04 12:33:35:399 GMT+02:00 2023,null,null,293.06,65.38,86.05,null
SMAR,2023-04-04 12:33:35:432 GMT+02:00 2023,null,null,293.04,65.39,86.06,null
STON,2023-04-04 12:33:35:458 GMT+02:00 2023,46.08979934333333,11.115509026666667,-0.556748,160.7509,-0.243961,1
STON,2023-04-04 12:33:35:461 GMT+02:00 2023,46.08979934333333,11.115509026666667,-0.564566,161.940475,-0.232115,1
SMAR,2023-04-04 12:33:35:464 GMT+02:00 2023,null,null,292.84,65.56,86.05,null
SMAR,2023-04-04 12:33:35:497 GMT+02:00 2023,null,null,292.81,65.56,86.06,null
SMAR,2023-04-04 12:33:35:531 GMT+02:00 2023,null,null,292.75,65.61,86.07,null
STON,2023-04-04 12:33:35:537 GMT+02:00 2023,46.08979934333333,11.115509026666667,-0.655963,162.232849,-0.034306,1
SMAR,2023-04-04 12:33:35:564 GMT+02:00 2023,null,null,292.17,66.19,86.05,null
SMAR,2023-04-04 12:33:35:596 GMT+02:00 2023,null,null,292.15,66.2,86.07,null
SMAR,2023-04-04 12:33:35:630 GMT+02:00 2023,null,null,292.17,66.16,86.09,null
SMAR,2023-04-04 12:33:35:663 GMT+02:00 2023,null,null,291.9,66.41,86.08,null
STON,2023-04-04 12:33:35:679 GMT+02:00 2023,46.08979934333333,11.115509026666667,-0.678575,162.379944,0.050824,1
STON,2023-04-04 12:33:35:686 GMT+02:00 2023,46.089799305,11.115508933333333,-0.678575,162.379944,0.050824,1
STON,2023-04-04 12:33:35:689 GMT+02:00 2023,46.089799305,11.115508933333333,-0.678575,162.379944,0.050824,1
SMAR,2023-04-04 12:33:35:695 GMT+02:00 2023,null,null,291.92,66.39,86.09,null
SMAR,2023-04-04 12:33:35:729 GMT+02:00 2023,null,null,291.91,66.42,86.11,null
SMAR,2023-04-04 12:33:35:763 GMT+02:00 2023,null,null,292.18,66.17,86.11,null
SMAR,2023-04-04 12:33:35:798 GMT+02:00 2023,null,null,292.26,66.04,86.13,null
SMAR,2023-04-04 12:33:35:830 GMT+02:00 2023,null,null,292.32,65.87,86.13,null
SMAR,2023-04-04 12:33:35:868 GMT+02:00 2023,null,null,292.6,65.4,86.13,null
SMAR,2023-04-04 12:33:35:903 GMT+02:00 2023,null,null,292.75,64.96,86.14,null
SMAR,2023-04-04 12:33:35:931 GMT+02:00 2023,null,null,292.9,64.47,86.16,null
STON,2023-04-04 12:33:35:937 GMT+02:00 2023,46.089799305,11.115508933333333,-0.642838,162.707504,0.051639,1
SMAR,2023-04-04 12:33:35:963 GMT+02:00 2023,null,null,293.21,63.88,86.16,null
SMAR,2023-04-04 12:33:35:997 GMT+02:00 2023,null,null,293.15,63.75,86.17,null
SMAR,2023-04-04 12:33:36:028 GMT+02:00 2023,null,null,293.11,63.74,86.16,null
SMAR,2023-04-04 12:33:36:064 GMT+02:00 2023,null,null,293.47,63.4,86.15,null
SMAR,2023-04-04 12:33:36:101 GMT+02:00 2023,null,null,293.57,63.25,86.15,null
SMAR,2023-04-04 12:33:36:133 GMT+02:00 2023,null,null,293.76,62.95,86.15,null
SMAR,2023-04-04 12:33:36:165 GMT+02:00 2023,null,null,293.92,62.66,86.14,null
SMAR,2023-04-04 12:33:36:197 GMT+02:00 2023,null,null,294.26,62.15,86.14,null
SMAR,2023-04-04 12:33:36:235 GMT+02:00 2023,null,null,294.51,61.7,86.13,null
SMAR,2023-04-04 12:33:36:268 GMT+02:00 2023,null,null,294.52,61.48,86.12,null
STON,2023-04-04 12:33:36:282 GMT+02:00 2023,46.089799305,11.115508933333333,-0.847181,165.048645,0.269819,1
SMAR,2023-04-04 12:33:36:299 GMT+02:00 2023,null,null,294.66,61.12,86.11,null
SMAR,2023-04-04 12:33:36:333 GMT+02:00 2023,null,null,294.84,60.72,86.09,null
SMAR,2023-04-04 12:33:36:367 GMT+02:00 2023,null,null,294.75,60.59,86.07,null
SMAR,2023-04-04 12:33:36:409 GMT+02:00 2023,null,null,294.88,60.24,86.06,null
SMAR,2023-04-04 12:33:36:443 GMT+02:00 2023,null,null,295.03,59.92,86.03,null
SMAR,2023-04-04 12:33:36:472 GMT+02:00 2023,null,null,295.12,59.65,86.03,null
SMAR,2023-04-04 12:33:36:501 GMT+02:00 2023,null,null,295.33,59.11,85.99,null
STON,2023-04-04 12:33:36:506 GMT+02:00 2023,46.089799305,11.115508933333333,-0.928313,166.454819,0.218032,1
SMAR,2023-04-04 12:33:36:541 GMT+02:00 2023,null,null,295.47,58.57,85.97,null
SMAR,2023-04-04 12:33:36:571 GMT+02:00 2023,null,null,295.83,57.8,85.96,null
SMAR,2023-04-04 12:33:36:606 GMT+02:00 2023,null,null,296.03,57.2,85.91,null
SMAR,2023-04-04 12:33:36:639 GMT+02:00 2023,null,null,296.26,56.59,85.88,null
SMAR,2023-04-04 12:33:36:674 GMT+02:00 2023,null,null,296.36,56.05,85.84,null
SMAR,2023-04-04 12:33:36:702 GMT+02:00 2023,null,null,296.65,55.34,85.8,null
STON,2023-04-04 12:33:36:713 GMT+02:00 2023,46.089799305,11.115508933333333,-1.062331,168.548782,0.174944,1
STON,2023-04-04 12:33:36:721 GMT+02:00 2023,46.089799228333334,11.115508971666667,-1.062331,168.548782,0.174944,1
STON,2023-04-04 12:33:36:725 GMT+02:00 2023,46.089799228333334,11.115508971666667,-1.062331,168.548782,0.174944,1
SMAR,2023-04-04 12:33:36:734 GMT+02:00 2023,null,null,297.03,54.5,85.75,null
SMAR,2023-04-04 12:33:36:769 GMT+02:00 2023,null,null,297.13,53.92,85.71,null
SMAR,2023-04-04 12:33:36:810 GMT+02:00 2023,null,null,297.58,52.91,85.65,null
SMAR,2023-04-04 12:33:36:849 GMT+02:00 2023,null,null,298.19,51.68,85.59,null
SMAR,2023-04-04 12:33:36:879 GMT+02:00 2023,null,null,298.46,50.76,85.53,null
SMAR,2023-04-04 12:33:36:915 GMT+02:00 2023,null,null,299.11,49.48,85.47,null
STON,2023-04-04 12:33:36:923 GMT+02:00 2023,46.089799228333334,11.115508971666667,-1.100276,171.678513,-0.241007,1
SMAR,2023-04-04 12:33:36:941 GMT+02:00 2023,null,null,299.64,48.38,85.4,null
SMAR,2023-04-04 12:33:36:978 GMT+02:00 2023,null,null,299.66,47.83,85.28,null
SMAR,2023-04-04 12:33:37:014 GMT+02:00 2023,null,null,299.97,47.1,85.19,null
SMAR,2023-04-04 12:33:37:046 GMT+02:00 2023,null,null,300.29,46.41,85.1,null
SMAR,2023-04-04 12:33:37:083 GMT+02:00 2023,null,null,300.4,45.92,84.98,null
SMAR,2023-04-04 12:33:37:113 GMT+02:00 2023,null,null,300.57,45.36,84.89,null
SMAR,2023-04-04 12:33:37:146 GMT+02:00 2023,null,null,300.68,44.84,84.79,null
SMAR,2023-04-04 12:33:37:175 GMT+02:00 2023,null,null,300.98,44.22,84.72,null
SMAR,2023-04-04 12:33:37:211 GMT+02:00 2023,null,null,300.78,44.24,84.62,null
SMAR,2023-04-04 12:33:37:250 GMT+02:00 2023,null,null,300.29,44.62,84.53,null
SMAR,2023-04-04 12:33:37:284 GMT+02:00 2023,null,null,300.71,44.11,84.51,null
SMAR,2023-04-04 12:33:37:316 GMT+02:00 2023,null,null,299.8,44.86,84.42,null
STON,2023-04-04 12:33:37:324 GMT+02:00 2023,46.089799228333334,11.115508971666667,-1.536915,177.895828,-1.173343,1
SMAR,2023-04-04 12:33:37:344 GMT+02:00 2023,null,null,298.72,45.67,84.34,null
SMAR,2023-04-04 12:33:37:382 GMT+02:00 2023,null,null,298.94,45.11,84.33,null
SMAR,2023-04-04 12:33:37:410 GMT+02:00 2023,null,null,298.16,45.44,84.28,null
SMAR,2023-04-04 12:33:37:450 GMT+02:00 2023,null,null,297.53,45.64,84.25,null
SMAR,2023-04-04 12:33:37:479 GMT+02:00 2023,null,null,298.09,44.76,84.21,null
STON,2023-04-04 12:33:37:487 GMT+02:00 2023,46.089799228333334,11.115508971666667,-1.101337,179.715378,-1.71743,1
SMAR,2023-04-04 12:33:37:511 GMT+02:00 2023,null,null,297.25,45.41,84.17,null
SMAR,2023-04-04 12:33:37:548 GMT+02:00 2023,null,null,296.3,46.3,84.11,null
SMAR,2023-04-04 12:33:37:578 GMT+02:00 2023,null,null,296.21,46.41,84.05,null
SMAR,2023-04-04 12:33:37:609 GMT+02:00 2023,null,null,295.08,47.49,83.99,null
SMAR,2023-04-04 12:33:37:643 GMT+02:00 2023,null,null,293.86,48.54,83.93,null
SMAR,2023-04-04 12:33:37:672 GMT+02:00 2023,null,null,292.86,49.34,83.93,null
STON,2023-04-04 12:33:37:695 GMT+02:00 2023,46.089799228333334,11.115508971666667,-0.671804,-179.019424,-1.892853,1
SMAR,2023-04-04 12:33:37:705 GMT+02:00 2023,null,null,291.88,50.05,83.85,null
SMAR,2023-04-04 12:33:37:738 GMT+02:00 2023,null,null,290.87,50.75,83.77,null
SMAR,2023-04-04 12:33:37:774 GMT+02:00 2023,null,null,289.6,51.67,83.75,null
SMAR,2023-04-04 12:33:37:804 GMT+02:00 2023,null,null,288.87,52.09,83.66,null
STON,2023-04-04 12:33:37:810 GMT+02:00 2023,46.089799326666665,11.115509698333334,-0.671804,-179.019424,-1.892853,1
SMAR,2023-04-04 12:33:37:847 GMT+02:00 2023,null,null,288.24,52.47,83.58,null
STON,2023-04-04 12:33:37:856 GMT+02:00 2023,46.089799326666665,11.115509698333334,-0.671804,-179.019424,-1.892853,1
STON,2023-04-04 12:33:37:859 GMT+02:00 2023,46.089799326666665,11.115509698333334,0.028648,-177.014252,-2.210513,1
SMAR,2023-04-04 12:33:37:873 GMT+02:00 2023,null,null,287.75,52.76,83.5,null
SMAR,2023-04-04 12:33:37:913 GMT+02:00 2023,null,null,287.32,53.07,83.43,null
SMAR,2023-04-04 12:33:37:944 GMT+02:00 2023,null,null,287.07,53.23,83.36,null
SMAR,2023-04-04 12:33:37:975 GMT+02:00 2023,null,null,286.88,53.35,83.22,null
SMAR,2023-04-04 12:33:38:014 GMT+02:00 2023,null,null,286.89,53.2,83.17,null
SMAR,2023-04-04 12:33:38:052 GMT+02:00 2023,null,null,286.89,53.04,83.13,null
SMAR,2023-04-04 12:33:38:081 GMT+02:00 2023,null,null,287.0,52.84,83.05,null
STON,2023-04-04 12:33:38:086 GMT+02:00 2023,46.089799326666665,11.115509698333334,0.508442,-175.782516,-2.795944,1
SMAR,2023-04-04 12:33:38:112 GMT+02:00 2023,null,null,287.16,52.71,83.01,null
SMAR,2023-04-04 12:33:38:150 GMT+02:00 2023,null,null,287.31,52.63,82.98,null
SMAR,2023-04-04 12:33:38:182 GMT+02:00 2023,null,null,287.65,52.38,82.9,null
SMAR,2023-04-04 12:33:38:212 GMT+02:00 2023,null,null,287.86,52.23,82.88,null
SMAR,2023-04-04 12:33:38:240 GMT+02:00 2023,null,null,288.16,51.98,82.86,null
SMAR,2023-04-04 12:33:38:276 GMT+02:00 2023,null,null,288.39,51.74,82.8,null
SMAR,2023-04-04 12:33:38:308 GMT+02:00 2023,null,null,288.75,51.38,82.78,null
SMAR,2023-04-04 12:33:38:339 GMT+02:00 2023,null,null,289.15,51.0,82.76,null
SMAR,2023-04-04 12:33:38:372 GMT+02:00 2023,null,null,289.58,50.61,82.71,null
SMAR,2023-04-04 12:33:38:405 GMT+02:00 2023,null,null,290.0,50.21,82.69,null
SMAR,2023-04-04 12:33:38:450 GMT+02:00 2023,null,null,290.42,49.85,82.67,null
SMAR,2023-04-04 12:33:38:478 GMT+02:00 2023,null,null,290.91,49.43,82.63,null
STON,2023-04-04 12:33:38:490 GMT+02:00 2023,46.089799326666665,11.115509698333334,0.286071,-175.229904,-3.022767,1
SMAR,2023-04-04 12:33:38:507 GMT+02:00 2023,null,null,291.39,49.0,82.61,null
SMAR,2023-04-04 12:33:38:553 GMT+02:00 2023,null,null,291.79,48.58,82.58,null
SMAR,2023-04-04 12:33:38:572 GMT+02:00 2023,null,null,292.13,48.24,82.56,null
SMAR,2023-04-04 12:33:38:604 GMT+02:00 2023,null,null,292.52,47.87,82.53,null
SMAR,2023-04-04 12:33:38:650 GMT+02:00 2023,null,null,292.72,47.62,82.5,null
SMAR,2023-04-04 12:33:38:689 GMT+02:00 2023,null,null,293.01,47.33,82.47,null
SMAR,2023-04-04 12:33:38:708 GMT+02:00 2023,null,null,293.39,46.98,82.45,null
STON,2023-04-04 12:33:38:723 GMT+02:00 2023,46.089799326666665,11.115509698333334,0.016067,-174.944809,-3.213803,1
STON,2023-04-04 12:33:38:732 GMT+02:00 2023,46.08979944,11.11551024,0.016067,-174.944809,-3.213803,1
STON,2023-04-04 12:33:38:738 GMT+02:00 2023,46.08979944,11.11551024,0.016067,-174.944809,-3.213803,1
SMAR,2023-04-04 12:33:38:746 GMT+02:00 2023,null,null,293.79,46.62,82.43,null
SMAR,2023-04-04 12:33:38:786 GMT+02:00 2023,null,null,294.41,45.98,82.41,null
SMAR,2023-04-04 12:33:38:812 GMT+02:00 2023,null,null,294.86,45.5,82.41,null
SMAR,2023-04-04 12:33:38:840 GMT+02:00 2023,null,null,295.24,45.15,82.41,null
SMAR,2023-04-04 12:33:38:880 GMT+02:00 2023,null,null,295.64,44.8,82.43,null
SMAR,2023-04-04 12:33:38:911 GMT+02:00 2023,null,null,296.02,44.45,82.44,null
SMAR,2023-04-04 12:33:38:949 GMT+02:00 2023,null,null,296.36,44.1,82.45,null
SMAR,2023-04-04 12:33:38:983 GMT+02:00 2023,null,null,296.86,43.61,82.46,null
SMAR,2023-04-04 12:33:39:015 GMT+02:00 2023,null,null,297.14,43.35,82.48,null
STON,2023-04-04 12:33:39:021 GMT+02:00 2023,46.08979944,11.11551024,-0.168889,-174.665451,-3.589046,1
SMAR,2023-04-04 12:33:39:049 GMT+02:00 2023,null,null,297.42,43.11,82.51,null
SMAR,2023-04-04 12:33:39:079 GMT+02:00 2023,null,null,297.92,42.67,82.53,null
SMAR,2023-04-04 12:33:39:113 GMT+02:00 2023,null,null,298.26,42.41,82.56,null
SMAR,2023-04-04 12:33:39:146 GMT+02:00 2023,null,null,298.56,42.2,82.59,null
STON,2023-04-04 12:33:39:153 GMT+02:00 2023,46.08979944,11.11551024,-0.41891,-174.584641,-3.669148,1
SMAR,2023-04-04 12:33:39:180 GMT+02:00 2023,null,null,298.89,41.97,82.61,null
SMAR,2023-04-04 12:33:39:218 GMT+02:00 2023,null,null,299.14,41.75,82.64,null
SMAR,2023-04-04 12:33:39:250 GMT+02:00 2023,null,null,299.26,41.61,82.66,null
SMAR,2023-04-04 12:33:39:281 GMT+02:00 2023,null,null,299.34,41.49,82.68,null
SMAR,2023-04-04 12:33:39:308 GMT+02:00 2023,46.0899088,11.1156404,299.46,41.36,82.7,null
SMAR,2023-04-04 12:33:39:344 GMT+02:00 2023,46.0899088,11.1156404,299.56,41.28,82.71,null
STON,2023-04-04 12:33:39:350 GMT+02:00 2023,46.08979944,11.11551024,-0.687493,-174.5401,-3.558297,1
SMAR,2023-04-04 12:33:39:378 GMT+02:00 2023,46.0899088,11.1156404,299.7,41.18,82.71,null
SMAR,2023-04-04 12:33:39:415 GMT+02:00 2023,46.0899088,11.1156404,299.81,41.13,82.72,null
SMAR,2023-04-04 12:33:39:446 GMT+02:00 2023,46.0899088,11.1156404,299.9,41.16,82.72,null
SMAR,2023-04-04 12:33:39:481 GMT+02:00 2023,46.0899088,11.1156404,299.98,41.21,82.72,null
SMAR,2023-04-04 12:33:39:515 GMT+02:00 2023,46.0899088,11.1156404,300.01,41.3,82.72,null
STON,2023-04-04 12:33:39:521 GMT+02:00 2023,46.08979944,11.11551024,-0.860557,-174.349228,-3.396938,1
SMAR,2023-04-04 12:33:39:545 GMT+02:00 2023,46.0899088,11.1156404,300.07,41.35,82.72,null
SMAR,2023-04-04 12:33:39:574 GMT+02:00 2023,46.0899088,11.1156404,300.05,41.51,82.72,null
SMAR,2023-04-04 12:33:39:614 GMT+02:00 2023,46.0899088,11.1156404,300.03,41.67,82.72,null
SMAR,2023-04-04 12:33:39:646 GMT+02:00 2023,46.0899088,11.1156404,300.01,41.86,82.72,null
SMAR,2023-04-04 12:33:39:677 GMT+02:00 2023,46.0899088,11.1156404,299.9,42.12,82.72,null
SMAR,2023-04-04 12:33:39:706 GMT+02:00 2023,46.0899088,11.1156404,299.75,42.38,82.72,null
STON,2023-04-04 12:33:39:725 GMT+02:00 2023,46.08979944,11.11551024,-0.97514,-174.854309,-3.388918,1
STON,2023-04-04 12:33:39:729 GMT+02:00 2023,46.08979920666667,11.1155102,-0.97514,-174.854309,-3.388918,1
SMAR,2023-04-04 12:33:39:738 GMT+02:00 2023,46.0899088,11.1156404,299.61,42.57,82.71,null
STON,2023-04-04 12:33:39:746 GMT+02:00 2023,46.08979920666667,11.1155102,-0.97514,-174.854309,-3.388918,1
SMAR,2023-04-04 12:33:39:772 GMT+02:00 2023,46.0899088,11.1156404,299.43,42.73,82.7,null
SMAR,2023-04-04 12:33:39:806 GMT+02:00 2023,46.0899044,11.1156293,299.14,42.96,82.71,null
SMAR,2023-04-04 12:33:39:846 GMT+02:00 2023,46.0899044,11.1156293,298.75,43.33,82.69,null
SMAR,2023-04-04 12:33:39:875 GMT+02:00 2023,46.0899044,11.1156293,298.33,43.73,82.71,null
SMAR,2023-04-04 12:33:39:913 GMT+02:00 2023,46.0899044,11.1156293,297.73,44.32,82.7,null
SMAR,2023-04-04 12:33:39:948 GMT+02:00 2023,46.0899044,11.1156293,297.04,45.0,82.69,null
STON,2023-04-04 12:33:39:952 GMT+02:00 2023,46.08979920666667,11.1155102,-0.929251,-175.038177,-3.363689,1
SMAR,2023-04-04 12:33:39:977 GMT+02:00 2023,46.0899044,11.1156293,296.39,45.61,82.69,null
SMAR,2023-04-04 12:33:40:008 GMT+02:00 2023,46.0899044,11.1156293,295.68,46.26,82.69,null
SMAR,2023-04-04 12:33:40:045 GMT+02:00 2023,46.0899044,11.1156293,294.9,47.08,82.69,null
SMAR,2023-04-04 12:33:40:077 GMT+02:00 2023,46.0899044,11.1156293,294.15,48.0,82.67,null
SMAR,2023-04-04 12:33:40:115 GMT+02:00 2023,46.0899044,11.1156293,293.35,49.05,82.65,null
SMAR,2023-04-04 12:33:40:145 GMT+02:00 2023,46.0899044,11.1156293,292.57,50.13,82.63,null
SMAR,2023-04-04 12:33:40:180 GMT+02:00 2023,46.0899044,11.1156293,291.96,51.13,82.59,null
SMAR,2023-04-04 12:33:40:219 GMT+02:00 2023,46.0899044,11.1156293,291.42,52.15,82.55,null
SMAR,2023-04-04 12:33:40:252 GMT+02:00 2023,46.0899044,11.1156293,291.0,53.11,82.5,null
SMAR,2023-04-04 12:33:40:278 GMT+02:00 2023,46.0899044,11.1156293,290.58,54.05,82.44,null
STON,2023-04-04 12:33:40:285 GMT+02:00 2023,46.08979920666667,11.1155102,0.06514,-176.030869,-3.369646,1
SMAR,2023-04-04 12:33:40:308 GMT+02:00 2023,46.0899044,11.1156293,290.15,54.84,82.37,null
SMAR,2023-04-04 12:33:40:339 GMT+02:00 2023,46.0899044,11.1156273,289.82,55.44,82.29,null
SMAR,2023-04-04 12:33:40:374 GMT+02:00 2023,46.0899044,11.1156273,289.61,55.75,82.22,null
SMAR,2023-04-04 12:33:40:409 GMT+02:00 2023,46.0899044,11.1156273,289.34,55.96,82.13,null
SMAR,2023-04-04 12:33:40:446 GMT+02:00 2023,46.0899044,11.1156273,289.1,56.19,82.07,null
SMAR,2023-04-04 12:33:40:482 GMT+02:00 2023,46.0899044,11.1156273,288.99,56.35,82.01,null
SMAR,2023-04-04 12:33:40:515 GMT+02:00 2023,46.0899044,11.1156273,288.81,56.67,81.93,null
STON,2023-04-04 12:33:40:522 GMT+02:00 2023,46.08979920666667,11.1155102,0.504652,-177.7556,-3.70571,1
SMAR,2023-04-04 12:33:40:552 GMT+02:00 2023,46.0899044,11.1156273,288.7,56.98,81.83,null
SMAR,2023-04-04 12:33:40:579 GMT+02:00 2023,46.0899044,11.1156273,288.67,57.17,81.74,null
SMAR,2023-04-04 12:33:40:617 GMT+02:00 2023,46.0899044,11.1156273,288.61,57.3,81.67,null
SMAR,2023-04-04 12:33:40:647 GMT+02:00 2023,46.0899009,11.1156301,288.55,57.34,81.59,null
SMAR,2023-04-04 12:33:40:682 GMT+02:00 2023,46.0899009,11.1156301,288.45,57.39,81.51,null
SMAR,2023-04-04 12:33:40:718 GMT+02:00 2023,46.0899009,11.1156301,288.37,57.39,81.44,null
SMAR,2023-04-04 12:33:40:749 GMT+02:00 2023,46.0899009,11.1156301,288.32,57.3,81.36,null
SMAR,2023-04-04 12:33:40:788 GMT+02:00 2023,46.0899009,11.1156301,288.42,57.0,81.29,null
SMAR,2023-04-04 12:33:40:816 GMT+02:00 2023,46.0899009,11.1156301,288.53,56.71,81.22,null
SMAR,2023-04-04 12:33:40:852 GMT+02:00 2023,46.0899009,11.1156301,288.71,56.43,81.16,null
STON,2023-04-04 12:33:40:859 GMT+02:00 2023,46.08979920666667,11.1155102,0.782474,-177.922791,-4.09546,1
STON,2023-04-04 12:33:40:864 GMT+02:00 2023,46.08979978333333,11.115510565,0.782474,-177.922791,-4.09546,1
STON,2023-04-04 12:33:40:868 GMT+02:00 2023,46.08979978333333,11.115510565,0.782474,-177.922791,-4.09546,1
SMAR,2023-04-04 12:33:40:882 GMT+02:00 2023,46.0899009,11.1156301,289.04,56.0,81.14,null
SMAR,2023-04-04 12:33:40:915 GMT+02:00 2023,46.0899009,11.1156301,289.47,55.47,81.11,null
STON,2023-04-04 12:33:40:921 GMT+02:00 2023,46.08979978333333,11.115510565,1.008219,-177.130768,-4.540922,1
SMAR,2023-04-04 12:33:40:947 GMT+02:00 2023,46.0899009,11.1156301,289.98,54.85,81.09,null
SMAR,2023-04-04 12:33:40:984 GMT+02:00 2023,46.0899009,11.1156301,290.46,54.28,81.11,null
SMAR,2023-04-04 12:33:41:017 GMT+02:00 2023,46.0899009,11.1156301,290.95,53.69,81.12,null
SMAR,2023-04-04 12:33:41:052 GMT+02:00 2023,46.0899009,11.1156301,291.48,52.99,81.16,null
SMAR,2023-04-04 12:33:41:080 GMT+02:00 2023,46.0899009,11.1156301,292.03,52.22,81.22,null
SMAR,2023-04-04 12:33:41:113 GMT+02:00 2023,46.0899009,11.1156301,292.64,51.39,81.27,null
SMAR,2023-04-04 12:33:41:150 GMT+02:00 2023,46.0898947,11.1156263,293.24,50.44,81.34,null
STON,2023-04-04 12:33:41:158 GMT+02:00 2023,46.08979978333333,11.115510565,0.795103,-176.409317,-4.939102,1
SMAR,2023-04-04 12:33:41:178 GMT+02:00 2023,46.0898947,11.1156263,293.79,49.42,81.42,null
SMAR,2023-04-04 12:33:41:213 GMT+02:00 2023,46.0898947,11.1156263,294.42,48.21,81.49,null
SMAR,2023-04-04 12:33:41:251 GMT+02:00 2023,46.0898947,11.1156263,295.07,46.8,81.59,null
SMAR,2023-04-04 12:33:41:281 GMT+02:00 2023,46.0898947,11.1156263,295.75,45.2,81.73,null
STON,2023-04-04 12:33:41:288 GMT+02:00 2023,46.08979978333333,11.115510565,0.23922,-174.448868,-4.859578,1
SMAR,2023-04-04 12:33:41:312 GMT+02:00 2023,46.0898947,11.1156263,296.32,43.54,81.89,null
SMAR,2023-04-04 12:33:41:351 GMT+02:00 2023,46.0898947,11.1156263,296.87,41.89,82.04,null
SMAR,2023-04-04 12:33:41:386 GMT+02:00 2023,46.0898947,11.1156263,297.21,40.57,82.16,null
SMAR,2023-04-04 12:33:41:425 GMT+02:00 2023,46.0898947,11.1156263,297.64,39.27,82.28,null
SMAR,2023-04-04 12:33:41:456 GMT+02:00 2023,46.0898947,11.1156263,298.08,38.0,82.4,null
SMAR,2023-04-04 12:33:41:481 GMT+02:00 2023,46.0898947,11.1156263,298.57,36.75,82.48,null
SMAR,2023-04-04 12:33:41:524 GMT+02:00 2023,46.0898947,11.1156263,298.98,35.68,82.59,null
SMAR,2023-04-04 12:33:41:551 GMT+02:00 2023,46.0898947,11.1156263,299.26,34.82,82.67,null
STON,2023-04-04 12:33:41:557 GMT+02:00 2023,46.08979978333333,11.115510565,-0.349995,-168.515167,-4.293923,1
SMAR,2023-04-04 12:33:41:581 GMT+02:00 2023,46.0898947,11.1156263,299.61,33.91,82.76,null
SMAR,2023-04-04 12:33:41:615 GMT+02:00 2023,46.0898947,11.1156263,299.93,33.01,82.85,null
SMAR,2023-04-04 12:33:41:649 GMT+02:00 2023,46.0898947,11.1156263,300.12,32.31,82.92,null
SMAR,2023-04-04 12:33:41:680 GMT+02:00 2023,46.0898855,11.1156182,300.75,31.34,83.07,null
SMAR,2023-04-04 12:33:41:720 GMT+02:00 2023,46.0898855,11.1156182,300.95,30.86,83.12,null
SMAR,2023-04-04 12:33:41:754 GMT+02:00 2023,46.0898855,11.1156182,301.1,30.49,83.15,null
STON,2023-04-04 12:33:41:760 GMT+02:00 2023,46.08979978333333,11.115510565,-0.772246,-164.198349,-3.714214,1
STON,2023-04-04 12:33:41:764 GMT+02:00 2023,46.089799131666666,11.115510258333334,-0.772246,-164.198349,-3.714214,1
STON,2023-04-04 12:33:41:767 GMT+02:00 2023,46.089799131666666,11.115510258333334,-0.772246,-164.198349,-3.714214,1
SMAR,2023-04-04 12:33:41:779 GMT+02:00 2023,46.0898855,11.1156182,301.32,30.07,83.21,null
SMAR,2023-04-04 12:33:41:813 GMT+02:00 2023,46.0898855,11.1156182,301.34,29.83,83.25,null
SMAR,2023-04-04 12:33:41:845 GMT+02:00 2023,46.0898855,11.1156182,301.3,29.62,83.29,null
SMAR,2023-04-04 12:33:41:884 GMT+02:00 2023,46.0898855,11.1156182,301.31,29.31,83.32,null
SMAR,2023-04-04 12:33:41:914 GMT+02:00 2023,46.0898855,11.1156182,301.27,29.02,83.38,null
STON,2023-04-04 12:33:41:920 GMT+02:00 2023,46.089799131666666,11.115510258333334,-0.960665,-162.257568,-3.316772,1
SMAR,2023-04-04 12:33:41:946 GMT+02:00 2023,46.0898855,11.1156182,301.26,28.75,83.43,null
SMAR,2023-04-04 12:33:41:990 GMT+02:00 2023,46.0898855,11.1156182,301.27,28.55,83.45,null
SMAR,2023-04-04 12:33:42:022 GMT+02:00 2023,46.0898855,11.1156182,301.18,28.53,83.49,null
SMAR,2023-04-04 12:33:42:050 GMT+02:00 2023,46.0898855,11.1156182,301.04,28.61,83.52,null
SMAR,2023-04-04 12:33:42:083 GMT+02:00 2023,46.0898855,11.1156182,300.82,28.86,83.52,null
SMAR,2023-04-04 12:33:42:116 GMT+02:00 2023,46.0898855,11.1156182,300.56,29.09,83.53,null
STON,2023-04-04 12:33:42:126 GMT+02:00 2023,46.089799131666666,11.115510258333334,-0.972676,-160.683472,-2.942421,1
SMAR,2023-04-04 12:33:42:156 GMT+02:00 2023,46.0898855,11.1156182,300.28,29.27,83.53,null
SMAR,2023-04-04 12:33:42:190 GMT+02:00 2023,46.0898739,11.1156158,299.83,29.56,83.5,null
SMAR,2023-04-04 12:33:42:223 GMT+02:00 2023,46.0898739,11.1156158,299.56,29.71,83.5,null
SMAR,2023-04-04 12:33:42:256 GMT+02:00 2023,46.0898739,11.1156158,299.5,29.69,83.49,null
SMAR,2023-04-04 12:33:42:282 GMT+02:00 2023,46.0898739,11.1156158,299.58,29.53,83.38,null
STON,2023-04-04 12:33:42:288 GMT+02:00 2023,46.089799131666666,11.115510258333334,-0.894522,-160.245117,-2.74967,1
SMAR,2023-04-04 12:33:42:321 GMT+02:00 2023,46.0898739,11.1156158,299.52,29.53,83.36,null
SMAR,2023-04-04 12:33:42:349 GMT+02:00 2023,46.0898739,11.1156158,299.5,29.49,83.35,null
SMAR,2023-04-04 12:33:42:384 GMT+02:00 2023,46.0898739,11.1156158,299.68,29.25,83.32,null
SMAR,2023-04-04 12:33:42:426 GMT+02:00 2023,46.0898739,11.1156158,299.65,29.15,83.3,null
SMAR,2023-04-04 12:33:42:460 GMT+02:00 2023,46.0898739,11.1156158,299.58,29.07,83.29,null
SMAR,2023-04-04 12:33:42:488 GMT+02:00 2023,46.0898739,11.1156158,299.5,29.02,83.25,null
SMAR,2023-04-04 12:33:42:518 GMT+02:00 2023,46.0898739,11.1156158,299.49,28.89,83.23,null
STON,2023-04-04 12:33:42:525 GMT+02:00 2023,46.089799131666666,11.115510258333334,-0.812358,-159.493591,-2.865862,1
SMAR,2023-04-04 12:33:42:557 GMT+02:00 2023,46.0898739,11.1156158,299.48,28.71,83.21,null
SMAR,2023-04-04 12:33:42:588 GMT+02:00 2023,46.0898739,11.1156158,299.36,28.64,83.19,null
SMAR,2023-04-04 12:33:42:627 GMT+02:00 2023,46.0898739,11.1156158,299.27,28.53,83.17,null
SMAR,2023-04-04 12:33:42:656 GMT+02:00 2023,46.0898739,11.1156158,299.3,28.3,83.16,null
SMAR,2023-04-04 12:33:42:690 GMT+02:00 2023,46.0898739,11.1156158,299.0,28.4,83.15,null
SMAR,2023-04-04 12:33:42:726 GMT+02:00 2023,46.0898739,11.1156158,298.85,28.39,83.15,null
STON,2023-04-04 12:33:42:737 GMT+02:00 2023,46.089799131666666,11.115510258333334,-0.782781,-158.313553,-3.001364,1
SMAR,2023-04-04 12:33:42:761 GMT+02:00 2023,46.0898739,11.1156158,298.76,28.38,83.15,null
SMAR,2023-04-04 12:33:42:791 GMT+02:00 2023,46.0898739,11.1156158,298.69,28.37,83.13,null
SMAR,2023-04-04 12:33:42:823 GMT+02:00 2023,46.0898739,11.1156158,298.77,28.22,83.13,null
SMAR,2023-04-04 12:33:42:857 GMT+02:00 2023,46.0898739,11.1156158,298.85,28.08,83.12,null
STON,2023-04-04 12:33:42:860 GMT+02:00 2023,46.089799111666665,11.115510015,-0.782781,-158.313553,-3.001364,1
STON,2023-04-04 12:33:42:864 GMT+02:00 2023,46.089799111666665,11.115510015,-0.782781,-158.313553,-3.001364,1
SMAR,2023-04-04 12:33:42:895 GMT+02:00 2023,46.0898739,11.1156158,298.93,27.94,83.11,null
SMAR,2023-04-04 12:33:42:924 GMT+02:00 2023,46.0898739,11.1156158,299.08,27.73,83.11,null
STON,2023-04-04 12:33:42:931 GMT+02:00 2023,46.089799111666665,11.115510015,-0.67713,-157.239288,-3.126069,1
SMAR,2023-04-04 12:33:42:956 GMT+02:00 2023,46.0898739,11.1156158,299.13,27.62,83.12,null
SMAR,2023-04-04 12:33:42:986 GMT+02:00 2023,46.0898739,11.1156158,299.47,27.32,83.14,null
SMAR,2023-04-04 12:33:43:020 GMT+02:00 2023,46.0898739,11.1156158,299.39,27.41,83.15,null
SMAR,2023-04-04 12:33:43:056 GMT+02:00 2023,46.0898739,11.1156158,299.28,27.55,83.14,null
SMAR,2023-04-04 12:33:43:084 GMT+02:00 2023,46.0898739,11.1156158,299.13,27.69,83.12,null
SMAR,2023-04-04 12:33:43:124 GMT+02:00 2023,46.0898739,11.1156158,298.98,27.79,83.11,null
STON,2023-04-04 12:33:43:128 GMT+02:00 2023,46.089799111666665,11.115510015,-0.714425,-156.585663,-3.230733,1
SMAR,2023-04-04 12:33:43:149 GMT+02:00 2023,46.0898739,11.1156158,298.83,27.85,83.1,null
SMAR,2023-04-04 12:33:43:181 GMT+02:00 2023,46.0898618,11.1156169,298.72,27.88,83.08,null
SMAR,2023-04-04 12:33:43:219 GMT+02:00 2023,46.0898618,11.1156169,298.69,27.84,83.08,null
SMAR,2023-04-04 12:33:43:253 GMT+02:00 2023,46.0898618,11.1156169,298.59,27.89,83.07,null
SMAR,2023-04-04 12:33:43:290 GMT+02:00 2023,46.0898618,11.1156169,298.52,27.96,83.05,null
SMAR,2023-04-04 12:33:43:327 GMT+02:00 2023,46.0898618,11.1156169,298.43,28.04,83.05,null
STON,2023-04-04 12:33:43:335 GMT+02:00 2023,46.089799111666665,11.115510015,-0.585197,-156.025604,-3.333489,1
SMAR,2023-04-04 12:33:43:362 GMT+02:00 2023,46.0898618,11.1156169,298.36,28.07,83.03,null
SMAR,2023-04-04 12:33:43:394 GMT+02:00 2023,46.0898618,11.1156169,298.26,28.12,83.01,null
SMAR,2023-04-04 12:33:43:442 GMT+02:00 2023,46.0898618,11.1156169,298.17,28.08,83.0,null
SMAR,2023-04-04 12:33:43:464 GMT+02:00 2023,46.0898618,11.1156169,298.11,27.98,82.99,null
SMAR,2023-04-04 12:33:43:492 GMT+02:00 2023,46.0898618,11.1156169,298.07,27.86,82.97,null
SMAR,2023-04-04 12:33:43:530 GMT+02:00 2023,46.0898618,11.1156169,298.05,27.74,82.97,null
SMAR,2023-04-04 12:33:43:564 GMT+02:00 2023,46.0898618,11.1156169,297.93,27.79,82.96,null
STON,2023-04-04 12:33:43:571 GMT+02:00 2023,46.089799111666665,11.115510015,-0.497836,-155.45015,-3.401383,1
SMAR,2023-04-04 12:33:43:615 GMT+02:00 2023,46.0898618,11.1156169,297.89,27.86,82.94,null
SMAR,2023-04-04 12:33:43:642 GMT+02:00 2023,46.0898618,11.1156169,297.85,27.93,82.93,null
SMAR,2023-04-04 12:33:43:662 GMT+02:00 2023,46.0898618,11.1156169,297.82,27.94,82.91,null
SMAR,2023-04-04 12:33:43:691 GMT+02:00 2023,46.0898618,11.1156169,297.81,27.87,82.87,null
SMAR,2023-04-04 12:33:43:726 GMT+02:00 2023,46.0898618,11.1156169,297.8,27.78,82.85,null
STON,2023-04-04 12:33:43:740 GMT+02:00 2023,46.089799111666665,11.115510015,-0.429702,-154.687958,-3.414933,1
STON,2023-04-04 12:33:43:743 GMT+02:00 2023,46.089799123333336,11.115510098333333,-0.429702,-154.687958,-3.414933,1
STON,2023-04-04 12:33:43:747 GMT+02:00 2023,46.089799123333336,11.115510098333333,-0.429702,-154.687958,-3.414933,1
SMAR,2023-04-04 12:33:43:757 GMT+02:00 2023,46.0898618,11.1156169,297.88,27.56,82.82,null
SMAR,2023-04-04 12:33:43:790 GMT+02:00 2023,46.0898618,11.1156169,298.07,27.24,82.79,null
SMAR,2023-04-04 12:33:43:825 GMT+02:00 2023,46.0898618,11.1156169,298.15,27.05,82.76,null
STON,2023-04-04 12:33:43:852 GMT+02:00 2023,46.089799123333336,11.115510098333333,-0.450526,-153.861191,-3.449262,1
SMAR,2023-04-04 12:33:43:856 GMT+02:00 2023,46.0898618,11.1156169,298.24,26.86,82.72,null
SMAR,2023-04-04 12:33:43:890 GMT+02:00 2023,46.0898618,11.1156169,298.38,26.65,82.67,null
SMAR,2023-04-04 12:33:43:925 GMT+02:00 2023,46.0898618,11.1156169,298.5,26.44,82.63,null
SMAR,2023-04-04 12:33:43:960 GMT+02:00 2023,46.0898618,11.1156169,298.59,26.27,82.6,null
SMAR,2023-04-04 12:33:43:990 GMT+02:00 2023,46.0898618,11.1156169,298.67,26.13,82.55,null
SMAR,2023-04-04 12:33:44:022 GMT+02:00 2023,46.0898618,11.1156169,298.75,26.02,82.52,null
SMAR,2023-04-04 12:33:44:056 GMT+02:00 2023,46.0898618,11.1156169,298.85,25.89,82.49,null
SMAR,2023-04-04 12:33:44:092 GMT+02:00 2023,46.0898618,11.1156169,298.96,25.75,82.44,null
STON,2023-04-04 12:33:44:099 GMT+02:00 2023,46.089799123333336,11.115510098333333,-0.530777,-153.258835,-3.583675,1
SMAR,2023-04-04 12:33:44:126 GMT+02:00 2023,46.0898618,11.1156169,298.99,25.69,82.4,null
SMAR,2023-04-04 12:33:44:160 GMT+02:00 2023,46.0898618,11.1156169,299.07,25.52,82.37,null
SMAR,2023-04-04 12:33:44:193 GMT+02:00 2023,46.0898618,11.1156169,299.19,25.25,82.32,null
SMAR,2023-04-04 12:33:44:226 GMT+02:00 2023,46.0898618,11.1156169,299.32,24.93,82.28,null
SMAR,2023-04-04 12:33:44:260 GMT+02:00 2023,46.0898618,11.1156169,299.51,24.58,82.25,null
SMAR,2023-04-04 12:33:44:291 GMT+02:00 2023,46.0898618,11.1156169,299.74,24.27,82.21,null
SMAR,2023-04-04 12:33:44:323 GMT+02:00 2023,46.0898618,11.1156169,299.97,24.04,82.19,null
SMAR,2023-04-04 12:33:44:358 GMT+02:00 2023,46.0898618,11.1156169,300.14,23.89,82.16,null
SMAR,2023-04-04 12:33:44:388 GMT+02:00 2023,46.0898618,11.1156169,300.21,23.84,82.13,null
SMAR,2023-04-04 12:33:44:437 GMT+02:00 2023,46.0898618,11.1156169,300.23,23.81,82.11,null
SMAR,2023-04-04 12:33:44:469 GMT+02:00 2023,46.0898618,11.1156169,300.44,23.56,82.09,null
STON,2023-04-04 12:33:44:475 GMT+02:00 2023,46.089799123333336,11.115510098333333,-0.581705,-152.75267,-3.79692,1
STON,2023-04-04 12:33:44:480 GMT+02:00 2023,46.089799123333336,11.115510098333333,-0.731811,-152.25441,-3.925491,1
SMAR,2023-04-04 12:33:44:507 GMT+02:00 2023,46.0898618,11.1156169,300.64,23.32,82.05,null
SMAR,2023-04-04 12:33:44:537 GMT+02:00 2023,46.0898618,11.1156169,300.85,23.09,82.03,null
SMAR,2023-04-04 12:33:44:568 GMT+02:00 2023,46.0898618,11.1156169,301.1,22.82,82.0,null
SMAR,2023-04-04 12:33:44:602 GMT+02:00 2023,46.0898618,11.1156169,301.37,22.54,81.98,null
SMAR,2023-04-04 12:33:44:634 GMT+02:00 2023,46.0898477,11.1156218,301.59,22.3,81.96,null
SMAR,2023-04-04 12:33:44:668 GMT+02:00 2023,46.0898477,11.1156218,301.81,22.03,81.95,null
SMAR,2023-04-04 12:33:44:701 GMT+02:00 2023,46.0898477,11.1156218,302.01,21.81,81.93,null
STON,2023-04-04 12:33:44:707 GMT+02:00 2023,46.089799123333336,11.115510098333333,-0.868484,-151.846115,-4.133461,1
STON,2023-04-04 12:33:44:712 GMT+02:00 2023,46.08979888333333,11.115510346666667,-0.868484,-151.846115,-4.133461,1
STON,2023-04-04 12:33:44:720 GMT+02:00 2023,46.08979888333333,11.115510346666667,-0.868484,-151.846115,-4.133461,1
SMAR,2023-04-04 12:33:44:735 GMT+02:00 2023,46.0898477,11.1156218,302.2,21.63,81.92,null
SMAR,2023-04-04 12:33:44:768 GMT+02:00 2023,46.0898477,11.1156218,302.38,21.48,81.91,null
SMAR,2023-04-04 12:33:44:801 GMT+02:00 2023,46.0898477,11.1156218,302.5,21.38,81.89,null
SMAR,2023-04-04 12:33:44:834 GMT+02:00 2023,46.0898477,11.1156218,302.65,21.25,81.88,null
SMAR,2023-04-04 12:33:44:866 GMT+02:00 2023,46.0898477,11.1156218,302.8,21.1,81.87,null
STON,2023-04-04 12:33:44:888 GMT+02:00 2023,46.08979888333333,11.115510346666667,-1.072886,-151.649277,-4.176774,1
SMAR,2023-04-04 12:33:44:898 GMT+02:00 2023,46.0898477,11.1156218,302.91,20.97,81.85,null
SMAR,2023-04-04 12:33:44:935 GMT+02:00 2023,46.0898477,11.1156218,303.01,20.84,81.84,null
SMAR,2023-04-04 12:33:44:966 GMT+02:00 2023,46.0898477,11.1156218,303.11,20.72,81.82,null
SMAR,2023-04-04 12:33:45:000 GMT+02:00 2023,46.0898477,11.1156218,303.18,20.63,81.81,null
SMAR,2023-04-04 12:33:45:034 GMT+02:00 2023,46.0898477,11.1156218,303.29,20.52,81.81,null
SMAR,2023-04-04 12:33:45:065 GMT+02:00 2023,46.0898477,11.1156218,303.38,20.45,81.8,null
STON,2023-04-04 12:33:45:079 GMT+02:00 2023,46.08979888333333,11.115510346666667,-1.183606,-151.400192,-4.284957,1
SMAR,2023-04-04 12:33:45:098 GMT+02:00 2023,46.0898477,11.1156218,303.45,20.4,81.79,null
SMAR,2023-04-04 12:33:45:132 GMT+02:00 2023,46.0898477,11.1156218,303.54,20.31,81.79,null
SMAR,2023-04-04 12:33:45:164 GMT+02:00 2023,46.0898477,11.1156218,303.66,20.2,81.8,null
SMAR,2023-04-04 12:33:45:199 GMT+02:00 2023,46.0898477,11.1156218,303.76,20.13,81.81,null
SMAR,2023-04-04 12:33:45:231 GMT+02:00 2023,46.0898477,11.1156218,303.83,20.1,81.81,null
SMAR,2023-04-04 12:33:45:270 GMT+02:00 2023,46.0898477,11.1156218,303.88,20.09,81.83,null
SMAR,2023-04-04 12:33:45:299 GMT+02:00 2023,46.0898477,11.1156218,303.9,20.1,81.84,null
SMAR,2023-04-04 12:33:45:331 GMT+02:00 2023,46.0898477,11.1156218,303.93,20.11,81.85,null
SMAR,2023-04-04 12:33:45:365 GMT+02:00 2023,46.0898477,11.1156218,303.93,20.11,81.87,null
STON,2023-04-04 12:33:45:370 GMT+02:00 2023,46.08979888333333,11.115510346666667,-1.252932,-151.294495,-4.28986,1
SMAR,2023-04-04 12:33:45:395 GMT+02:00 2023,46.0898477,11.1156218,303.92,20.14,81.89,null
SMAR,2023-04-04 12:33:45:431 GMT+02:00 2023,46.0898477,11.1156218,303.89,20.18,81.9,null
SMAR,2023-04-04 12:33:45:465 GMT+02:00 2023,46.0898477,11.1156218,303.91,20.2,81.91,null
SMAR,2023-04-04 12:33:45:498 GMT+02:00 2023,46.0898477,11.1156218,303.93,20.19,81.92,null
SMAR,2023-04-04 12:33:45:531 GMT+02:00 2023,46.0898477,11.1156218,303.87,20.25,81.93,null
SMAR,2023-04-04 12:33:45:562 GMT+02:00 2023,46.0898477,11.1156218,303.85,20.27,81.94,null
SMAR,2023-04-04 12:33:45:599 GMT+02:00 2023,46.0898477,11.1156218,303.89,20.25,81.94,null
SMAR,2023-04-04 12:33:45:629 GMT+02:00 2023,46.0898404,11.1156242,303.87,20.31,81.95,null
SMAR,2023-04-04 12:33:45:662 GMT+02:00 2023,46.0898404,11.1156242,303.77,20.41,81.96,null
STON,2023-04-04 12:33:45:690 GMT+02:00 2023,46.08979888333333,11.115510346666667,-1.126111,-151.163422,-4.154279,1
STON,2023-04-04 12:33:45:694 GMT+02:00 2023,46.08979879666666,11.115510353333333,-1.126111,-151.163422,-4.154279,1
SMAR,2023-04-04 12:33:45:696 GMT+02:00 2023,46.0898404,11.1156242,303.66,20.51,81.97,null
STON,2023-04-04 12:33:45:702 GMT+02:00 2023,46.08979879666666,11.115510353333333,-1.126111,-151.163422,-4.154279,1
SMAR,2023-04-04 12:33:45:728 GMT+02:00 2023,46.0898404,11.1156242,303.66,20.51,81.97,null
SMAR,2023-04-04 12:33:45:761 GMT+02:00 2023,46.0898404,11.1156242,303.56,20.62,81.97,null
SMAR,2023-04-04 12:33:45:796 GMT+02:00 2023,46.0898404,11.1156242,303.44,20.73,81.98,null
SMAR,2023-04-04 12:33:45:826 GMT+02:00 2023,46.0898404,11.1156242,303.37,20.79,81.97,null
SMAR,2023-04-04 12:33:45:867 GMT+02:00 2023,46.0898404,11.1156242,303.31,20.86,81.96,null
STON,2023-04-04 12:33:45:872 GMT+02:00 2023,46.08979879666666,11.115510353333333,-1.037066,-151.072189,-4.056188,1
SMAR,2023-04-04 12:33:45:899 GMT+02:00 2023,46.0898404,11.1156242,303.3,20.85,81.95,null
SMAR,2023-04-04 12:33:45:928 GMT+02:00 2023,46.0898404,11.1156242,303.29,20.86,81.93,null
SMAR,2023-04-04 12:33:45:969 GMT+02:00 2023,46.0898404,11.1156242,303.27,20.9,81.92,null
SMAR,2023-04-04 12:33:45:998 GMT+02:00 2023,46.0898404,11.1156242,303.27,20.94,81.92,null
SMAR,2023-04-04 12:33:46:036 GMT+02:00 2023,46.0898404,11.1156242,303.23,21.03,81.89,null
SMAR,2023-04-04 12:33:46:068 GMT+02:00 2023,46.0898404,11.1156242,303.2,21.07,81.86,null
SMAR,2023-04-04 12:33:46:100 GMT+02:00 2023,46.0898404,11.1156242,303.15,21.08,81.84,null
SMAR,2023-04-04 12:33:46:130 GMT+02:00 2023,46.0898404,11.1156242,303.12,21.07,81.81,null
SMAR,2023-04-04 12:33:46:167 GMT+02:00 2023,46.0898404,11.1156242,303.18,21.01,81.78,null
SMAR,2023-04-04 12:33:46:192 GMT+02:00 2023,46.0898404,11.1156242,303.24,20.95,81.75,null
SMAR,2023-04-04 12:33:46:228 GMT+02:00 2023,46.0898404,11.1156242,303.26,20.92,81.72,null
STON,2023-04-04 12:33:46:250 GMT+02:00 2023,46.08979879666666,11.115510353333333,-1.024045,-151.025208,-4.006581,1
SMAR,2023-04-04 12:33:46:256 GMT+02:00 2023,46.0898404,11.1156242,303.33,20.83,81.69,null
STON,2023-04-04 12:33:46:270 GMT+02:00 2023,46.08979879666666,11.115510353333333,-1.002716,-150.95813,-4.141222,1
SMAR,2023-04-04 12:33:46:297 GMT+02:00 2023,46.0898404,11.1156242,303.39,20.72,81.67,null
SMAR,2023-04-04 12:33:46:329 GMT+02:00 2023,46.0898404,11.1156242,303.47,20.58,81.65,null
SMAR,2023-04-04 12:33:46:362 GMT+02:00 2023,46.0898404,11.1156242,303.52,20.51,81.62,null
SMAR,2023-04-04 12:33:46:398 GMT+02:00 2023,46.0898404,11.1156242,303.59,20.45,81.61,null
SMAR,2023-04-04 12:33:46:431 GMT+02:00 2023,46.0898404,11.1156242,303.67,20.36,81.59,null
SMAR,2023-04-04 12:33:46:463 GMT+02:00 2023,46.0898404,11.1156242,303.74,20.26,81.58,null
SMAR,2023-04-04 12:33:46:494 GMT+02:00 2023,46.0898404,11.1156242,303.81,20.16,81.57,null
STON,2023-04-04 12:33:46:500 GMT+02:00 2023,46.08979879666666,11.115510353333333,-1.039534,-150.752823,-4.353491,1
SMAR,2023-04-04 12:33:46:525 GMT+02:00 2023,46.0898404,11.1156242,303.88,20.09,81.56,null
SMAR,2023-04-04 12:33:46:560 GMT+02:00 2023,46.0898404,11.1156242,304.0,19.99,81.56,null
SMAR,2023-04-04 12:33:46:595 GMT+02:00 2023,46.0898404,11.1156242,304.1,19.89,81.57,null
SMAR,2023-04-04 12:33:46:625 GMT+02:00 2023,46.0898404,11.1156242,304.27,19.74,81.58,null
SMAR,2023-04-04 12:33:46:662 GMT+02:00 2023,46.089839,11.1156251,304.57,19.56,81.63,null
SMAR,2023-04-04 12:33:46:692 GMT+02:00 2023,46.089839,11.1156251,304.82,19.52,81.6,null
STON,2023-04-04 12:33:46:697 GMT+02:00 2023,46.08979879666666,11.115510353333333,-1.0774,-150.582336,-4.444639,1
STON,2023-04-04 12:33:46:700 GMT+02:00 2023,46.08979875166666,11.115510511666667,-1.0774,-150.582336,-4.444639,1
STON,2023-04-04 12:33:46:703 GMT+02:00 2023,46.08979875166666,11.115510511666667,-1.0774,-150.582336,-4.444639,1
SMAR,2023-04-04 12:33:46:726 GMT+02:00 2023,46.089839,11.1156251,305.08,19.45,81.65,null
SMAR,2023-04-04 12:33:46:761 GMT+02:00 2023,46.089839,11.1156251,305.28,19.41,81.69,null
SMAR,2023-04-04 12:33:46:793 GMT+02:00 2023,46.089839,11.1156251,305.24,19.57,81.71,null
SMAR,2023-04-04 12:33:46:826 GMT+02:00 2023,46.089839,11.1156251,305.23,19.65,81.74,null
SMAR,2023-04-04 12:33:46:864 GMT+02:00 2023,46.089839,11.1156251,305.2,19.71,81.77,null
SMAR,2023-04-04 12:33:46:892 GMT+02:00 2023,46.089839,11.1156251,305.18,19.77,81.79,null
STON,2023-04-04 12:33:46:921 GMT+02:00 2023,46.08979875166666,11.115510511666667,-1.196936,-151.149246,-4.276906,1
SMAR,2023-04-04 12:33:46:935 GMT+02:00 2023,46.089839,11.1156251,305.15,19.87,81.83,null
SMAR,2023-04-04 12:33:46:969 GMT+02:00 2023,46.089839,11.1156251,305.13,19.97,81.86,null
SMAR,2023-04-04 12:33:47:001 GMT+02:00 2023,46.089839,11.1156251,305.18,19.99,81.88,null
SMAR,2023-04-04 12:33:47:035 GMT+02:00 2023,46.089839,11.1156251,305.23,19.96,81.9,null
SMAR,2023-04-04 12:33:47:068 GMT+02:00 2023,46.089839,11.1156251,305.26,19.96,81.93,null
SMAR,2023-04-04 12:33:47:102 GMT+02:00 2023,46.089839,11.1156251,305.35,19.94,81.96,null
STON,2023-04-04 12:33:47:133 GMT+02:00 2023,46.08979875166666,11.115510511666667,-1.145382,-151.319962,-4.121006,1
SMAR,2023-04-04 12:33:47:137 GMT+02:00 2023,46.089839,11.1156251,305.4,19.95,81.98,null
SMAR,2023-04-04 12:33:47:168 GMT+02:00 2023,46.089839,11.1156251,305.44,19.96,82.01,null
SMAR,2023-04-04 12:33:47:202 GMT+02:00 2023,46.089839,11.1156251,305.56,19.92,82.03,null
SMAR,2023-04-04 12:33:47:235 GMT+02:00 2023,46.089839,11.1156251,305.58,19.91,82.06,null
SMAR,2023-04-04 12:33:47:268 GMT+02:00 2023,46.089839,11.1156251,305.53,19.99,82.09,null
STON,2023-04-04 12:33:47:292 GMT+02:00 2023,46.08979875166666,11.115510511666667,-1.168724,-151.479065,-3.931109,1
SMAR,2023-04-04 12:33:47:299 GMT+02:00 2023,46.089839,11.1156251,305.57,19.97,82.11,null
SMAR,2023-04-04 12:33:47:334 GMT+02:00 2023,46.089839,11.1156251,305.57,19.96,82.12,null
SMAR,2023-04-04 12:33:47:367 GMT+02:00 2023,46.089839,11.1156251,305.55,19.98,82.13,null
SMAR,2023-04-04 12:33:47:400 GMT+02:00 2023,46.089839,11.1156251,305.64,19.9,82.15,null
SMAR,2023-04-04 12:33:47:433 GMT+02:00 2023,46.089839,11.1156251,305.64,19.89,82.16,null
SMAR,2023-04-04 12:33:47:470 GMT+02:00 2023,46.089839,11.1156251,305.67,19.83,82.16,null
STON,2023-04-04 12:33:47:477 GMT+02:00 2023,46.08979875166666,11.115510511666667,-1.153837,-151.432587,-3.706745,1
SMAR,2023-04-04 12:33:47:503 GMT+02:00 2023,46.089839,11.1156251,305.71,19.77,82.18,null
SMAR,2023-04-04 12:33:47:536 GMT+02:00 2023,46.089839,11.1156251,305.67,19.79,82.19,null
SMAR,2023-04-04 12:33:47:570 GMT+02:00 2023,46.089839,11.1156251,305.58,19.89,82.2,null
SMAR,2023-04-04 12:33:47:603 GMT+02:00 2023,46.089839,11.1156251,305.53,19.92,82.21,null
SMAR,2023-04-04 12:33:47:630 GMT+02:00 2023,46.0898383,11.1156254,305.41,19.98,82.23,null
SMAR,2023-04-04 12:33:47:666 GMT+02:00 2023,46.0898383,11.1156254,305.27,20.09,82.25,null
SMAR,2023-04-04 12:33:47:698 GMT+02:00 2023,46.0898383,11.1156254,305.13,20.25,82.27,null
STON,2023-04-04 12:33:47:723 GMT+02:00 2023,46.08979875166666,11.115510511666667,-1.135821,-151.323914,-3.725181,1
SMAR,2023-04-04 12:33:47:730 GMT+02:00 2023,46.0898383,11.1156254,305.02,20.41,82.31,null
SMAR,2023-04-04 12:33:47:768 GMT+02:00 2023,46.0898383,11.1156254,304.92,20.54,82.34,null
SMAR,2023-04-04 12:33:47:797 GMT+02:00 2023,46.0898383,11.1156254,304.8,20.65,82.38,null
STON,2023-04-04 12:33:47:804 GMT+02:00 2023,46.089798816666665,11.115510303333334,-1.135821,-151.323914,-3.725181,1
SMAR,2023-04-04 12:33:47:833 GMT+02:00 2023,46.0898383,11.1156254,304.69,20.75,82.41,null
STON,2023-04-04 12:33:47:864 GMT+02:00 2023,46.089798816666665,11.115510303333334,-1.135821,-151.323914,-3.725181,1
SMAR,2023-04-04 12:33:47:866 GMT+02:00 2023,46.0898383,11.1156254,304.54,20.9,82.43,null
SMAR,2023-04-04 12:33:47:906 GMT+02:00 2023,46.0898383,11.1156254,304.45,20.98,82.46,null
SMAR,2023-04-04 12:33:47:934 GMT+02:00 2023,46.0898383,11.1156254,304.34,21.07,82.48,null
SMAR,2023-04-04 12:33:47:968 GMT+02:00 2023,46.0898383,11.1156254,304.21,21.18,82.5,null
STON,2023-04-04 12:33:47:985 GMT+02:00 2023,46.089798816666665,11.115510303333334,-1.046593,-151.187744,-3.593311,1
SMAR,2023-04-04 12:33:47:999 GMT+02:00 2023,46.0898383,11.1156254,304.07,21.31,82.52,null
SMAR,2023-04-04 12:33:48:039 GMT+02:00 2023,46.0898383,11.1156254,303.99,21.42,82.54,null
SMAR,2023-04-04 12:33:48:070 GMT+02:00 2023,46.0898383,11.1156254,303.86,21.54,82.55,null
SMAR,2023-04-04 12:33:48:099 GMT+02:00 2023,46.0898383,11.1156254,303.71,21.68,82.57,null
SMAR,2023-04-04 12:33:48:138 GMT+02:00 2023,46.0898383,11.1156254,303.56,21.82,82.58,null
SMAR,2023-04-04 12:33:48:166 GMT+02:00 2023,46.0898383,11.1156254,303.44,21.91,82.6,null
STON,2023-04-04 12:33:48:173 GMT+02:00 2023,46.089798816666665,11.115510303333334,-0.941591,-151.062576,-3.419958,1
SMAR,2023-04-04 12:33:48:202 GMT+02:00 2023,46.0898383,11.1156254,303.23,22.13,82.6,null
SMAR,2023-04-04 12:33:48:242 GMT+02:00 2023,46.0898383,11.1156254,303.1,22.26,82.61,null
SMAR,2023-04-04 12:33:48:275 GMT+02:00 2023,46.0898383,11.1156254,302.98,22.38,82.63,null
STON,2023-04-04 12:33:48:284 GMT+02:00 2023,46.089798816666665,11.115510303333334,-0.790746,-150.973083,-3.45272,1
SMAR,2023-04-04 12:33:48:303 GMT+02:00 2023,46.0898383,11.1156254,302.88,22.44,82.64,null
SMAR,2023-04-04 12:33:48:334 GMT+02:00 2023,46.0898383,11.1156254,302.78,22.52,82.65,null
SMAR,2023-04-04 12:33:48:369 GMT+02:00 2023,46.0898383,11.1156254,302.68,22.64,82.66,null
SMAR,2023-04-04 12:33:48:396 GMT+02:00 2023,46.0898383,11.1156254,302.56,22.77,82.67,null
SMAR,2023-04-04 12:33:48:438 GMT+02:00 2023,46.0898383,11.1156254,302.49,22.81,82.69,null
SMAR,2023-04-04 12:33:48:470 GMT+02:00 2023,46.0898383,11.1156254,302.43,22.84,82.7,null
STON,2023-04-04 12:33:48:479 GMT+02:00 2023,46.089798816666665,11.115510303333334,-0.760692,-150.914078,-3.285321,1
SMAR,2023-04-04 12:33:48:501 GMT+02:00 2023,46.0898383,11.1156254,302.34,22.92,82.72,null
SMAR,2023-04-04 12:33:48:530 GMT+02:00 2023,46.0898383,11.1156254,302.26,23.0,82.73,null
SMAR,2023-04-04 12:33:48:567 GMT+02:00 2023,46.0898383,11.1156254,302.21,23.02,82.75,null
SMAR,2023-04-04 12:33:48:596 GMT+02:00 2023,46.0898383,11.1156254,302.22,22.99,82.77,null
SMAR,2023-04-04 12:33:48:632 GMT+02:00 2023,46.0898384,11.1156257,302.19,23.02,82.79,null
SMAR,2023-04-04 12:33:48:666 GMT+02:00 2023,46.0898384,11.1156257,302.2,23.02,82.82,null
STON,2023-04-04 12:33:48:685 GMT+02:00 2023,46.089798816666665,11.115510303333334,-0.680387,-150.735992,-3.224343,1
SMAR,2023-04-04 12:33:48:698 GMT+02:00 2023,46.0898384,11.1156257,302.2,23.03,82.84,null
STON,2023-04-04 12:33:48:707 GMT+02:00 2023,46.08979896,11.115510196666667,-0.680387,-150.735992,-3.224343,1
STON,2023-04-04 12:33:48:711 GMT+02:00 2023,46.08979896,11.115510196666667,-0.680387,-150.735992,-3.224343,1
SMAR,2023-04-04 12:33:48:730 GMT+02:00 2023,46.0898384,11.1156257,302.2,23.01,82.87,null
SMAR,2023-04-04 12:33:48:759 GMT+02:00 2023,46.0898384,11.1156257,302.2,22.99,82.89,null
SMAR,2023-04-04 12:33:48:798 GMT+02:00 2023,46.0898384,11.1156257,302.16,23.0,82.91,null
SMAR,2023-04-04 12:33:48:835 GMT+02:00 2023,46.0898384,11.1156257,302.19,22.92,82.92,null
SMAR,2023-04-04 12:33:48:870 GMT+02:00 2023,46.0898384,11.1156257,302.25,22.82,82.95,null
SMAR,2023-04-04 12:33:48:898 GMT+02:00 2023,46.0898384,11.1156257,302.49,22.61,82.96,null
STON,2023-04-04 12:33:48:904 GMT+02:00 2023,46.08979896,11.115510196666667,-0.676615,-150.589081,-3.193883,1
SMAR,2023-04-04 12:33:48:935 GMT+02:00 2023,46.0898384,11.1156257,302.56,22.53,82.98,null
SMAR,2023-04-04 12:33:48:976 GMT+02:00 2023,46.0898384,11.1156257,302.65,22.39,83.0,null
SMAR,2023-04-04 12:33:49:009 GMT+02:00 2023,46.0898384,11.1156257,302.78,22.2,83.02,null
SMAR,2023-04-04 12:33:49:044 GMT+02:00 2023,46.0898384,11.1156257,302.86,22.04,83.04,null
SMAR,2023-04-04 12:33:49:076 GMT+02:00 2023,46.0898384,11.1156257,303.03,21.78,83.05,null
SMAR,2023-04-04 12:33:49:108 GMT+02:00 2023,46.0898384,11.1156257,303.34,21.37,83.07,null
STON,2023-04-04 12:33:49:122 GMT+02:00 2023,46.08979896,11.115510196666667,-0.753558,-150.365372,-2.941923,1
SMAR,2023-04-04 12:33:49:139 GMT+02:00 2023,46.0898384,11.1156257,303.65,20.93,83.08,null
SMAR,2023-04-04 12:33:49:170 GMT+02:00 2023,46.0898384,11.1156257,304.04,20.42,83.09,null
SMAR,2023-04-04 12:33:49:206 GMT+02:00 2023,46.0898384,11.1156257,304.43,19.94,83.1,null
SMAR,2023-04-04 12:33:49:233 GMT+02:00 2023,46.0898384,11.1156257,304.8,19.46,83.11,null
SMAR,2023-04-04 12:33:49:270 GMT+02:00 2023,46.0898384,11.1156257,305.13,19.02,83.12,null
STON,2023-04-04 12:33:49:305 GMT+02:00 2023,46.08979896,11.115510196666667,-0.899631,-149.76416,-2.835586,1
SMAR,2023-04-04 12:33:49:310 GMT+02:00 2023,46.0898384,11.1156257,305.46,18.57,83.14,null
SMAR,2023-04-04 12:33:49:335 GMT+02:00 2023,46.0898384,11.1156257,305.82,18.1,83.15,null
SMAR,2023-04-04 12:33:49:370 GMT+02:00 2023,46.0898384,11.1156257,306.15,17.62,83.16,null
SMAR,2023-04-04 12:33:49:402 GMT+02:00 2023,46.0898384,11.1156257,306.54,17.07,83.17,null
SMAR,2023-04-04 12:33:49:443 GMT+02:00 2023,46.0898384,11.1156257,306.88,16.58,83.19,null
SMAR,2023-04-04 12:33:49:473 GMT+02:00 2023,46.0898384,11.1156257,307.25,16.09,83.2,null
STON,2023-04-04 12:33:49:495 GMT+02:00 2023,46.08979896,11.115510196666667,-1.114058,-148.987122,-2.837763,1
SMAR,2023-04-04 12:33:49:501 GMT+02:00 2023,46.0898384,11.1156257,307.52,15.72,83.21,null
SMAR,2023-04-04 12:33:49:538 GMT+02:00 2023,46.0898384,11.1156257,307.81,15.35,83.23,null
SMAR,2023-04-04 12:33:49:566 GMT+02:00 2023,46.0898384,11.1156257,308.05,15.03,83.25,null
SMAR,2023-04-04 12:33:49:599 GMT+02:00 2023,46.0898384,11.1156257,308.27,14.71,83.27,null
SMAR,2023-04-04 12:33:49:641 GMT+02:00 2023,46.0898397,11.1156374,308.51,14.34,83.29,null
SMAR,2023-04-04 12:33:49:669 GMT+02:00 2023,46.0898397,11.1156374,308.66,14.09,83.32,null
SMAR,2023-04-04 12:33:49:705 GMT+02:00 2023,46.0898397,11.1156374,308.78,13.91,83.35,null
SMAR,2023-04-04 12:33:49:737 GMT+02:00 2023,46.0898397,11.1156374,309.04,13.63,83.38,null
STON,2023-04-04 12:33:49:746 GMT+02:00 2023,46.08979896,11.115510196666667,-1.319146,-148.361343,-2.737036,1
STON,2023-04-04 12:33:49:748 GMT+02:00 2023,46.089798835,11.115509953333333,-1.319146,-148.361343,-2.737036,1
STON,2023-04-04 12:33:49:752 GMT+02:00 2023,46.089798835,11.115509953333333,-1.319146,-148.361343,-2.737036,1
SMAR,2023-04-04 12:33:49:775 GMT+02:00 2023,46.0898397,11.1156374,309.2,13.4,83.41,null
SMAR,2023-04-04 12:33:49:802 GMT+02:00 2023,46.0898397,11.1156374,309.21,13.29,83.44,null
SMAR,2023-04-04 12:33:49:834 GMT+02:00 2023,46.0898397,11.1156374,309.21,13.17,83.46,null
SMAR,2023-04-04 12:33:49:870 GMT+02:00 2023,46.0898397,11.1156374,309.21,13.05,83.47,null
SMAR,2023-04-04 12:33:49:898 GMT+02:00 2023,46.0898397,11.1156374,309.19,12.92,83.48,null
SMAR,2023-04-04 12:33:49:932 GMT+02:00 2023,46.0898397,11.1156374,309.16,12.8,83.48,null
SMAR,2023-04-04 12:33:49:966 GMT+02:00 2023,46.0898397,11.1156374,309.23,12.59,83.49,null
STON,2023-04-04 12:33:49:996 GMT+02:00 2023,46.089798835,11.115509953333333,-1.429509,-147.780655,-2.517549,1
SMAR,2023-04-04 12:33:50:005 GMT+02:00 2023,46.0898397,11.1156374,309.42,12.25,83.52,null
SMAR,2023-04-04 12:33:50:036 GMT+02:00 2023,46.0898397,11.1156374,309.68,11.86,83.53,null
SMAR,2023-04-04 12:33:50:070 GMT+02:00 2023,46.0898397,11.1156374,310.0,11.44,83.54,null
SMAR,2023-04-04 12:33:50:100 GMT+02:00 2023,46.0898397,11.1156374,310.26,11.09,83.54,null
STON,2023-04-04 12:33:50:127 GMT+02:00 2023,46.089798835,11.115509953333333,-1.447425,-146.854996,-2.347742,1
SMAR,2023-04-04 12:33:50:135 GMT+02:00 2023,46.0898397,11.1156374,310.49,10.79,83.55,null
SMAR,2023-04-04 12:33:50:174 GMT+02:00 2023,46.0898397,11.1156374,310.69,10.56,83.56,null
SMAR,2023-04-04 12:33:50:207 GMT+02:00 2023,46.0898397,11.1156374,310.74,10.48,83.56,null
SMAR,2023-04-04 12:33:50:255 GMT+02:00 2023,46.0898397,11.1156374,310.71,10.46,83.58,null
SMAR,2023-04-04 12:33:50:271 GMT+02:00 2023,46.0898397,11.1156374,310.74,10.37,83.59,null
STON,2023-04-04 12:33:50:285 GMT+02:00 2023,46.089798835,11.115509953333333,-1.613229,-146.384079,-2.332529,1
SMAR,2023-04-04 12:33:50:305 GMT+02:00 2023,46.0898397,11.1156374,310.75,10.32,83.61,null
SMAR,2023-04-04 12:33:50:334 GMT+02:00 2023,46.0898397,11.1156374,310.75,10.31,83.62,null
SMAR,2023-04-04 12:33:50:366 GMT+02:00 2023,46.0898397,11.1156374,310.68,10.37,83.63,null
SMAR,2023-04-04 12:33:50:403 GMT+02:00 2023,46.0898397,11.1156374,310.57,10.45,83.64,null
SMAR,2023-04-04 12:33:50:435 GMT+02:00 2023,46.0898397,11.1156374,310.54,10.46,83.65,null
SMAR,2023-04-04 12:33:50:480 GMT+02:00 2023,46.0898397,11.1156374,310.45,10.51,83.65,null
STON,2023-04-04 12:33:50:492 GMT+02:00 2023,46.089798835,11.115509953333333,-1.612244,-146.259903,-2.289876,1
SMAR,2023-04-04 12:33:50:509 GMT+02:00 2023,46.0898397,11.1156374,310.29,10.61,83.65,null
SMAR,2023-04-04 12:33:50:540 GMT+02:00 2023,46.0898397,11.1156374,310.29,10.54,83.65,null
SMAR,2023-04-04 12:33:50:573 GMT+02:00 2023,46.0898397,11.1156374,310.31,10.48,83.65,null
SMAR,2023-04-04 12:33:50:604 GMT+02:00 2023,46.0898397,11.1156374,310.26,10.46,83.64,null
SMAR,2023-04-04 12:33:50:648 GMT+02:00 2023,46.0898409,11.1156463,310.17,10.51,83.63,null
SMAR,2023-04-04 12:33:50:678 GMT+02:00 2023,46.0898409,11.1156463,310.03,10.56,83.61,null
SMAR,2023-04-04 12:33:50:711 GMT+02:00 2023,46.0898409,11.1156463,309.96,10.49,83.59,null
STON,2023-04-04 12:33:50:718 GMT+02:00 2023,46.089798835,11.115509953333333,-1.569902,-145.892456,-2.21418,1
STON,2023-04-04 12:33:50:723 GMT+02:00 2023,46.089798825,11.1155098,-1.569902,-145.892456,-2.21418,1
SMAR,2023-04-04 12:33:50:747 GMT+02:00 2023,46.0898409,11.1156463,309.91,10.35,83.56,null
STON,2023-04-04 12:33:50:758 GMT+02:00 2023,46.089798825,11.1155098,-1.569902,-145.892456,-2.21418,1
SMAR,2023-04-04 12:33:50:791 GMT+02:00 2023,46.0898409,11.1156463,309.79,10.32,83.52,null
SMAR,2023-04-04 12:33:50:817 GMT+02:00 2023,46.0898409,11.1156463,309.59,10.39,83.49,null
SMAR,2023-04-04 12:33:50:854 GMT+02:00 2023,46.0898409,11.1156463,309.36,10.56,83.45,null
SMAR,2023-04-04 12:33:50:884 GMT+02:00 2023,46.0898409,11.1156463,308.98,10.9,83.39,null
SMAR,2023-04-04 12:33:50:930 GMT+02:00 2023,46.0898409,11.1156463,308.3,11.55,83.33,null
SMAR,2023-04-04 12:33:50:955 GMT+02:00 2023,46.0898409,11.1156463,307.53,12.31,83.26,null
STON,2023-04-04 12:33:50:961 GMT+02:00 2023,46.089798825,11.1155098,-1.547111,-145.151245,-2.334183,1
SMAR,2023-04-04 12:33:50:980 GMT+02:00 2023,46.0898409,11.1156463,306.75,13.1,83.17,null
SMAR,2023-04-04 12:33:51:010 GMT+02:00 2023,46.0898409,11.1156463,305.87,13.94,83.06,null
SMAR,2023-04-04 12:33:51:048 GMT+02:00 2023,46.0898409,11.1156463,304.8,14.95,82.93,null
SMAR,2023-04-04 12:33:51:084 GMT+02:00 2023,46.0898409,11.1156463,303.64,16.02,82.78,null
SMAR,2023-04-04 12:33:51:110 GMT+02:00 2023,46.0898409,11.1156463,302.49,16.9,82.6,null
STON,2023-04-04 12:33:51:116 GMT+02:00 2023,46.089798825,11.1155098,-1.32008,-145.028076,-2.675016,1
SMAR,2023-04-04 12:33:51:158 GMT+02:00 2023,46.0898409,11.1156463,301.39,17.56,82.45,null
SMAR,2023-04-04 12:33:51:180 GMT+02:00 2023,46.0898409,11.1156463,300.59,17.93,82.32,null
SMAR,2023-04-04 12:33:51:212 GMT+02:00 2023,46.0898409,11.1156463,300.26,17.84,82.17,null
SMAR,2023-04-04 12:33:51:236 GMT+02:00 2023,46.0898409,11.1156463,299.93,17.87,82.03,null
SMAR,2023-04-04 12:33:51:268 GMT+02:00 2023,46.0898409,11.1156463,299.5,18.15,81.9,null
SMAR,2023-04-04 12:33:51:299 GMT+02:00 2023,46.0898409,11.1156463,299.24,18.48,81.75,null
SMAR,2023-04-04 12:33:51:335 GMT+02:00 2023,46.0898409,11.1156463,299.18,18.7,81.63,null
SMAR,2023-04-04 12:33:51:368 GMT+02:00 2023,46.0898409,11.1156463,299.15,18.76,81.51,null
SMAR,2023-04-04 12:33:51:400 GMT+02:00 2023,46.0898409,11.1156463,298.91,18.76,81.41,null
SMAR,2023-04-04 12:33:51:433 GMT+02:00 2023,46.0898409,11.1156463,298.74,18.48,81.3,null
SMAR,2023-04-04 12:33:51:468 GMT+02:00 2023,46.0898409,11.1156463,298.61,17.88,81.22,null
SMAR,2023-04-04 12:33:51:501 GMT+02:00 2023,46.0898409,11.1156463,298.49,17.03,81.15,null
SMAR,2023-04-04 12:33:51:538 GMT+02:00 2023,46.0898409,11.1156463,298.46,16.02,81.1,null
SMAR,2023-04-04 12:33:51:577 GMT+02:00 2023,46.0898409,11.1156463,298.52,14.98,81.09,null
SMAR,2023-04-04 12:33:51:606 GMT+02:00 2023,46.0898466,11.1156532,298.55,14.03,81.11,null
SMAR,2023-04-04 12:33:51:644 GMT+02:00 2023,46.0898466,11.1156532,298.66,13.05,81.14,null
SMAR,2023-04-04 12:33:51:672 GMT+02:00 2023,46.0898466,11.1156532,298.86,11.94,81.21,null
STON,2023-04-04 12:33:51:691 GMT+02:00 2023,46.089798825,11.1155098,-0.191508,-143.137344,-4.491309,1
SMAR,2023-04-04 12:33:51:704 GMT+02:00 2023,46.0898466,11.1156532,299.17,10.7,81.31,null
STON,2023-04-04 12:33:51:715 GMT+02:00 2023,46.089798825,11.1155098,-0.016536,-137.926666,-4.907824,1
SMAR,2023-04-04 12:33:51:736 GMT+02:00 2023,46.0898466,11.1156532,299.53,9.32,81.43,null
SMAR,2023-04-04 12:33:51:771 GMT+02:00 2023,46.0898466,11.1156532,299.87,7.88,81.58,null
STON,2023-04-04 12:33:51:776 GMT+02:00 2023,46.08979875166666,11.115510811666667,-0.016536,-137.926666,-4.907824,1
STON,2023-04-04 12:33:51:786 GMT+02:00 2023,46.08979875166666,11.115510811666667,-0.016536,-137.926666,-4.907824,1
SMAR,2023-04-04 12:33:51:801 GMT+02:00 2023,46.0898466,11.1156532,300.45,6.28,81.78,null
SMAR,2023-04-04 12:33:51:837 GMT+02:00 2023,46.0898466,11.1156532,301.16,4.59,81.96,null
SMAR,2023-04-04 12:33:51:867 GMT+02:00 2023,46.0898466,11.1156532,301.88,2.87,82.14,null
SMAR,2023-04-04 12:33:51:901 GMT+02:00 2023,46.0898466,11.1156532,302.34,1.4,82.31,null
STON,2023-04-04 12:33:51:927 GMT+02:00 2023,46.08979875166666,11.115510811666667,-0.221915,-131.8862,-4.43341,1
SMAR,2023-04-04 12:33:51:934 GMT+02:00 2023,46.0898466,11.1156532,302.94,359.73,82.44,null
SMAR,2023-04-04 12:33:51:967 GMT+02:00 2023,46.0898466,11.1156532,303.63,357.94,82.55,null
SMAR,2023-04-04 12:33:52:002 GMT+02:00 2023,46.0898466,11.1156532,304.16,356.26,82.63,null
SMAR,2023-04-04 12:33:52:035 GMT+02:00 2023,46.0898466,11.1156532,304.93,354.3,82.7,null
STON,2023-04-04 12:33:52:066 GMT+02:00 2023,46.08979875166666,11.115510811666667,-0.828524,-125.388115,-3.499233,1
SMAR,2023-04-04 12:33:52:068 GMT+02:00 2023,46.0898466,11.1156532,305.74,352.39,82.77,null
SMAR,2023-04-04 12:33:52:101 GMT+02:00 2023,46.0898466,11.1156532,306.37,350.85,82.81,null
SMAR,2023-04-04 12:33:52:135 GMT+02:00 2023,46.0898466,11.1156532,307.18,349.28,82.84,null
SMAR,2023-04-04 12:33:52:170 GMT+02:00 2023,46.0898466,11.1156532,307.81,348.0,82.85,null
SMAR,2023-04-04 12:33:52:204 GMT+02:00 2023,46.0898466,11.1156532,308.29,346.91,82.81,null
SMAR,2023-04-04 12:33:52:238 GMT+02:00 2023,46.0898466,11.1156532,308.68,345.91,82.78,null
SMAR,2023-04-04 12:33:52:276 GMT+02:00 2023,46.0898466,11.1156532,308.78,345.2,82.73,null
SMAR,2023-04-04 12:33:52:304 GMT+02:00 2023,46.0898466,11.1156532,308.61,344.82,82.66,null
STON,2023-04-04 12:33:52:323 GMT+02:00 2023,46.08979875166666,11.115510811666667,-1.501914,-120.0597,-3.03202,1
SMAR,2023-04-04 12:33:52:349 GMT+02:00 2023,46.0898466,11.1156532,308.25,344.56,82.59,null
SMAR,2023-04-04 12:33:52:378 GMT+02:00 2023,46.0898466,11.1156532,307.66,344.49,82.5,null
SMAR,2023-04-04 12:33:52:407 GMT+02:00 2023,46.0898466,11.1156532,307.09,344.41,82.41,null
SMAR,2023-04-04 12:33:52:441 GMT+02:00 2023,46.0898466,11.1156532,306.16,344.7,82.31,null
SMAR,2023-04-04 12:33:52:475 GMT+02:00 2023,46.0898466,11.1156532,305.05,345.27,82.19,null
STON,2023-04-04 12:33:52:488 GMT+02:00 2023,46.08979875166666,11.115510811666667,-1.620379,-116.549469,-3.387119,1
SMAR,2023-04-04 12:33:52:513 GMT+02:00 2023,46.0898466,11.1156532,303.92,345.98,82.09,null
