Input,Time,Latitude,Longitude,Pitch,Yaw,Roll,Status
SMAR,2023-04-04 12:36:13:791 GMT+02:00 2023,46.0898439,11.115696,0.0,0.0,0.0,null
STON,2023-04-04 12:36:13:829 GMT+02:00 2023,46.08980138,11.115510648333334,3.274447,116.28373,-0.984687,1
STON,2023-04-04 12:36:14:060 GMT+02:00 2023,46.08980138,11.115510648333334,3.293248,116.486992,-1.08327,1
STON,2023-04-04 12:36:14:137 GMT+02:00 2023,46.08980138,11.115510648333334,3.326472,116.450485,-1.008017,1
SMAR,2023-04-04 12:36:14:538 GMT+02:00 2023,46.0898439,11.115696,0.0,0.0,0.0,null
STON,2023-04-04 12:36:14:546 GMT+02:00 2023,46.08980138,11.115510648333334,3.233201,116.017746,-0.87922,1
SMAR,2023-04-04 12:36:14:576 GMT+02:00 2023,46.0898439,11.115696,0.0,0.0,0.0,null
SMAR,2023-04-04 12:36:14:606 GMT+02:00 2023,46.0898439,11.115696,0.0,0.0,0.0,null
SMAR,2023-04-04 12:36:14:640 GMT+02:00 2023,46.0898439,11.115696,0.0,0.0,0.0,null
SMAR,2023-04-04 12:36:14:672 GMT+02:00 2023,46.0898439,11.115696,0.0,0.0,0.0,null
SMAR,2023-04-04 12:36:14:706 GMT+02:00 2023,46.0898439,11.115696,0.0,0.0,0.0,null
STON,2023-04-04 12:36:14:712 GMT+02:00 2023,46.08980138,11.115510648333334,3.156914,116.177574,-0.835303,1
SMAR,2023-04-04 12:36:14:740 GMT+02:00 2023,46.0898439,11.115696,0.0,0.0,0.0,null
SMAR,2023-04-04 12:36:14:770 GMT+02:00 2023,46.0898439,11.115696,0.0,0.0,0.0,null
SMAR,2023-04-04 12:36:14:802 GMT+02:00 2023,46.0898439,11.115696,0.0,0.0,0.0,null
SMAR,2023-04-04 12:36:14:836 GMT+02:00 2023,46.0898439,11.115696,0.0,0.0,0.0,null
STON,2023-04-04 12:36:14:846 GMT+02:00 2023,46.08980139166667,11.115510646666667,3.156914,116.177574,-0.835303,1
STON,2023-04-04 12:36:14:854 GMT+02:00 2023,46.08980139166667,11.115510646666667,3.156914,116.177574,-0.835303,1
SMAR,2023-04-04 12:36:14:870 GMT+02:00 2023,46.0898439,11.115696,0.0,0.0,0.0,null
SMAR,2023-04-04 12:36:14:902 GMT+02:00 2023,46.0898439,11.115696,0.0,0.0,0.0,null
STON,2023-04-04 12:36:14:907 GMT+02:00 2023,46.08980139166667,11.115510646666667,3.044761,116.345039,-0.787838,1
SMAR,2023-04-04 12:36:14:943 GMT+02:00 2023,46.0898439,11.115696,0.0,0.0,0.0,null
SMAR,2023-04-04 12:36:14:974 GMT+02:00 2023,46.0898439,11.115696,272.03,89.44,77.26,null
SMAR,2023-04-04 12:36:15:006 GMT+02:00 2023,46.0898439,11.115696,272.86,88.86,77.59,null
SMAR,2023-04-04 12:36:15:041 GMT+02:00 2023,46.0898439,11.115696,272.67,88.98,77.7,null
SMAR,2023-04-04 12:36:15:076 GMT+02:00 2023,46.0898439,11.115696,272.83,88.81,77.7,null
SMAR,2023-04-04 12:36:15:110 GMT+02:00 2023,46.0898439,11.115696,273.11,88.49,77.7,null
STON,2023-04-04 12:36:15:118 GMT+02:00 2023,46.08980139166667,11.115510646666667,2.930929,116.534348,-0.740774,1
SMAR,2023-04-04 12:36:15:154 GMT+02:00 2023,46.0898439,11.115696,272.77,88.68,77.99,null
SMAR,2023-04-04 12:36:15:189 GMT+02:00 2023,46.0898439,11.115696,272.65,88.74,77.99,null
SMAR,2023-04-04 12:36:15:223 GMT+02:00 2023,46.0898439,11.115696,272.52,88.85,78.03,null
SMAR,2023-04-04 12:36:15:250 GMT+02:00 2023,46.0898439,11.115696,272.44,88.92,77.91,null
SMAR,2023-04-04 12:36:15:285 GMT+02:00 2023,46.0898439,11.115696,272.43,88.91,77.97,null
SMAR,2023-04-04 12:36:15:317 GMT+02:00 2023,46.0898439,11.115696,272.24,89.04,78.01,null
SMAR,2023-04-04 12:36:15:353 GMT+02:00 2023,46.0898439,11.115696,271.68,89.47,77.83,null
STON,2023-04-04 12:36:15:363 GMT+02:00 2023,46.08980139166667,11.115510646666667,2.813171,116.452118,-0.699862,1
SMAR,2023-04-04 12:36:15:387 GMT+02:00 2023,46.0898439,11.115696,271.23,89.73,77.77,null
SMAR,2023-04-04 12:36:15:420 GMT+02:00 2023,46.0898439,11.115696,271.09,89.66,77.68,null
SMAR,2023-04-04 12:36:15:458 GMT+02:00 2023,46.0898439,11.115696,268.98,91.42,77.89,null
SMAR,2023-04-04 12:36:15:495 GMT+02:00 2023,46.0898439,11.115696,264.17,95.79,77.92,null
SMAR,2023-04-04 12:36:15:525 GMT+02:00 2023,46.0898439,11.115696,260.84,98.8,77.62,null
STON,2023-04-04 12:36:15:535 GMT+02:00 2023,46.08980139166667,11.115510646666667,2.755401,116.352638,-0.689354,1
SMAR,2023-04-04 12:36:15:559 GMT+02:00 2023,46.0898439,11.115696,260.22,99.21,77.28,null
SMAR,2023-04-04 12:36:15:592 GMT+02:00 2023,46.0898439,11.115696,260.1,98.92,76.62,null
SMAR,2023-04-04 12:36:15:629 GMT+02:00 2023,46.0898439,11.115696,260.34,98.46,76.23,null
SMAR,2023-04-04 12:36:15:660 GMT+02:00 2023,46.0898439,11.115696,260.87,97.69,76.44,null
SMAR,2023-04-04 12:36:15:695 GMT+02:00 2023,46.0898439,11.115696,262.31,96.01,77.3,null
SMAR,2023-04-04 12:36:15:726 GMT+02:00 2023,46.0898439,11.115696,263.1,94.61,78.51,null
SMAR,2023-04-04 12:36:15:759 GMT+02:00 2023,46.0898439,11.115696,262.25,94.93,79.16,null
STON,2023-04-04 12:36:15:767 GMT+02:00 2023,46.08980139166667,11.115510646666667,2.653425,115.233437,-0.676095,1
STON,2023-04-04 12:36:15:770 GMT+02:00 2023,46.089801308333335,11.11551074,2.653425,115.233437,-0.676095,1
STON,2023-04-04 12:36:15:773 GMT+02:00 2023,46.089801308333335,11.11551074,2.653425,115.233437,-0.676095,1
SMAR,2023-04-04 12:36:15:804 GMT+02:00 2023,46.0898439,11.115696,262.33,94.6,79.6,null
SMAR,2023-04-04 12:36:15:823 GMT+02:00 2023,46.0898439,11.115696,262.08,94.88,80.25,null
SMAR,2023-04-04 12:36:15:854 GMT+02:00 2023,46.0898439,11.115696,260.57,96.88,80.25,null
SMAR,2023-04-04 12:36:15:886 GMT+02:00 2023,46.0898439,11.115696,258.58,99.58,80.18,null
SMAR,2023-04-04 12:36:15:918 GMT+02:00 2023,46.0898439,11.115696,256.84,101.69,80.26,null
SMAR,2023-04-04 12:36:15:952 GMT+02:00 2023,46.0898439,11.115696,255.13,103.66,79.71,null
SMAR,2023-04-04 12:36:15:984 GMT+02:00 2023,46.0898439,11.115696,253.4,105.66,79.5,null
SMAR,2023-04-04 12:36:16:021 GMT+02:00 2023,46.0898439,11.115696,251.89,107.1,79.67,null
STON,2023-04-04 12:36:16:026 GMT+02:00 2023,46.089801308333335,11.11551074,2.628482,115.512024,-0.656804,1
SMAR,2023-04-04 12:36:16:049 GMT+02:00 2023,46.0898439,11.115696,251.24,107.64,79.52,null
SMAR,2023-04-04 12:36:16:080 GMT+02:00 2023,46.0898439,11.115696,251.41,107.73,79.2,null
SMAR,2023-04-04 12:36:16:114 GMT+02:00 2023,46.0898439,11.115696,252.42,106.99,79.06,null
STON,2023-04-04 12:36:16:123 GMT+02:00 2023,46.089801308333335,11.11551074,2.696196,114.759361,-0.693673,1
SMAR,2023-04-04 12:36:16:145 GMT+02:00 2023,46.0898439,11.115696,254.23,105.15,79.11,null
SMAR,2023-04-04 12:36:16:181 GMT+02:00 2023,46.0898329,11.1157437,255.15,103.98,78.87,null
SMAR,2023-04-04 12:36:16:214 GMT+02:00 2023,46.0898329,11.1157437,255.46,103.79,78.51,null
SMAR,2023-04-04 12:36:16:256 GMT+02:00 2023,46.0898329,11.1157437,256.78,102.54,78.17,null
SMAR,2023-04-04 12:36:16:291 GMT+02:00 2023,46.0898329,11.1157437,257.93,101.14,77.75,null
SMAR,2023-04-04 12:36:16:317 GMT+02:00 2023,46.0898329,11.1157437,260.38,99.39,77.55,null
STON,2023-04-04 12:36:16:323 GMT+02:00 2023,46.089801308333335,11.11551074,2.895765,115.316071,-0.647264,1
SMAR,2023-04-04 12:36:16:356 GMT+02:00 2023,46.0898329,11.1157437,262.99,97.11,77.7,null
SMAR,2023-04-04 12:36:16:388 GMT+02:00 2023,46.0898329,11.1157437,263.42,96.22,78.51,null
SMAR,2023-04-04 12:36:16:423 GMT+02:00 2023,46.0898329,11.1157437,262.33,97.57,77.99,null
SMAR,2023-04-04 12:36:16:449 GMT+02:00 2023,46.0898329,11.1157437,261.09,100.0,77.86,null
SMAR,2023-04-04 12:36:16:489 GMT+02:00 2023,46.0898329,11.1157437,260.7,100.94,77.83,null
SMAR,2023-04-04 12:36:16:520 GMT+02:00 2023,46.0898329,11.1157437,260.54,100.68,78.0,null
SMAR,2023-04-04 12:36:16:552 GMT+02:00 2023,46.0898329,11.1157437,262.1,99.7,78.49,null
STON,2023-04-04 12:36:16:558 GMT+02:00 2023,46.089801308333335,11.11551074,3.09472,114.156807,-0.620128,1
SMAR,2023-04-04 12:36:16:581 GMT+02:00 2023,46.0898329,11.1157437,264.01,98.52,79.0,null
SMAR,2023-04-04 12:36:16:614 GMT+02:00 2023,46.0898329,11.1157437,265.91,97.27,79.3,null
SMAR,2023-04-04 12:36:16:653 GMT+02:00 2023,46.0898318,11.1157423,265.44,97.9,78.77,null
SMAR,2023-04-04 12:36:16:683 GMT+02:00 2023,46.0898318,11.1157423,263.78,98.36,78.7,null
SMAR,2023-04-04 12:36:16:720 GMT+02:00 2023,46.0898318,11.1157423,262.69,98.36,79.05,null
STON,2023-04-04 12:36:16:727 GMT+02:00 2023,46.089801308333335,11.11551074,3.085776,115.177086,-0.666448,1
SMAR,2023-04-04 12:36:16:746 GMT+02:00 2023,46.0898318,11.1157423,263.35,97.7,79.41,null
STON,2023-04-04 12:36:16:757 GMT+02:00 2023,46.08980145333334,11.115510611666666,3.085776,115.177086,-0.666448,1
STON,2023-04-04 12:36:16:760 GMT+02:00 2023,46.08980145333334,11.115510611666666,3.085776,115.177086,-0.666448,1
SMAR,2023-04-04 12:36:16:787 GMT+02:00 2023,46.0898318,11.1157423,265.29,96.36,79.74,null
SMAR,2023-04-04 12:36:16:826 GMT+02:00 2023,46.0898318,11.1157423,267.7,94.89,79.79,null
SMAR,2023-04-04 12:36:16:853 GMT+02:00 2023,46.0898318,11.1157423,270.16,92.91,79.92,null
SMAR,2023-04-04 12:36:16:885 GMT+02:00 2023,46.0898318,11.1157423,272.5,91.03,79.87,null
SMAR,2023-04-04 12:36:16:916 GMT+02:00 2023,46.0898318,11.1157423,273.2,90.02,80.01,null
SMAR,2023-04-04 12:36:16:949 GMT+02:00 2023,46.0898318,11.1157423,274.08,87.96,80.26,null
SMAR,2023-04-04 12:36:16:989 GMT+02:00 2023,46.0898318,11.1157423,274.77,86.39,80.36,null
SMAR,2023-04-04 12:36:17:020 GMT+02:00 2023,46.0898318,11.1157423,275.37,85.23,80.74,null
SMAR,2023-04-04 12:36:17:053 GMT+02:00 2023,46.0898318,11.1157423,275.05,84.98,80.95,null
SMAR,2023-04-04 12:36:17:088 GMT+02:00 2023,46.0898318,11.1157423,274.1,85.28,81.21,null
SMAR,2023-04-04 12:36:17:120 GMT+02:00 2023,46.0898318,11.1157423,270.95,87.61,81.05,null
SMAR,2023-04-04 12:36:17:147 GMT+02:00 2023,46.0898311,11.1157409,268.55,89.57,81.03,null
SMAR,2023-04-04 12:36:17:183 GMT+02:00 2023,46.0898311,11.1157409,267.76,90.39,81.42,null
SMAR,2023-04-04 12:36:17:217 GMT+02:00 2023,46.0898311,11.1157409,267.33,90.72,81.74,null
STON,2023-04-04 12:36:17:228 GMT+02:00 2023,46.08980145333334,11.115510611666666,2.999993,115.872192,-0.820786,1
SMAR,2023-04-04 12:36:17:253 GMT+02:00 2023,46.0898311,11.1157409,268.61,89.22,81.76,null
STON,2023-04-04 12:36:17:264 GMT+02:00 2023,46.08980145333334,11.115510611666666,2.943631,115.677635,-0.835618,1
SMAR,2023-04-04 12:36:17:281 GMT+02:00 2023,46.0898311,11.1157409,272.16,85.77,82.3,null
STON,2023-04-04 12:36:17:291 GMT+02:00 2023,46.08980145333334,11.115510611666666,2.630592,115.898132,-0.9592,1
SMAR,2023-04-04 12:36:17:326 GMT+02:00 2023,46.0898311,11.1157409,275.03,82.99,82.54,null
SMAR,2023-04-04 12:36:17:358 GMT+02:00 2023,46.0898311,11.1157409,277.04,81.0,82.65,null
SMAR,2023-04-04 12:36:17:384 GMT+02:00 2023,46.0898311,11.1157409,278.47,79.3,82.66,null
SMAR,2023-04-04 12:36:17:420 GMT+02:00 2023,46.0898311,11.1157409,278.72,78.6,82.5,null
SMAR,2023-04-04 12:36:17:454 GMT+02:00 2023,46.0898311,11.1157409,276.42,80.5,82.27,null
SMAR,2023-04-04 12:36:17:482 GMT+02:00 2023,46.0898311,11.1157409,274.52,82.36,82.28,null
STON,2023-04-04 12:36:17:488 GMT+02:00 2023,46.08980145333334,11.115510611666666,2.553605,114.64444,-0.990982,1
SMAR,2023-04-04 12:36:17:517 GMT+02:00 2023,46.0898311,11.1157409,272.57,84.49,82.41,null
SMAR,2023-04-04 12:36:17:552 GMT+02:00 2023,46.0898311,11.1157409,270.46,86.63,82.5,null
SMAR,2023-04-04 12:36:17:585 GMT+02:00 2023,46.0898311,11.1157409,268.31,88.79,82.68,null
SMAR,2023-04-04 12:36:17:616 GMT+02:00 2023,46.0898311,11.1157409,265.99,90.9,82.89,null
SMAR,2023-04-04 12:36:17:650 GMT+02:00 2023,46.0898301,11.11574,263.78,92.4,83.18,null
SMAR,2023-04-04 12:36:17:689 GMT+02:00 2023,46.0898301,11.11574,262.35,93.42,83.5,null
SMAR,2023-04-04 12:36:17:727 GMT+02:00 2023,46.0898301,11.11574,261.85,93.71,83.66,null
STON,2023-04-04 12:36:17:732 GMT+02:00 2023,46.08980145333334,11.115510611666666,2.758289,113.420815,-0.931683,1
SMAR,2023-04-04 12:36:17:759 GMT+02:00 2023,46.0898301,11.11574,261.89,93.39,83.89,null
SMAR,2023-04-04 12:36:17:793 GMT+02:00 2023,46.0898301,11.11574,262.92,92.25,84.02,null
SMAR,2023-04-04 12:36:17:823 GMT+02:00 2023,46.0898301,11.11574,262.91,92.67,83.89,null
STON,2023-04-04 12:36:17:831 GMT+02:00 2023,46.08980147,11.115510728333334,2.758289,113.420815,-0.931683,1
SMAR,2023-04-04 12:36:17:853 GMT+02:00 2023,46.0898301,11.11574,263.14,92.91,83.99,null
STON,2023-04-04 12:36:17:863 GMT+02:00 2023,46.08980147,11.115510728333334,2.758289,113.420815,-0.931683,1
SMAR,2023-04-04 12:36:17:888 GMT+02:00 2023,46.0898301,11.11574,262.66,93.7,84.06,null
STON,2023-04-04 12:36:17:900 GMT+02:00 2023,46.08980147,11.115510728333334,2.922845,112.976692,-0.791387,1
SMAR,2023-04-04 12:36:17:926 GMT+02:00 2023,46.0898301,11.11574,260.86,95.58,84.36,null
SMAR,2023-04-04 12:36:17:958 GMT+02:00 2023,46.0898301,11.11574,258.57,97.88,85.04,null
SMAR,2023-04-04 12:36:17:992 GMT+02:00 2023,46.0898301,11.11574,256.78,99.61,85.56,null
SMAR,2023-04-04 12:36:18:032 GMT+02:00 2023,46.0898301,11.11574,255.24,101.11,86.0,null
SMAR,2023-04-04 12:36:18:068 GMT+02:00 2023,46.0898301,11.11574,0.0,353.02,90.0,null
SMAR,2023-04-04 12:36:18:094 GMT+02:00 2023,46.0898301,11.11574,0.0,353.2,90.0,null
STON,2023-04-04 12:36:18:104 GMT+02:00 2023,46.08980147,11.115510728333334,3.011288,112.678917,-0.71872,1
SMAR,2023-04-04 12:36:18:126 GMT+02:00 2023,46.0898301,11.11574,253.12,103.77,86.09,null
SMAR,2023-04-04 12:36:18:161 GMT+02:00 2023,46.0898265,11.1157382,251.14,105.91,86.35,null
SMAR,2023-04-04 12:36:18:193 GMT+02:00 2023,46.0898265,11.1157382,0.0,354.58,90.0,null
SMAR,2023-04-04 12:36:18:227 GMT+02:00 2023,46.0898265,11.1157382,0.0,355.11,90.0,null
SMAR,2023-04-04 12:36:18:258 GMT+02:00 2023,46.0898265,11.1157382,0.0,355.03,90.0,null
SMAR,2023-04-04 12:36:18:297 GMT+02:00 2023,46.0898265,11.1157382,0.0,355.29,90.0,null
SMAR,2023-04-04 12:36:18:333 GMT+02:00 2023,46.0898265,11.1157382,0.0,356.03,90.0,null
STON,2023-04-04 12:36:18:340 GMT+02:00 2023,46.08980147,11.115510728333334,3.149248,111.820786,-0.751949,1
SMAR,2023-04-04 12:36:18:364 GMT+02:00 2023,46.0898265,11.1157382,0.0,356.54,90.0,null
SMAR,2023-04-04 12:36:18:390 GMT+02:00 2023,46.0898265,11.1157382,0.0,356.58,90.0,null
SMAR,2023-04-04 12:36:18:428 GMT+02:00 2023,46.0898265,11.1157382,0.0,357.03,90.0,null
SMAR,2023-04-04 12:36:18:459 GMT+02:00 2023,46.0898265,11.1157382,0.0,357.47,90.0,null
SMAR,2023-04-04 12:36:18:501 GMT+02:00 2023,46.0898265,11.1157382,0.0,357.73,90.0,null
SMAR,2023-04-04 12:36:18:528 GMT+02:00 2023,46.0898265,11.1157382,255.9,105.35,85.92,null
STON,2023-04-04 12:36:18:533 GMT+02:00 2023,46.08980147,11.115510728333334,3.22066,111.731934,-0.780214,1
SMAR,2023-04-04 12:36:18:557 GMT+02:00 2023,46.0898265,11.1157382,257.86,103.79,84.92,null
SMAR,2023-04-04 12:36:18:588 GMT+02:00 2023,46.0898265,11.1157382,256.69,105.37,85.08,null
SMAR,2023-04-04 12:36:18:622 GMT+02:00 2023,46.0898265,11.1157382,254.63,107.79,85.34,null
SMAR,2023-04-04 12:36:18:651 GMT+02:00 2023,46.0898265,11.1157382,252.81,109.9,85.59,null
SMAR,2023-04-04 12:36:18:689 GMT+02:00 2023,46.0898265,11.1157382,251.8,111.03,85.6,null
STON,2023-04-04 12:36:18:698 GMT+02:00 2023,46.08980147,11.115510728333334,3.169362,111.611427,-0.87186,1
SMAR,2023-04-04 12:36:18:719 GMT+02:00 2023,46.0898265,11.1157382,251.41,111.44,85.62,null
STON,2023-04-04 12:36:18:730 GMT+02:00 2023,46.089801568333336,11.115510536666667,3.169362,111.611427,-0.87186,1
STON,2023-04-04 12:36:18:735 GMT+02:00 2023,46.089801568333336,11.115510536666667,3.169362,111.611427,-0.87186,1
SMAR,2023-04-04 12:36:18:752 GMT+02:00 2023,46.0898265,11.1157382,252.07,110.82,85.57,null
SMAR,2023-04-04 12:36:18:788 GMT+02:00 2023,46.0898265,11.1157382,251.9,111.11,85.6,null
SMAR,2023-04-04 12:36:18:829 GMT+02:00 2023,46.0898265,11.1157382,251.44,111.55,85.65,null
SMAR,2023-04-04 12:36:18:861 GMT+02:00 2023,46.0898265,11.1157382,250.84,111.88,85.65,null
SMAR,2023-04-04 12:36:18:895 GMT+02:00 2023,46.0898265,11.1157382,251.12,111.15,85.65,null
STON,2023-04-04 12:36:18:898 GMT+02:00 2023,46.089801568333336,11.115510536666667,3.00129,111.750763,-1.058982,1
SMAR,2023-04-04 12:36:18:921 GMT+02:00 2023,46.0898265,11.1157382,251.64,110.12,85.64,null
SMAR,2023-04-04 12:36:18:958 GMT+02:00 2023,46.0898265,11.1157382,252.09,109.24,85.61,null
SMAR,2023-04-04 12:36:18:993 GMT+02:00 2023,46.0898265,11.1157382,252.17,108.85,85.58,null
SMAR,2023-04-04 12:36:19:026 GMT+02:00 2023,46.0898265,11.1157382,252.48,108.45,85.56,null
SMAR,2023-04-04 12:36:19:059 GMT+02:00 2023,46.0898265,11.1157382,252.56,108.34,85.54,null
SMAR,2023-04-04 12:36:19:091 GMT+02:00 2023,46.0898265,11.1157382,252.86,108.01,85.54,null
STON,2023-04-04 12:36:19:100 GMT+02:00 2023,46.089801568333336,11.115510536666667,2.990697,113.864777,-1.172532,1
SMAR,2023-04-04 12:36:19:125 GMT+02:00 2023,46.0898265,11.1157382,253.39,107.44,85.54,null
SMAR,2023-04-04 12:36:19:161 GMT+02:00 2023,46.0898267,11.1157325,254.76,106.11,85.55,null
SMAR,2023-04-04 12:36:19:200 GMT+02:00 2023,46.0898267,11.1157325,256.76,104.37,85.57,null
SMAR,2023-04-04 12:36:19:231 GMT+02:00 2023,46.0898267,11.1157325,258.85,102.62,85.62,null
SMAR,2023-04-04 12:36:19:264 GMT+02:00 2023,46.0898267,11.1157325,261.79,99.98,85.66,null
SMAR,2023-04-04 12:36:19:293 GMT+02:00 2023,46.0898267,11.1157325,264.49,97.63,85.69,null
SMAR,2023-04-04 12:36:19:333 GMT+02:00 2023,46.0898267,11.1157325,266.91,95.44,85.7,null
SMAR,2023-04-04 12:36:19:366 GMT+02:00 2023,46.0898267,11.1157325,268.16,94.24,85.67,null
SMAR,2023-04-04 12:36:19:400 GMT+02:00 2023,46.0898267,11.1157325,268.26,94.08,85.68,null
SMAR,2023-04-04 12:36:19:431 GMT+02:00 2023,46.0898267,11.1157325,267.81,94.41,85.69,null
STON,2023-04-04 12:36:19:449 GMT+02:00 2023,46.089801568333336,11.115510536666667,2.963194,113.980026,-1.282695,1
SMAR,2023-04-04 12:36:19:466 GMT+02:00 2023,46.0898267,11.1157325,267.32,94.73,85.66,null
STON,2023-04-04 12:36:19:477 GMT+02:00 2023,46.089801568333336,11.115510536666667,2.868072,113.955254,-1.356902,1
SMAR,2023-04-04 12:36:19:490 GMT+02:00 2023,46.0898267,11.1157325,267.09,94.89,85.67,null
SMAR,2023-04-04 12:36:19:528 GMT+02:00 2023,46.0898267,11.1157325,267.28,94.65,85.68,null
SMAR,2023-04-04 12:36:19:563 GMT+02:00 2023,46.0898267,11.1157325,267.64,94.22,85.65,null
SMAR,2023-04-04 12:36:19:590 GMT+02:00 2023,46.0898267,11.1157325,267.17,94.59,85.65,null
SMAR,2023-04-04 12:36:19:635 GMT+02:00 2023,46.0898267,11.1157325,267.12,94.58,85.66,null
STON,2023-04-04 12:36:19:664 GMT+02:00 2023,46.089801568333336,11.115510536666667,2.777774,114.100006,-1.396273,1
SMAR,2023-04-04 12:36:19:668 GMT+02:00 2023,46.0898267,11.1157325,267.46,94.19,85.64,null
SMAR,2023-04-04 12:36:19:703 GMT+02:00 2023,46.0898267,11.1157325,267.8,93.78,85.64,null
STON,2023-04-04 12:36:19:714 GMT+02:00 2023,46.08980169666667,11.115510841666667,2.777774,114.100006,-1.396273,1
STON,2023-04-04 12:36:19:719 GMT+02:00 2023,46.08980169666667,11.115510841666667,2.777774,114.100006,-1.396273,1
SMAR,2023-04-04 12:36:19:724 GMT+02:00 2023,46.0898267,11.1157325,267.77,93.66,85.66,null
SMAR,2023-04-04 12:36:19:767 GMT+02:00 2023,46.0898267,11.1157325,267.46,93.7,85.63,null
SMAR,2023-04-04 12:36:19:803 GMT+02:00 2023,46.0898267,11.1157325,267.46,93.54,85.65,null
SMAR,2023-04-04 12:36:19:838 GMT+02:00 2023,46.0898267,11.1157325,267.64,93.29,85.66,null
SMAR,2023-04-04 12:36:19:871 GMT+02:00 2023,46.0898267,11.1157325,267.86,93.04,85.65,null
STON,2023-04-04 12:36:19:875 GMT+02:00 2023,46.08980169666667,11.115510841666667,2.665084,114.468689,-1.433349,1
SMAR,2023-04-04 12:36:19:901 GMT+02:00 2023,46.0898267,11.1157325,267.97,92.95,85.67,null
SMAR,2023-04-04 12:36:19:934 GMT+02:00 2023,46.0898267,11.1157325,267.72,93.24,85.68,null
SMAR,2023-04-04 12:36:19:968 GMT+02:00 2023,46.0898267,11.1157325,267.5,93.45,85.66,null
SMAR,2023-04-04 12:36:19:000 GMT+02:00 2023,46.0898267,11.1157325,267.83,93.14,85.68,null
SMAR,2023-04-04 12:36:20:032 GMT+02:00 2023,46.0898267,11.1157325,268.29,92.63,85.71,null
SMAR,2023-04-04 12:36:20:066 GMT+02:00 2023,46.0898267,11.1157325,268.27,92.53,85.69,null
STON,2023-04-04 12:36:20:070 GMT+02:00 2023,46.08980169666667,11.115510841666667,2.58551,114.399559,-1.477563,1
SMAR,2023-04-04 12:36:20:103 GMT+02:00 2023,46.0898301,11.1157231,268.51,92.21,85.71,null
SMAR,2023-04-04 12:36:20:134 GMT+02:00 2023,46.0898301,11.1157231,268.84,91.8,85.73,null
SMAR,2023-04-04 12:36:20:168 GMT+02:00 2023,46.0898301,11.1157231,269.11,91.46,85.73,null
SMAR,2023-04-04 12:36:20:197 GMT+02:00 2023,46.0898301,11.1157231,269.48,91.06,85.75,null
SMAR,2023-04-04 12:36:20:234 GMT+02:00 2023,46.0898301,11.1157231,269.78,90.73,85.77,null
STON,2023-04-04 12:36:20:265 GMT+02:00 2023,46.08980169666667,11.115510841666667,2.455618,114.868004,-1.450112,1
SMAR,2023-04-04 12:36:20:269 GMT+02:00 2023,46.0898301,11.1157231,270.34,90.21,85.77,null
SMAR,2023-04-04 12:36:20:299 GMT+02:00 2023,46.0898301,11.1157231,271.35,89.28,85.79,null
SMAR,2023-04-04 12:36:20:335 GMT+02:00 2023,46.0898301,11.1157231,271.98,88.66,85.81,null
SMAR,2023-04-04 12:36:20:369 GMT+02:00 2023,46.0898301,11.1157231,272.49,88.11,85.81,null
SMAR,2023-04-04 12:36:20:404 GMT+02:00 2023,46.0898301,11.1157231,273.03,87.58,85.82,null
SMAR,2023-04-04 12:36:20:435 GMT+02:00 2023,46.0898301,11.1157231,273.38,87.24,85.84,null
SMAR,2023-04-04 12:36:20:466 GMT+02:00 2023,46.0898301,11.1157231,273.71,86.88,85.84,null
STON,2023-04-04 12:36:20:473 GMT+02:00 2023,46.08980169666667,11.115510841666667,2.304213,115.004387,-1.403141,1
SMAR,2023-04-04 12:36:20:503 GMT+02:00 2023,46.0898301,11.1157231,273.95,86.58,85.85,null
SMAR,2023-04-04 12:36:20:534 GMT+02:00 2023,46.0898301,11.1157231,274.16,86.32,85.86,null
SMAR,2023-04-04 12:36:20:571 GMT+02:00 2023,46.0898301,11.1157231,274.17,86.27,85.87,null
SMAR,2023-04-04 12:36:20:604 GMT+02:00 2023,46.0898301,11.1157231,274.39,86.03,85.88,null
SMAR,2023-04-04 12:36:20:638 GMT+02:00 2023,46.0898301,11.1157231,274.65,85.76,85.89,null
SMAR,2023-04-04 12:36:20:668 GMT+02:00 2023,46.0898301,11.1157231,274.85,85.6,85.9,null
STON,2023-04-04 12:36:20:674 GMT+02:00 2023,46.08980169666667,11.115510841666667,2.196199,115.246185,-1.448343,1
SMAR,2023-04-04 12:36:20:703 GMT+02:00 2023,46.0898301,11.1157231,275.13,85.37,85.9,null
SMAR,2023-04-04 12:36:20:735 GMT+02:00 2023,46.0898301,11.1157231,275.31,85.21,85.91,null
STON,2023-04-04 12:36:20:743 GMT+02:00 2023,46.089801566666665,11.115511033333334,2.196199,115.246185,-1.448343,1
STON,2023-04-04 12:36:20:753 GMT+02:00 2023,46.089801566666665,11.115511033333334,2.196199,115.246185,-1.448343,1
SMAR,2023-04-04 12:36:20:773 GMT+02:00 2023,46.0898301,11.1157231,275.36,85.16,85.92,null
SMAR,2023-04-04 12:36:20:801 GMT+02:00 2023,46.0898301,11.1157231,275.35,85.13,85.93,null
SMAR,2023-04-04 12:36:20:835 GMT+02:00 2023,46.0898301,11.1157231,275.4,84.98,85.94,null
STON,2023-04-04 12:36:20:859 GMT+02:00 2023,46.089801566666665,11.115511033333334,2.065384,115.112907,-1.451499,1
SMAR,2023-04-04 12:36:20:866 GMT+02:00 2023,46.0898301,11.1157231,275.35,84.95,85.95,null
SMAR,2023-04-04 12:36:20:898 GMT+02:00 2023,46.0898301,11.1157231,275.26,85.01,85.96,null
SMAR,2023-04-04 12:36:20:929 GMT+02:00 2023,46.0898301,11.1157231,275.25,85.05,85.97,null
SMAR,2023-04-04 12:36:20:966 GMT+02:00 2023,46.0898301,11.1157231,275.31,85.07,86.0,null
SMAR,2023-04-04 12:36:20:997 GMT+02:00 2023,46.0898301,11.1157231,275.27,85.18,86.02,null
SMAR,2023-04-04 12:36:21:029 GMT+02:00 2023,46.0898301,11.1157231,275.25,85.26,86.04,null
SMAR,2023-04-04 12:36:21:060 GMT+02:00 2023,46.0898301,11.1157231,275.55,85.06,86.04,null
STON,2023-04-04 12:36:21:071 GMT+02:00 2023,46.089801566666665,11.115511033333334,2.064419,115.246086,-1.446465,1
SMAR,2023-04-04 12:36:21:091 GMT+02:00 2023,46.0898264,11.1157014,275.85,84.86,86.04,null
SMAR,2023-04-04 12:36:21:128 GMT+02:00 2023,46.0898264,11.1157014,275.7,85.01,86.05,null
SMAR,2023-04-04 12:36:21:163 GMT+02:00 2023,46.0898264,11.1157014,275.53,85.14,86.05,null
SMAR,2023-04-04 12:36:21:196 GMT+02:00 2023,46.0898264,11.1157014,275.86,84.79,86.06,null
SMAR,2023-04-04 12:36:21:228 GMT+02:00 2023,46.0898264,11.1157014,276.72,84.0,86.06,null
SMAR,2023-04-04 12:36:21:262 GMT+02:00 2023,46.0898264,11.1157014,276.81,83.9,86.06,null
STON,2023-04-04 12:36:21:267 GMT+02:00 2023,46.089801566666665,11.115511033333334,2.09704,115.167816,-1.352816,1
SMAR,2023-04-04 12:36:21:293 GMT+02:00 2023,46.0898264,11.1157014,276.53,84.17,86.07,null
SMAR,2023-04-04 12:36:21:333 GMT+02:00 2023,46.0898264,11.1157014,276.31,84.41,86.07,null
SMAR,2023-04-04 12:36:21:367 GMT+02:00 2023,46.0898264,11.1157014,276.03,84.74,86.08,null
SMAR,2023-04-04 12:36:21:400 GMT+02:00 2023,46.0898264,11.1157014,275.74,85.05,86.09,null
SMAR,2023-04-04 12:36:21:432 GMT+02:00 2023,46.0898264,11.1157014,275.3,85.47,86.1,null
SMAR,2023-04-04 12:36:21:467 GMT+02:00 2023,46.0898264,11.1157014,275.2,85.53,86.12,null
SMAR,2023-04-04 12:36:21:508 GMT+02:00 2023,46.0898264,11.1157014,275.14,85.55,86.12,null
SMAR,2023-04-04 12:36:21:543 GMT+02:00 2023,46.0898264,11.1157014,275.08,85.62,86.12,null
STON,2023-04-04 12:36:21:549 GMT+02:00 2023,46.089801566666665,11.115511033333334,2.116675,115.143784,-1.216259,1
SMAR,2023-04-04 12:36:21:579 GMT+02:00 2023,46.0898264,11.1157014,275.21,85.54,86.13,null
SMAR,2023-04-04 12:36:21:602 GMT+02:00 2023,46.0898264,11.1157014,275.25,85.54,86.13,null
SMAR,2023-04-04 12:36:21:634 GMT+02:00 2023,46.0898264,11.1157014,275.3,85.52,86.14,null
SMAR,2023-04-04 12:36:21:662 GMT+02:00 2023,46.0898264,11.1157014,275.43,85.4,86.14,null
STON,2023-04-04 12:36:21:673 GMT+02:00 2023,46.089801566666665,11.115511033333334,2.1254,115.230095,-1.108716,1
SMAR,2023-04-04 12:36:21:696 GMT+02:00 2023,46.0898264,11.1157014,275.5,85.29,86.15,null
SMAR,2023-04-04 12:36:21:730 GMT+02:00 2023,46.0898264,11.1157014,275.65,85.13,86.15,null
SMAR,2023-04-04 12:36:21:762 GMT+02:00 2023,46.0898264,11.1157014,276.0,84.81,86.15,null
SMAR,2023-04-04 12:36:21:800 GMT+02:00 2023,46.0898264,11.1157014,276.13,84.72,86.15,null
STON,2023-04-04 12:36:21:813 GMT+02:00 2023,46.08980145833333,11.115510906666668,2.1254,115.230095,-1.108716,1
STON,2023-04-04 12:36:21:817 GMT+02:00 2023,46.08980145833333,11.115510906666668,2.1254,115.230095,-1.108716,1
SMAR,2023-04-04 12:36:21:836 GMT+02:00 2023,46.0898264,11.1157014,276.24,84.62,86.16,null
SMAR,2023-04-04 12:36:21:871 GMT+02:00 2023,46.0898264,11.1157014,276.62,84.23,86.16,null
SMAR,2023-04-04 12:36:21:904 GMT+02:00 2023,46.0898264,11.1157014,276.83,83.99,86.16,null
SMAR,2023-04-04 12:36:21:939 GMT+02:00 2023,46.0898264,11.1157014,277.03,83.79,86.16,null
STON,2023-04-04 12:36:21:947 GMT+02:00 2023,46.08980145833333,11.115510906666668,2.074887,115.267838,-1.078308,1
SMAR,2023-04-04 12:36:21:972 GMT+02:00 2023,46.0898264,11.1157014,277.26,83.53,86.16,null
SMAR,2023-04-04 12:36:22:007 GMT+02:00 2023,46.0898264,11.1157014,277.52,83.22,86.15,null
SMAR,2023-04-04 12:36:22:040 GMT+02:00 2023,46.0898264,11.1157014,277.84,82.86,86.15,null
STON,2023-04-04 12:36:22:070 GMT+02:00 2023,46.08980145833333,11.115510906666668,1.961871,115.456779,-1.049278,1
SMAR,2023-04-04 12:36:22:075 GMT+02:00 2023,46.0898264,11.1157014,278.06,82.58,86.14,null
SMAR,2023-04-04 12:36:22:104 GMT+02:00 2023,46.0898264,11.1157014,278.31,82.3,86.14,null
SMAR,2023-04-04 12:36:22:140 GMT+02:00 2023,46.0898264,11.1157014,278.5,82.08,86.14,null
SMAR,2023-04-04 12:36:22:169 GMT+02:00 2023,46.0898264,11.1157014,278.71,81.86,86.14,null
SMAR,2023-04-04 12:36:22:205 GMT+02:00 2023,46.0898264,11.1157014,279.02,81.55,86.13,null
SMAR,2023-04-04 12:36:22:238 GMT+02:00 2023,46.0898264,11.1157014,279.21,81.35,86.12,null
SMAR,2023-04-04 12:36:22:267 GMT+02:00 2023,46.0898264,11.1157014,279.48,81.09,86.11,null
SMAR,2023-04-04 12:36:22:302 GMT+02:00 2023,46.0898264,11.1157014,279.59,80.97,86.11,null
SMAR,2023-04-04 12:36:22:337 GMT+02:00 2023,46.0898264,11.1157014,279.83,80.7,86.1,null
SMAR,2023-04-04 12:36:22:373 GMT+02:00 2023,46.0898264,11.1157014,280.13,80.36,86.09,null
SMAR,2023-04-04 12:36:22:405 GMT+02:00 2023,46.0898264,11.1157014,280.39,80.07,86.08,null
SMAR,2023-04-04 12:36:22:437 GMT+02:00 2023,46.0898264,11.1157014,280.44,79.97,86.09,null
SMAR,2023-04-04 12:36:22:472 GMT+02:00 2023,46.0898264,11.1157014,280.59,79.79,86.07,null
SMAR,2023-04-04 12:36:22:509 GMT+02:00 2023,46.0898264,11.1157014,281.57,78.88,86.06,null
SMAR,2023-04-04 12:36:22:541 GMT+02:00 2023,46.0898264,11.1157014,282.79,77.75,86.03,null
SMAR,2023-04-04 12:36:22:573 GMT+02:00 2023,46.0898264,11.1157014,283.42,77.13,86.01,null
SMAR,2023-04-04 12:36:22:602 GMT+02:00 2023,46.0898264,11.1157014,283.55,76.96,86.0,null
STON,2023-04-04 12:36:22:620 GMT+02:00 2023,46.08980145833333,11.115510906666668,1.860485,115.829887,-1.070784,1
SMAR,2023-04-04 12:36:22:637 GMT+02:00 2023,46.0898302,11.115677,283.66,76.8,86.0,null
SMAR,2023-04-04 12:36:22:671 GMT+02:00 2023,46.0898302,11.115677,283.85,76.56,85.99,null
SMAR,2023-04-04 12:36:22:705 GMT+02:00 2023,46.0898302,11.115677,283.95,76.44,85.98,null
SMAR,2023-04-04 12:36:22:734 GMT+02:00 2023,46.0898302,11.115677,283.98,76.4,85.97,null
SMAR,2023-04-04 12:36:22:766 GMT+02:00 2023,46.0898302,11.115677,284.06,76.29,85.96,null
SMAR,2023-04-04 12:36:22:810 GMT+02:00 2023,46.0898302,11.115677,283.94,76.36,85.96,null
STON,2023-04-04 12:36:22:831 GMT+02:00 2023,46.08980145833333,11.115510906666668,1.854026,116.070923,-1.129873,1
SMAR,2023-04-04 12:36:22:837 GMT+02:00 2023,46.0898302,11.115677,283.87,76.39,85.95,null
STON,2023-04-04 12:36:22:871 GMT+02:00 2023,46.08980145833333,11.115510906666668,1.854413,116.2761,-1.160628,1
SMAR,2023-04-04 12:36:22:874 GMT+02:00 2023,46.0898302,11.115677,283.86,76.33,85.93,null
STON,2023-04-04 12:36:22:883 GMT+02:00 2023,46.08980144,11.115510973333333,1.854413,116.2761,-1.160628,1
STON,2023-04-04 12:36:22:886 GMT+02:00 2023,46.08980144,11.115510973333333,1.854413,116.2761,-1.160628,1
SMAR,2023-04-04 12:36:22:906 GMT+02:00 2023,46.0898302,11.115677,283.71,76.41,85.93,null
STON,2023-04-04 12:36:22:915 GMT+02:00 2023,46.08980144,11.115510973333333,1.836866,116.366257,-1.252211,1
SMAR,2023-04-04 12:36:22:954 GMT+02:00 2023,46.0898302,11.115677,283.77,76.35,85.91,null
SMAR,2023-04-04 12:36:22:975 GMT+02:00 2023,46.0898302,11.115677,283.48,76.63,85.9,null
SMAR,2023-04-04 12:36:23:006 GMT+02:00 2023,46.0898302,11.115677,283.27,76.84,85.89,null
SMAR,2023-04-04 12:36:23:039 GMT+02:00 2023,46.0898302,11.115677,283.42,76.72,85.89,null
SMAR,2023-04-04 12:36:23:070 GMT+02:00 2023,46.0898302,11.115677,283.56,76.6,85.89,null
STON,2023-04-04 12:36:23:085 GMT+02:00 2023,46.08980144,11.115510973333333,1.818824,116.448982,-1.380465,1
SMAR,2023-04-04 12:36:23:097 GMT+02:00 2023,46.0898302,11.115677,283.55,76.65,85.87,null
SMAR,2023-04-04 12:36:23:131 GMT+02:00 2023,46.0898302,11.115677,283.33,76.88,85.87,null
SMAR,2023-04-04 12:36:23:166 GMT+02:00 2023,46.0898302,11.115677,283.46,76.72,85.86,null
SMAR,2023-04-04 12:36:23:207 GMT+02:00 2023,46.0898302,11.115677,283.68,76.46,85.84,null
SMAR,2023-04-04 12:36:23:242 GMT+02:00 2023,46.0898302,11.115677,283.87,76.26,85.83,null
SMAR,2023-04-04 12:36:23:275 GMT+02:00 2023,46.0898302,11.115677,284.08,76.07,85.82,null
STON,2023-04-04 12:36:23:280 GMT+02:00 2023,46.08980144,11.115510973333333,1.808596,116.370262,-1.509921,1
SMAR,2023-04-04 12:36:23:304 GMT+02:00 2023,46.0898302,11.115677,284.22,75.95,85.81,null
SMAR,2023-04-04 12:36:23:337 GMT+02:00 2023,46.0898302,11.115677,284.43,75.75,85.8,null
SMAR,2023-04-04 12:36:23:369 GMT+02:00 2023,46.0898302,11.115677,284.58,75.57,85.8,null
SMAR,2023-04-04 12:36:23:407 GMT+02:00 2023,46.0898302,11.115677,284.71,75.4,85.8,null
SMAR,2023-04-04 12:36:23:439 GMT+02:00 2023,46.0898302,11.115677,284.79,75.3,85.8,null
SMAR,2023-04-04 12:36:23:470 GMT+02:00 2023,46.0898302,11.115677,284.86,75.23,85.8,null
SMAR,2023-04-04 12:36:23:508 GMT+02:00 2023,46.0898302,11.115677,284.95,75.14,85.79,null
STON,2023-04-04 12:36:23:516 GMT+02:00 2023,46.08980144,11.115510973333333,1.75387,116.395874,-1.544745,1
SMAR,2023-04-04 12:36:23:535 GMT+02:00 2023,46.0898302,11.115677,284.97,75.09,85.8,null
SMAR,2023-04-04 12:36:23:568 GMT+02:00 2023,46.0898302,11.115677,284.95,75.07,85.8,null
SMAR,2023-04-04 12:36:23:601 GMT+02:00 2023,46.0898302,11.115677,284.93,75.07,85.79,null
SMAR,2023-04-04 12:36:23:637 GMT+02:00 2023,46.089833,11.1156631,284.91,75.09,85.79,null
SMAR,2023-04-04 12:36:23:671 GMT+02:00 2023,46.089833,11.1156631,284.7,75.28,85.79,null
SMAR,2023-04-04 12:36:23:699 GMT+02:00 2023,46.089833,11.1156631,284.71,75.26,85.79,null
STON,2023-04-04 12:36:23:711 GMT+02:00 2023,46.08980144,11.115510973333333,1.747647,116.628624,-1.601041,1
STON,2023-04-04 12:36:23:715 GMT+02:00 2023,46.08980145333334,11.115511055,1.747647,116.628624,-1.601041,1
SMAR,2023-04-04 12:36:23:731 GMT+02:00 2023,46.089833,11.1156631,284.77,75.19,85.8,null
STON,2023-04-04 12:36:23:743 GMT+02:00 2023,46.08980145333334,11.115511055,1.747647,116.628624,-1.601041,1
SMAR,2023-04-04 12:36:23:771 GMT+02:00 2023,46.089833,11.1156631,284.64,75.33,85.79,null
SMAR,2023-04-04 12:36:23:808 GMT+02:00 2023,46.089833,11.1156631,284.52,75.47,85.78,null
SMAR,2023-04-04 12:36:23:838 GMT+02:00 2023,46.089833,11.1156631,284.38,75.61,85.79,null
SMAR,2023-04-04 12:36:23:875 GMT+02:00 2023,46.089833,11.1156631,284.29,75.69,85.79,null
STON,2023-04-04 12:36:23:881 GMT+02:00 2023,46.08980145333334,11.115511055,1.755847,116.702232,-1.626743,1
SMAR,2023-04-04 12:36:23:899 GMT+02:00 2023,46.089833,11.1156631,284.07,75.93,85.79,null
SMAR,2023-04-04 12:36:23:935 GMT+02:00 2023,46.089833,11.1156631,283.84,76.18,85.78,null
SMAR,2023-04-04 12:36:23:968 GMT+02:00 2023,46.089833,11.1156631,283.59,76.42,85.77,null
SMAR,2023-04-04 12:36:24:004 GMT+02:00 2023,46.089833,11.1156631,283.45,76.55,85.77,null
SMAR,2023-04-04 12:36:24:037 GMT+02:00 2023,46.089833,11.1156631,283.33,76.65,85.76,null
SMAR,2023-04-04 12:36:24:068 GMT+02:00 2023,46.089833,11.1156631,283.21,76.75,85.75,null
SMAR,2023-04-04 12:36:24:101 GMT+02:00 2023,46.089833,11.1156631,283.14,76.83,85.75,null
STON,2023-04-04 12:36:24:112 GMT+02:00 2023,46.08980145333334,11.115511055,1.837436,116.698814,-1.604559,1
SMAR,2023-04-04 12:36:24:137 GMT+02:00 2023,46.089833,11.1156631,282.98,77.03,85.75,null
SMAR,2023-04-04 12:36:24:169 GMT+02:00 2023,46.089833,11.1156631,282.71,77.33,85.75,null
SMAR,2023-04-04 12:36:24:204 GMT+02:00 2023,46.089833,11.1156631,282.53,77.51,85.76,null
SMAR,2023-04-04 12:36:24:240 GMT+02:00 2023,46.089833,11.1156631,282.37,77.68,85.76,null
SMAR,2023-04-04 12:36:24:270 GMT+02:00 2023,46.089833,11.1156631,282.24,77.81,85.76,null
STON,2023-04-04 12:36:24:281 GMT+02:00 2023,46.08980145333334,11.115511055,1.900141,116.55748,-1.597116,1
SMAR,2023-04-04 12:36:24:303 GMT+02:00 2023,46.089833,11.1156631,282.2,77.88,85.76,null
SMAR,2023-04-04 12:36:24:336 GMT+02:00 2023,46.089833,11.1156631,282.17,77.92,85.75,null
SMAR,2023-04-04 12:36:24:370 GMT+02:00 2023,46.089833,11.1156631,282.2,77.91,85.75,null
SMAR,2023-04-04 12:36:24:407 GMT+02:00 2023,46.089833,11.1156631,282.23,77.89,85.75,null
SMAR,2023-04-04 12:36:24:440 GMT+02:00 2023,46.089833,11.1156631,282.25,77.9,85.75,null
SMAR,2023-04-04 12:36:24:471 GMT+02:00 2023,46.089833,11.1156631,282.32,77.85,85.74,null
SMAR,2023-04-04 12:36:24:503 GMT+02:00 2023,46.089833,11.1156631,282.29,77.91,85.74,null
SMAR,2023-04-04 12:36:24:534 GMT+02:00 2023,46.089833,11.1156631,282.29,77.92,85.74,null
SMAR,2023-04-04 12:36:24:573 GMT+02:00 2023,46.089833,11.1156631,282.24,77.98,85.73,null
SMAR,2023-04-04 12:36:24:606 GMT+02:00 2023,46.089833,11.1156631,282.23,77.99,85.73,null
SMAR,2023-04-04 12:36:24:640 GMT+02:00 2023,46.0898334,11.115661,282.23,77.97,85.72,null
SMAR,2023-04-04 12:36:24:670 GMT+02:00 2023,46.0898334,11.115661,282.24,77.93,85.72,null
STON,2023-04-04 12:36:24:678 GMT+02:00 2023,46.08980145333334,11.115511055,1.935236,116.38195,-1.60041,1
SMAR,2023-04-04 12:36:24:705 GMT+02:00 2023,46.0898334,11.115661,282.21,77.92,85.72,null
SMAR,2023-04-04 12:36:24:737 GMT+02:00 2023,46.0898334,11.115661,282.19,77.93,85.71,null
STON,2023-04-04 12:36:24:748 GMT+02:00 2023,46.089801443333336,11.115510935,1.935236,116.38195,-1.60041,1
STON,2023-04-04 12:36:24:754 GMT+02:00 2023,46.089801443333336,11.115510935,1.935236,116.38195,-1.60041,1
SMAR,2023-04-04 12:36:24:768 GMT+02:00 2023,46.0898334,11.115661,282.25,77.87,85.7,null
SMAR,2023-04-04 12:36:24:804 GMT+02:00 2023,46.0898334,11.115661,282.24,77.86,85.69,null
SMAR,2023-04-04 12:36:24:842 GMT+02:00 2023,46.0898334,11.115661,282.18,77.85,85.69,null
SMAR,2023-04-04 12:36:24:872 GMT+02:00 2023,46.0898334,11.115661,282.18,77.77,85.69,null
STON,2023-04-04 12:36:24:889 GMT+02:00 2023,46.089801443333336,11.115510935,1.945706,116.550659,-1.639144,1
SMAR,2023-04-04 12:36:24:908 GMT+02:00 2023,46.0898334,11.115661,282.15,77.75,85.69,null
SMAR,2023-04-04 12:36:24:939 GMT+02:00 2023,46.0898334,11.115661,282.12,77.78,85.69,null
SMAR,2023-04-04 12:36:24:967 GMT+02:00 2023,46.0898334,11.115661,282.1,77.82,85.69,null
SMAR,2023-04-04 12:36:25:004 GMT+02:00 2023,46.0898334,11.115661,282.15,77.78,85.69,null
SMAR,2023-04-04 12:36:25:037 GMT+02:00 2023,46.0898334,11.115661,282.12,77.81,85.69,null
SMAR,2023-04-04 12:36:25:074 GMT+02:00 2023,46.0898334,11.115661,281.99,77.89,85.67,null
STON,2023-04-04 12:36:25:078 GMT+02:00 2023,46.089801443333336,11.115510935,1.960256,116.834831,-1.655705,1
SMAR,2023-04-04 12:36:25:106 GMT+02:00 2023,46.0898334,11.115661,281.91,77.94,85.67,null
SMAR,2023-04-04 12:36:25:147 GMT+02:00 2023,46.0898334,11.115661,282.03,77.78,85.67,null
SMAR,2023-04-04 12:36:25:176 GMT+02:00 2023,46.0898334,11.115661,282.66,77.16,85.66,null
SMAR,2023-04-04 12:36:25:204 GMT+02:00 2023,46.0898334,11.115661,282.68,77.12,85.66,null
SMAR,2023-04-04 12:36:25:241 GMT+02:00 2023,46.0898334,11.115661,282.51,77.29,85.66,null
SMAR,2023-04-04 12:36:25:270 GMT+02:00 2023,46.0898334,11.115661,282.43,77.4,85.66,null
STON,2023-04-04 12:36:25:276 GMT+02:00 2023,46.089801443333336,11.115510935,2.004546,117.015297,-1.639869,1
SMAR,2023-04-04 12:36:25:305 GMT+02:00 2023,46.0898334,11.115661,282.27,77.6,85.66,null
SMAR,2023-04-04 12:36:25:344 GMT+02:00 2023,46.0898334,11.115661,282.18,77.7,85.66,null
SMAR,2023-04-04 12:36:25:371 GMT+02:00 2023,46.0898334,11.115661,282.1,77.75,85.66,null
SMAR,2023-04-04 12:36:25:407 GMT+02:00 2023,46.0898334,11.115661,282.04,77.79,85.67,null
SMAR,2023-04-04 12:36:25:448 GMT+02:00 2023,46.0898334,11.115661,282.45,77.43,85.66,null
SMAR,2023-04-04 12:36:25:479 GMT+02:00 2023,46.0898334,11.115661,282.65,77.31,85.66,null
STON,2023-04-04 12:36:25:487 GMT+02:00 2023,46.089801443333336,11.115510935,2.010315,117.024246,-1.555155,1
SMAR,2023-04-04 12:36:25:513 GMT+02:00 2023,46.0898334,11.115661,282.53,77.47,85.66,null
SMAR,2023-04-04 12:36:25:549 GMT+02:00 2023,46.0898334,11.115661,282.44,77.59,85.66,null
SMAR,2023-04-04 12:36:25:581 GMT+02:00 2023,46.0898334,11.115661,282.41,77.6,85.66,null
SMAR,2023-04-04 12:36:25:607 GMT+02:00 2023,46.0898334,11.115661,282.35,77.65,85.66,null
SMAR,2023-04-04 12:36:25:640 GMT+02:00 2023,46.0898351,11.1156471,282.27,77.74,85.65,null
STON,2023-04-04 12:36:25:661 GMT+02:00 2023,46.089801443333336,11.115510935,2.043657,116.869354,-1.492661,1
SMAR,2023-04-04 12:36:25:672 GMT+02:00 2023,46.0898351,11.1156471,282.26,77.77,85.65,null
SMAR,2023-04-04 12:36:25:706 GMT+02:00 2023,46.0898351,11.1156471,282.22,77.81,85.65,null
STON,2023-04-04 12:36:25:722 GMT+02:00 2023,46.089801435,11.11551084,2.043657,116.869354,-1.492661,1
STON,2023-04-04 12:36:25:729 GMT+02:00 2023,46.089801435,11.11551084,2.043657,116.869354,-1.492661,1
SMAR,2023-04-04 12:36:25:739 GMT+02:00 2023,46.0898351,11.1156471,282.17,77.85,85.66,null
SMAR,2023-04-04 12:36:25:770 GMT+02:00 2023,46.0898351,11.1156471,282.19,77.8,85.65,null
SMAR,2023-04-04 12:36:25:808 GMT+02:00 2023,46.0898351,11.1156471,282.18,77.78,85.65,null
SMAR,2023-04-04 12:36:25:846 GMT+02:00 2023,46.0898351,11.1156471,282.22,77.73,85.64,null
STON,2023-04-04 12:36:25:859 GMT+02:00 2023,46.089801435,11.11551084,2.049513,116.890404,-1.487682,1
SMAR,2023-04-04 12:36:25:872 GMT+02:00 2023,46.0898351,11.1156471,282.19,77.72,85.64,null
SMAR,2023-04-04 12:36:25:906 GMT+02:00 2023,46.0898351,11.1156471,281.98,77.88,85.64,null
SMAR,2023-04-04 12:36:25:940 GMT+02:00 2023,46.0898351,11.1156471,281.94,77.86,85.64,null
SMAR,2023-04-04 12:36:25:978 GMT+02:00 2023,46.0898351,11.1156471,281.95,77.78,85.64,null
SMAR,2023-04-04 12:36:26:012 GMT+02:00 2023,46.0898351,11.1156471,282.04,77.65,85.63,null
SMAR,2023-04-04 12:36:26:041 GMT+02:00 2023,46.0898351,11.1156471,282.14,77.55,85.62,null
SMAR,2023-04-04 12:36:26:075 GMT+02:00 2023,46.0898351,11.1156471,282.22,77.47,85.61,null
STON,2023-04-04 12:36:26:082 GMT+02:00 2023,46.089801435,11.11551084,2.07124,117.205536,-1.561716,1
SMAR,2023-04-04 12:36:26:114 GMT+02:00 2023,46.0898351,11.1156471,282.29,77.4,85.61,null
SMAR,2023-04-04 12:36:26:152 GMT+02:00 2023,46.0898351,11.1156471,282.31,77.32,85.61,null
SMAR,2023-04-04 12:36:26:186 GMT+02:00 2023,46.0898351,11.1156471,282.4,77.17,85.6,null
SMAR,2023-04-04 12:36:26:216 GMT+02:00 2023,46.0898351,11.1156471,282.4,77.09,85.6,null
SMAR,2023-04-04 12:36:26:247 GMT+02:00 2023,46.0898351,11.1156471,282.28,77.14,85.6,null
SMAR,2023-04-04 12:36:26:281 GMT+02:00 2023,46.0898351,11.1156471,282.41,76.94,85.59,null
STON,2023-04-04 12:36:26:286 GMT+02:00 2023,46.089801435,11.11551084,2.027627,117.377029,-1.604192,1
SMAR,2023-04-04 12:36:26:312 GMT+02:00 2023,46.0898351,11.1156471,282.57,76.72,85.58,null
SMAR,2023-04-04 12:36:26:342 GMT+02:00 2023,46.0898351,11.1156471,282.67,76.53,85.58,null
SMAR,2023-04-04 12:36:26:377 GMT+02:00 2023,46.0898351,11.1156471,282.82,76.28,85.57,null
SMAR,2023-04-04 12:36:26:408 GMT+02:00 2023,46.0898351,11.1156471,282.94,76.05,85.57,null
SMAR,2023-04-04 12:36:26:448 GMT+02:00 2023,46.0898351,11.1156471,282.86,76.0,85.56,null
SMAR,2023-04-04 12:36:26:477 GMT+02:00 2023,46.0898351,11.1156471,282.56,76.11,85.58,null
SMAR,2023-04-04 12:36:26:514 GMT+02:00 2023,46.0898351,11.1156471,282.55,75.96,85.58,null
STON,2023-04-04 12:36:26:519 GMT+02:00 2023,46.089801435,11.11551084,1.978997,117.928596,-1.661322,1
SMAR,2023-04-04 12:36:26:541 GMT+02:00 2023,46.0898351,11.1156471,282.77,75.61,85.58,null
SMAR,2023-04-04 12:36:26:579 GMT+02:00 2023,46.0898351,11.1156471,283.14,75.14,85.58,null
SMAR,2023-04-04 12:36:26:605 GMT+02:00 2023,46.0898351,11.1156471,283.4,74.81,85.57,null
SMAR,2023-04-04 12:36:26:638 GMT+02:00 2023,46.089836,11.1156354,283.68,74.46,85.58,null
STON,2023-04-04 12:36:26:669 GMT+02:00 2023,46.089801435,11.11551084,1.902939,118.636909,-1.772312,1
SMAR,2023-04-04 12:36:26:674 GMT+02:00 2023,46.089836,11.1156354,283.94,74.11,85.59,null
SMAR,2023-04-04 12:36:26:708 GMT+02:00 2023,46.089836,11.1156354,284.27,73.73,85.59,null
STON,2023-04-04 12:36:26:716 GMT+02:00 2023,46.089801398333336,11.11551092,1.902939,118.636909,-1.772312,1
STON,2023-04-04 12:36:26:722 GMT+02:00 2023,46.089801398333336,11.11551092,1.902939,118.636909,-1.772312,1
SMAR,2023-04-04 12:36:26:740 GMT+02:00 2023,46.089836,11.1156354,284.54,73.39,85.6,null
SMAR,2023-04-04 12:36:26:778 GMT+02:00 2023,46.089836,11.1156354,284.82,73.01,85.6,null
SMAR,2023-04-04 12:36:26:811 GMT+02:00 2023,46.089836,11.1156354,285.16,72.57,85.6,null
SMAR,2023-04-04 12:36:26:849 GMT+02:00 2023,46.089836,11.1156354,285.46,72.14,85.6,null
SMAR,2023-04-04 12:36:26:873 GMT+02:00 2023,46.089836,11.1156354,285.72,71.76,85.6,null
STON,2023-04-04 12:36:26:877 GMT+02:00 2023,46.089801398333336,11.11551092,1.758931,119.15834,-1.782186,1
SMAR,2023-04-04 12:36:26:911 GMT+02:00 2023,46.089836,11.1156354,285.99,71.39,85.6,null
SMAR,2023-04-04 12:36:26:951 GMT+02:00 2023,46.089836,11.1156354,286.33,70.94,85.6,null
SMAR,2023-04-04 12:36:26:978 GMT+02:00 2023,46.089836,11.1156354,286.61,70.54,85.59,null
SMAR,2023-04-04 12:36:27:014 GMT+02:00 2023,46.089836,11.1156354,286.89,70.12,85.59,null
SMAR,2023-04-04 12:36:27:052 GMT+02:00 2023,46.089836,11.1156354,287.3,69.58,85.59,null
SMAR,2023-04-04 12:36:27:081 GMT+02:00 2023,46.089836,11.1156354,287.79,68.99,85.58,null
SMAR,2023-04-04 12:36:27:116 GMT+02:00 2023,46.089836,11.1156354,288.32,68.38,85.57,null
SMAR,2023-04-04 12:36:27:143 GMT+02:00 2023,46.089836,11.1156354,288.76,67.86,85.57,null
STON,2023-04-04 12:36:27:159 GMT+02:00 2023,46.089801398333336,11.11551092,1.628747,119.940475,-1.863364,1
SMAR,2023-04-04 12:36:27:174 GMT+02:00 2023,46.089836,11.1156354,289.23,67.29,85.57,null
SMAR,2023-04-04 12:36:27:209 GMT+02:00 2023,46.089836,11.1156354,289.71,66.74,85.57,null
SMAR,2023-04-04 12:36:27:241 GMT+02:00 2023,46.089836,11.1156354,290.13,66.27,85.57,null
SMAR,2023-04-04 12:36:27:274 GMT+02:00 2023,46.089836,11.1156354,290.56,65.78,85.56,null
SMAR,2023-04-04 12:36:27:307 GMT+02:00 2023,46.089836,11.1156354,290.97,65.3,85.56,null
STON,2023-04-04 12:36:27:310 GMT+02:00 2023,46.089801398333336,11.11551092,1.457436,120.585587,-1.991418,1
SMAR,2023-04-04 12:36:27:347 GMT+02:00 2023,46.089836,11.1156354,291.32,64.87,85.56,null
SMAR,2023-04-04 12:36:27:377 GMT+02:00 2023,46.089836,11.1156354,291.78,64.32,85.56,null
SMAR,2023-04-04 12:36:27:418 GMT+02:00 2023,46.089836,11.1156354,292.23,63.79,85.56,null
SMAR,2023-04-04 12:36:27:448 GMT+02:00 2023,46.089836,11.1156354,292.7,63.28,85.56,null
SMAR,2023-04-04 12:36:27:484 GMT+02:00 2023,46.089836,11.1156354,293.16,62.81,85.57,null
SMAR,2023-04-04 12:36:27:518 GMT+02:00 2023,46.089836,11.1156354,293.53,62.43,85.58,null
SMAR,2023-04-04 12:36:27:546 GMT+02:00 2023,46.089836,11.1156354,293.83,62.09,85.59,null
STON,2023-04-04 12:36:27:563 GMT+02:00 2023,46.089801398333336,11.11551092,1.247932,121.146942,-2.03005,1
SMAR,2023-04-04 12:36:27:585 GMT+02:00 2023,46.089836,11.1156354,294.26,61.6,85.59,null
SMAR,2023-04-04 12:36:27:618 GMT+02:00 2023,46.089836,11.1156354,294.84,60.97,85.59,null
SMAR,2023-04-04 12:36:27:649 GMT+02:00 2023,46.089836,11.1156354,295.25,60.48,85.59,null
SMAR,2023-04-04 12:36:27:675 GMT+02:00 2023,46.0898363,11.1156269,295.87,59.8,85.6,null
STON,2023-04-04 12:36:27:695 GMT+02:00 2023,46.089801398333336,11.11551092,1.042072,121.576965,-2.144695,1
SMAR,2023-04-04 12:36:27:710 GMT+02:00 2023,46.0898363,11.1156269,296.36,59.25,85.62,null
SMAR,2023-04-04 12:36:27:753 GMT+02:00 2023,46.0898363,11.1156269,297.03,58.58,85.63,null
SMAR,2023-04-04 12:36:27:786 GMT+02:00 2023,46.0898363,11.1156269,297.42,58.24,85.63,null
SMAR,2023-04-04 12:36:27:823 GMT+02:00 2023,46.0898363,11.1156269,297.75,57.95,85.64,null
SMAR,2023-04-04 12:36:27:861 GMT+02:00 2023,46.0898363,11.1156269,298.09,57.59,85.65,null
SMAR,2023-04-04 12:36:27:889 GMT+02:00 2023,46.0898363,11.1156269,298.23,57.38,85.66,null
SMAR,2023-04-04 12:36:27:932 GMT+02:00 2023,46.0898363,11.1156269,298.5,57.09,85.67,null
STON,2023-04-04 12:36:27:937 GMT+02:00 2023,46.089801245,11.115511241666667,1.042072,121.576965,-2.144695,1
SMAR,2023-04-04 12:36:27:967 GMT+02:00 2023,46.0898363,11.1156269,298.7,56.89,85.68,null
SMAR,2023-04-04 12:36:27:988 GMT+02:00 2023,46.0898363,11.1156269,298.81,56.79,85.68,null
SMAR,2023-04-04 12:36:28:019 GMT+02:00 2023,46.0898363,11.1156269,298.95,56.66,85.69,null
SMAR,2023-04-04 12:36:28:048 GMT+02:00 2023,46.0898363,11.1156269,299.1,56.52,85.69,null
SMAR,2023-04-04 12:36:28:080 GMT+02:00 2023,46.0898363,11.1156269,299.17,56.44,85.68,null
SMAR,2023-04-04 12:36:28:120 GMT+02:00 2023,46.0898363,11.1156269,299.33,56.26,85.67,null
STON,2023-04-04 12:36:28:132 GMT+02:00 2023,46.089801245,11.115511241666667,1.042072,121.576965,-2.144695,1
SMAR,2023-04-04 12:36:28:152 GMT+02:00 2023,46.0898363,11.1156269,299.46,56.1,85.65,null
SMAR,2023-04-04 12:36:28:187 GMT+02:00 2023,46.0898363,11.1156269,299.64,55.89,85.63,null
SMAR,2023-04-04 12:36:28:222 GMT+02:00 2023,46.0898363,11.1156269,299.83,55.69,85.61,null
SMAR,2023-04-04 12:36:28:252 GMT+02:00 2023,46.0898363,11.1156269,299.97,55.56,85.6,null
STON,2023-04-04 12:36:28:257 GMT+02:00 2023,46.089801245,11.115511241666667,0.8543,121.834991,-2.178006,1
STON,2023-04-04 12:36:28:264 GMT+02:00 2023,46.089801245,11.115511241666667,0.697922,122.0532,-2.1436,1
SMAR,2023-04-04 12:36:28:287 GMT+02:00 2023,46.0898363,11.1156269,299.99,55.55,85.58,null
STON,2023-04-04 12:36:28:295 GMT+02:00 2023,46.089801245,11.115511241666667,0.642051,122.289192,-2.24018,1
SMAR,2023-04-04 12:36:28:323 GMT+02:00 2023,46.0898363,11.1156269,299.99,55.53,85.56,null
SMAR,2023-04-04 12:36:28:356 GMT+02:00 2023,46.0898363,11.1156269,299.97,55.51,85.54,null
SMAR,2023-04-04 12:36:28:389 GMT+02:00 2023,46.0898363,11.1156269,299.93,55.5,85.52,null
SMAR,2023-04-04 12:36:28:420 GMT+02:00 2023,46.0898363,11.1156269,299.97,55.43,85.51,null
SMAR,2023-04-04 12:36:28:449 GMT+02:00 2023,46.0898363,11.1156269,299.99,55.4,85.49,null
SMAR,2023-04-04 12:36:28:485 GMT+02:00 2023,46.0898363,11.1156269,299.95,55.43,85.47,null
STON,2023-04-04 12:36:28:490 GMT+02:00 2023,46.089801245,11.115511241666667,0.631368,122.519012,-2.333651,1
SMAR,2023-04-04 12:36:28:515 GMT+02:00 2023,46.0898363,11.1156269,300.0,55.39,85.47,null
SMAR,2023-04-04 12:36:28:550 GMT+02:00 2023,46.0898363,11.1156269,300.0,55.42,85.46,null
SMAR,2023-04-04 12:36:28:584 GMT+02:00 2023,46.0898363,11.1156269,299.99,55.48,85.45,null
SMAR,2023-04-04 12:36:28:612 GMT+02:00 2023,46.0898363,11.1156269,299.87,55.6,85.45,null
SMAR,2023-04-04 12:36:28:643 GMT+02:00 2023,46.0898363,11.1156207,299.67,55.75,85.44,null
SMAR,2023-04-04 12:36:28:681 GMT+02:00 2023,46.0898363,11.1156207,299.54,55.86,85.43,null
STON,2023-04-04 12:36:28:689 GMT+02:00 2023,46.089801245,11.115511241666667,0.648926,122.582024,-2.434242,1
SMAR,2023-04-04 12:36:28:710 GMT+02:00 2023,46.0898363,11.1156207,299.4,56.02,85.43,null
STON,2023-04-04 12:36:28:721 GMT+02:00 2023,46.089801165,11.115511438333334,0.648926,122.582024,-2.434242,1
SMAR,2023-04-04 12:36:28:748 GMT+02:00 2023,46.0898363,11.1156207,299.35,56.09,85.43,null
STON,2023-04-04 12:36:28:758 GMT+02:00 2023,46.089801165,11.115511438333334,0.648926,122.582024,-2.434242,1
SMAR,2023-04-04 12:36:28:781 GMT+02:00 2023,46.0898363,11.1156207,299.27,56.16,85.43,null
SMAR,2023-04-04 12:36:28:822 GMT+02:00 2023,46.0898363,11.1156207,299.27,56.17,85.43,null
SMAR,2023-04-04 12:36:28:853 GMT+02:00 2023,46.0898363,11.1156207,299.36,56.12,85.43,null
SMAR,2023-04-04 12:36:28:881 GMT+02:00 2023,46.0898363,11.1156207,299.41,56.09,85.44,null
STON,2023-04-04 12:36:28:885 GMT+02:00 2023,46.089801165,11.115511438333334,0.68695,122.663155,-2.383714,1
SMAR,2023-04-04 12:36:28:923 GMT+02:00 2023,46.0898363,11.1156207,299.44,56.07,85.44,null
SMAR,2023-04-04 12:36:28:955 GMT+02:00 2023,46.0898363,11.1156207,299.46,56.07,85.44,null
SMAR,2023-04-04 12:36:28:986 GMT+02:00 2023,46.0898363,11.1156207,299.58,55.98,85.43,null
SMAR,2023-04-04 12:36:29:022 GMT+02:00 2023,46.0898363,11.1156207,299.51,56.0,85.44,null
SMAR,2023-04-04 12:36:29:057 GMT+02:00 2023,46.0898363,11.1156207,299.38,56.12,85.44,null
SMAR,2023-04-04 12:36:29:092 GMT+02:00 2023,46.0898363,11.1156207,299.26,56.25,85.44,null
STON,2023-04-04 12:36:29:100 GMT+02:00 2023,46.089801165,11.115511438333334,0.716063,122.647034,-2.364226,1
SMAR,2023-04-04 12:36:29:121 GMT+02:00 2023,46.0898363,11.1156207,299.06,56.45,85.45,null
SMAR,2023-04-04 12:36:29:152 GMT+02:00 2023,46.0898363,11.1156207,298.97,56.52,85.46,null
SMAR,2023-04-04 12:36:29:182 GMT+02:00 2023,46.0898363,11.1156207,299.1,56.36,85.46,null
SMAR,2023-04-04 12:36:29:215 GMT+02:00 2023,46.0898363,11.1156207,299.23,56.25,85.48,null
SMAR,2023-04-04 12:36:29:261 GMT+02:00 2023,46.0898363,11.1156207,299.34,56.21,85.5,null
SMAR,2023-04-04 12:36:29:286 GMT+02:00 2023,46.0898363,11.1156207,299.47,56.09,85.52,null
STON,2023-04-04 12:36:29:291 GMT+02:00 2023,46.089801165,11.115511438333334,0.742971,122.847145,-2.312163,1
SMAR,2023-04-04 12:36:29:322 GMT+02:00 2023,46.0898363,11.1156207,299.56,55.98,85.54,null
SMAR,2023-04-04 12:36:29:352 GMT+02:00 2023,46.0898363,11.1156207,299.57,55.98,85.57,null
SMAR,2023-04-04 12:36:29:388 GMT+02:00 2023,46.0898363,11.1156207,299.67,55.94,85.59,null
SMAR,2023-04-04 12:36:29:422 GMT+02:00 2023,46.0898363,11.1156207,299.59,56.13,85.6,null
SMAR,2023-04-04 12:36:29:453 GMT+02:00 2023,46.0898363,11.1156207,299.47,56.36,85.61,null
SMAR,2023-04-04 12:36:29:491 GMT+02:00 2023,46.0898363,11.1156207,299.32,56.59,85.62,null
SMAR,2023-04-04 12:36:29:519 GMT+02:00 2023,46.0898363,11.1156207,299.01,56.91,85.62,null
STON,2023-04-04 12:36:29:528 GMT+02:00 2023,46.089801165,11.115511438333334,0.648068,122.703865,-2.182857,1
SMAR,2023-04-04 12:36:29:552 GMT+02:00 2023,46.0898363,11.1156207,298.79,57.08,85.62,null
SMAR,2023-04-04 12:36:29:582 GMT+02:00 2023,46.0898363,11.1156207,298.42,57.4,85.63,null
SMAR,2023-04-04 12:36:29:616 GMT+02:00 2023,46.0898363,11.1156207,298.21,57.61,85.64,null
SMAR,2023-04-04 12:36:29:649 GMT+02:00 2023,46.0898363,11.1156207,298.04,57.84,85.65,null
SMAR,2023-04-04 12:36:29:681 GMT+02:00 2023,46.0898375,11.1156112,297.96,57.97,85.66,null
SMAR,2023-04-04 12:36:29:716 GMT+02:00 2023,46.0898375,11.1156112,297.83,58.13,85.67,null
SMAR,2023-04-04 12:36:29:749 GMT+02:00 2023,46.0898375,11.1156112,297.59,58.41,85.67,null
STON,2023-04-04 12:36:29:760 GMT+02:00 2023,46.089801165,11.115511438333334,0.738744,122.519814,-2.096341,1
STON,2023-04-04 12:36:29:764 GMT+02:00 2023,46.08980111166667,11.115511353333334,0.738744,122.519814,-2.096341,1
STON,2023-04-04 12:36:29:766 GMT+02:00 2023,46.08980111166667,11.115511353333334,0.738744,122.519814,-2.096341,1
SMAR,2023-04-04 12:36:29:780 GMT+02:00 2023,46.0898375,11.1156112,297.39,58.62,85.68,null
SMAR,2023-04-04 12:36:29:816 GMT+02:00 2023,46.0898375,11.1156112,297.05,58.94,85.68,null
SMAR,2023-04-04 12:36:29:849 GMT+02:00 2023,46.0898375,11.1156112,296.74,59.2,85.68,null
SMAR,2023-04-04 12:36:29:883 GMT+02:00 2023,46.0898375,11.1156112,296.49,59.43,85.69,null
SMAR,2023-04-04 12:36:29:919 GMT+02:00 2023,46.0898375,11.1156112,296.18,59.77,85.68,null
STON,2023-04-04 12:36:29:927 GMT+02:00 2023,46.08980111166667,11.115511353333334,0.784177,122.259277,-2.000175,1
SMAR,2023-04-04 12:36:29:959 GMT+02:00 2023,46.0898375,11.1156112,295.91,60.08,85.67,null
SMAR,2023-04-04 12:36:29:988 GMT+02:00 2023,46.0898375,11.1156112,295.58,60.37,85.67,null
SMAR,2023-04-04 12:36:30:028 GMT+02:00 2023,46.0898375,11.1156112,295.18,60.73,85.67,null
SMAR,2023-04-04 12:36:30:063 GMT+02:00 2023,46.0898375,11.1156112,294.72,61.18,85.67,null
SMAR,2023-04-04 12:36:30:094 GMT+02:00 2023,46.0898375,11.1156112,294.33,61.59,85.68,null
STON,2023-04-04 12:36:30:101 GMT+02:00 2023,46.08980111166667,11.115511353333334,0.942537,122.244072,-1.976864,1
SMAR,2023-04-04 12:36:30:124 GMT+02:00 2023,46.0898375,11.1156112,293.94,62.02,85.67,null
SMAR,2023-04-04 12:36:30:158 GMT+02:00 2023,46.0898375,11.1156112,293.73,62.24,85.66,null
SMAR,2023-04-04 12:36:30:189 GMT+02:00 2023,46.0898375,11.1156112,293.71,62.27,85.65,null
SMAR,2023-04-04 12:36:30:221 GMT+02:00 2023,46.0898375,11.1156112,293.91,62.15,85.62,null
SMAR,2023-04-04 12:36:30:253 GMT+02:00 2023,46.0898375,11.1156112,293.53,62.58,85.61,null
SMAR,2023-04-04 12:36:30:285 GMT+02:00 2023,46.0898375,11.1156112,293.05,63.06,85.61,null
SMAR,2023-04-04 12:36:30:315 GMT+02:00 2023,46.0898375,11.1156112,292.63,63.48,85.62,null
STON,2023-04-04 12:36:30:321 GMT+02:00 2023,46.08980111166667,11.115511353333334,1.0938,122.173599,-1.869611,1
SMAR,2023-04-04 12:36:30:343 GMT+02:00 2023,46.0898375,11.1156112,292.07,64.05,85.61,null
SMAR,2023-04-04 12:36:30:382 GMT+02:00 2023,46.0898375,11.1156112,291.47,64.67,85.61,null
SMAR,2023-04-04 12:36:30:423 GMT+02:00 2023,46.0898375,11.1156112,290.87,65.28,85.6,null
SMAR,2023-04-04 12:36:30:451 GMT+02:00 2023,46.0898375,11.1156112,290.45,65.69,85.6,null
SMAR,2023-04-04 12:36:30:492 GMT+02:00 2023,46.0898375,11.1156112,290.07,66.06,85.6,null
SMAR,2023-04-04 12:36:30:521 GMT+02:00 2023,46.0898375,11.1156112,289.67,66.48,85.58,null
SMAR,2023-04-04 12:36:30:557 GMT+02:00 2023,46.0898375,11.1156112,289.32,66.88,85.58,null
SMAR,2023-04-04 12:36:30:588 GMT+02:00 2023,46.0898375,11.1156112,289.02,67.2,85.57,null
STON,2023-04-04 12:36:30:597 GMT+02:00 2023,46.08980111166667,11.115511353333334,1.296612,122.023819,-1.830845,1
SMAR,2023-04-04 12:36:30:625 GMT+02:00 2023,46.0898375,11.1156112,288.75,67.49,85.56,null
SMAR,2023-04-04 12:36:30:650 GMT+02:00 2023,46.0898375,11.1156112,288.39,67.85,85.55,null
SMAR,2023-04-04 12:36:30:686 GMT+02:00 2023,46.089839,11.1156056,288.08,68.17,85.55,null
SMAR,2023-04-04 12:36:30:719 GMT+02:00 2023,46.089839,11.1156056,287.77,68.51,85.54,null
STON,2023-04-04 12:36:30:726 GMT+02:00 2023,46.08980111166667,11.115511353333334,1.524067,122.079941,-1.805319,1
SMAR,2023-04-04 12:36:30:754 GMT+02:00 2023,46.089839,11.1156056,287.5,68.79,85.53,null
SMAR,2023-04-04 12:36:30:783 GMT+02:00 2023,46.089839,11.1156056,287.27,69.0,85.52,null
SMAR,2023-04-04 12:36:30:823 GMT+02:00 2023,46.089839,11.1156056,287.05,69.21,85.51,null
SMAR,2023-04-04 12:36:30:853 GMT+02:00 2023,46.089839,11.1156056,286.89,69.38,85.5,null
STON,2023-04-04 12:36:30:864 GMT+02:00 2023,46.08980119833333,11.115511075,1.524067,122.079941,-1.805319,1
STON,2023-04-04 12:36:30:868 GMT+02:00 2023,46.08980119833333,11.115511075,1.524067,122.079941,-1.805319,1
SMAR,2023-04-04 12:36:30:884 GMT+02:00 2023,46.089839,11.1156056,286.68,69.59,85.48,null
STON,2023-04-04 12:36:30:893 GMT+02:00 2023,46.08980119833333,11.115511075,1.678196,122.139351,-1.78564,1
SMAR,2023-04-04 12:36:30:918 GMT+02:00 2023,46.089839,11.1156056,286.51,69.78,85.47,null
SMAR,2023-04-04 12:36:30:949 GMT+02:00 2023,46.089839,11.1156056,286.35,69.92,85.46,null
SMAR,2023-04-04 12:36:30:983 GMT+02:00 2023,46.089839,11.1156056,286.13,70.11,85.46,null
SMAR,2023-04-04 12:36:31:018 GMT+02:00 2023,46.089839,11.1156056,285.97,70.26,85.44,null
SMAR,2023-04-04 12:36:31:056 GMT+02:00 2023,46.089839,11.1156056,285.85,70.37,85.43,null
SMAR,2023-04-04 12:36:31:089 GMT+02:00 2023,46.089839,11.1156056,285.67,70.5,85.42,null
STON,2023-04-04 12:36:31:098 GMT+02:00 2023,46.08980119833333,11.115511075,1.800053,122.181328,-1.822798,1
SMAR,2023-04-04 12:36:31:118 GMT+02:00 2023,46.089839,11.1156056,285.62,70.55,85.41,null
SMAR,2023-04-04 12:36:31:153 GMT+02:00 2023,46.089839,11.1156056,285.5,70.65,85.4,null
SMAR,2023-04-04 12:36:31:193 GMT+02:00 2023,46.089839,11.1156056,285.31,70.81,85.39,null
SMAR,2023-04-04 12:36:31:220 GMT+02:00 2023,46.089839,11.1156056,285.25,70.85,85.39,null
SMAR,2023-04-04 12:36:31:251 GMT+02:00 2023,46.089839,11.1156056,285.27,70.84,85.38,null
SMAR,2023-04-04 12:36:31:286 GMT+02:00 2023,46.089839,11.1156056,285.23,70.85,85.37,null
STON,2023-04-04 12:36:31:293 GMT+02:00 2023,46.08980119833333,11.115511075,1.887894,122.268379,-1.932911,1
SMAR,2023-04-04 12:36:31:322 GMT+02:00 2023,46.089839,11.1156056,285.21,70.84,85.37,null
SMAR,2023-04-04 12:36:31:359 GMT+02:00 2023,46.089839,11.1156056,285.15,70.86,85.37,null
SMAR,2023-04-04 12:36:31:393 GMT+02:00 2023,46.089839,11.1156056,285.21,70.79,85.37,null
SMAR,2023-04-04 12:36:31:426 GMT+02:00 2023,46.089839,11.1156056,285.21,70.78,85.37,null
SMAR,2023-04-04 12:36:31:459 GMT+02:00 2023,46.089839,11.1156056,285.21,70.79,85.38,null
SMAR,2023-04-04 12:36:31:495 GMT+02:00 2023,46.089839,11.1156056,285.25,70.75,85.39,null
STON,2023-04-04 12:36:31:501 GMT+02:00 2023,46.08980119833333,11.115511075,1.933083,122.492767,-1.974764,1
SMAR,2023-04-04 12:36:31:524 GMT+02:00 2023,46.089839,11.1156056,285.3,70.7,85.41,null
SMAR,2023-04-04 12:36:31:557 GMT+02:00 2023,46.089839,11.1156056,285.36,70.63,85.41,null
SMAR,2023-04-04 12:36:31:589 GMT+02:00 2023,46.089839,11.1156056,285.36,70.62,85.41,null
SMAR,2023-04-04 12:36:31:621 GMT+02:00 2023,46.089839,11.1156056,285.45,70.5,85.42,null
SMAR,2023-04-04 12:36:31:653 GMT+02:00 2023,46.089839,11.1156056,285.54,70.39,85.43,null
SMAR,2023-04-04 12:36:31:688 GMT+02:00 2023,46.0898396,11.1156039,285.67,70.22,85.44,null
SMAR,2023-04-04 12:36:31:723 GMT+02:00 2023,46.0898396,11.1156039,285.77,70.12,85.45,null
STON,2023-04-04 12:36:31:731 GMT+02:00 2023,46.08980119833333,11.115511075,1.900635,122.589767,-1.949167,1
STON,2023-04-04 12:36:31:737 GMT+02:00 2023,46.08980123333333,11.115511001666667,1.900635,122.589767,-1.949167,1
SMAR,2023-04-04 12:36:31:761 GMT+02:00 2023,46.0898396,11.1156039,285.92,69.97,85.46,null
STON,2023-04-04 12:36:31:769 GMT+02:00 2023,46.08980123333333,11.115511001666667,1.900635,122.589767,-1.949167,1
SMAR,2023-04-04 12:36:31:791 GMT+02:00 2023,46.0898396,11.1156039,286.09,69.77,85.48,null
SMAR,2023-04-04 12:36:31:828 GMT+02:00 2023,46.0898396,11.1156039,286.23,69.62,85.5,null
