Input,Time,Latitude,Longitude,Pitch,Yaw,Roll,Status
STON,2023-04-04 12:37:31:034 GMT+02:00 2023,46.089800825,11.11551145,1.707708,138.65033,-1.024692,1
STON,2023-04-04 12:37:31:407 GMT+02:00 2023,46.089800825,11.11551145,2.368754,138.923752,-0.86616,1
STON,2023-04-04 12:37:31:485 GMT+02:00 2023,46.089800825,11.11551145,2.387637,138.721237,-0.831285,1
SMAR,2023-04-04 12:37:31:542 GMT+02:00 2023,null,null,0.0,0.0,0.0,null
SMAR,2023-04-04 12:37:31:577 GMT+02:00 2023,null,null,0.0,0.0,0.0,null
SMAR,2023-04-04 12:37:31:624 GMT+02:00 2023,null,null,0.0,0.0,0.0,null
SMAR,2023-04-04 12:37:31:659 GMT+02:00 2023,null,null,0.0,0.0,0.0,null
SMAR,2023-04-04 12:37:31:696 GMT+02:00 2023,null,null,0.0,0.0,0.0,null
STON,2023-04-04 12:37:31:701 GMT+02:00 2023,46.089800825,11.11551145,2.295081,137.539673,-0.890889,1
SMAR,2023-04-04 12:37:31:732 GMT+02:00 2023,null,null,0.0,0.0,0.0,null
SMAR,2023-04-04 12:37:31:763 GMT+02:00 2023,null,null,0.0,0.0,0.0,null
STON,2023-04-04 12:37:31:768 GMT+02:00 2023,46.089800931666666,11.115511225,2.295081,137.539673,-0.890889,1
SMAR,2023-04-04 12:37:31:797 GMT+02:00 2023,null,null,0.0,0.0,0.0,null
STON,2023-04-04 12:37:31:803 GMT+02:00 2023,46.089800931666666,11.115511225,2.295081,137.539673,-0.890889,1
SMAR,2023-04-04 12:37:31:827 GMT+02:00 2023,null,null,0.0,0.0,0.0,null
SMAR,2023-04-04 12:37:31:856 GMT+02:00 2023,null,null,0.0,0.0,0.0,null
SMAR,2023-04-04 12:37:31:890 GMT+02:00 2023,null,null,0.0,0.0,0.0,null
SMAR,2023-04-04 12:37:31:918 GMT+02:00 2023,null,null,0.0,0.0,0.0,null
STON,2023-04-04 12:37:31:921 GMT+02:00 2023,46.089800931666666,11.115511225,2.298009,136.443634,-1.054395,1
SMAR,2023-04-04 12:37:31:936 GMT+02:00 2023,null,null,0.0,0.0,0.0,null
SMAR,2023-04-04 12:37:31:966 GMT+02:00 2023,null,null,283.94,76.22,86.19,null
SMAR,2023-04-04 12:37:32:001 GMT+02:00 2023,null,null,283.93,76.19,86.2,null
SMAR,2023-04-04 12:37:32:031 GMT+02:00 2023,null,null,276.85,83.18,85.82,null
SMAR,2023-04-04 12:37:32:067 GMT+02:00 2023,null,null,276.83,83.12,85.84,null
SMAR,2023-04-04 12:37:32:103 GMT+02:00 2023,null,null,276.95,82.92,85.87,null
STON,2023-04-04 12:37:32:111 GMT+02:00 2023,46.089800931666666,11.115511225,2.217562,136.050629,-1.125653,1
SMAR,2023-04-04 12:37:32:141 GMT+02:00 2023,null,null,278.83,81.05,85.91,null
SMAR,2023-04-04 12:37:32:171 GMT+02:00 2023,null,null,280.56,79.45,85.92,null
SMAR,2023-04-04 12:37:32:204 GMT+02:00 2023,null,null,281.1,79.01,85.93,null
SMAR,2023-04-04 12:37:32:235 GMT+02:00 2023,null,null,281.5,78.68,85.98,null
SMAR,2023-04-04 12:37:32:271 GMT+02:00 2023,null,null,281.16,79.08,85.99,null
STON,2023-04-04 12:37:32:277 GMT+02:00 2023,46.089800931666666,11.115511225,2.162795,136.225708,-0.98804,1
SMAR,2023-04-04 12:37:32:301 GMT+02:00 2023,null,null,280.66,79.45,85.97,null
SMAR,2023-04-04 12:37:32:344 GMT+02:00 2023,null,null,280.28,79.81,86.12,null
SMAR,2023-04-04 12:37:32:371 GMT+02:00 2023,null,null,280.44,79.58,86.11,null
SMAR,2023-04-04 12:37:32:402 GMT+02:00 2023,null,null,280.3,79.72,86.09,null
SMAR,2023-04-04 12:37:32:435 GMT+02:00 2023,null,null,280.37,79.76,86.05,null
SMAR,2023-04-04 12:37:32:467 GMT+02:00 2023,null,null,279.94,80.22,86.05,null
STON,2023-04-04 12:37:32:472 GMT+02:00 2023,46.089800931666666,11.115511225,2.236476,135.957047,-0.851961,1
SMAR,2023-04-04 12:37:32:500 GMT+02:00 2023,null,null,278.93,81.2,86.07,null
SMAR,2023-04-04 12:37:32:536 GMT+02:00 2023,null,null,278.39,81.68,86.15,null
SMAR,2023-04-04 12:37:32:567 GMT+02:00 2023,null,null,277.89,82.06,86.17,null
SMAR,2023-04-04 12:37:32:608 GMT+02:00 2023,null,null,277.0,82.87,86.21,null
SMAR,2023-04-04 12:37:32:634 GMT+02:00 2023,null,null,277.63,82.23,86.26,null
SMAR,2023-04-04 12:37:32:669 GMT+02:00 2023,null,null,276.54,83.27,86.27,null
SMAR,2023-04-04 12:37:32:711 GMT+02:00 2023,null,null,276.23,83.66,86.27,null
STON,2023-04-04 12:37:32:720 GMT+02:00 2023,46.089800931666666,11.115511225,2.262995,135.967789,-0.798935,1
SMAR,2023-04-04 12:37:32:737 GMT+02:00 2023,null,null,277.82,82.17,86.17,null
SMAR,2023-04-04 12:37:32:767 GMT+02:00 2023,null,null,277.29,82.78,86.18,null
SMAR,2023-04-04 12:37:32:798 GMT+02:00 2023,null,null,276.89,83.23,86.21,null
STON,2023-04-04 12:37:32:811 GMT+02:00 2023,46.089800913333335,11.115511186666666,2.262995,135.967789,-0.798935,1
SMAR,2023-04-04 12:37:32:832 GMT+02:00 2023,null,null,277.96,82.15,86.22,null
STON,2023-04-04 12:37:32:853 GMT+02:00 2023,46.089800913333335,11.115511186666666,2.262995,135.967789,-0.798935,1
SMAR,2023-04-04 12:37:32:874 GMT+02:00 2023,null,null,277.45,82.6,86.25,null
SMAR,2023-04-04 12:37:32:904 GMT+02:00 2023,null,null,276.67,83.35,86.28,null
SMAR,2023-04-04 12:37:32:934 GMT+02:00 2023,null,null,276.9,83.12,86.31,null
STON,2023-04-04 12:37:32:938 GMT+02:00 2023,46.089800913333335,11.115511186666666,2.341894,135.466873,-0.70364,1
SMAR,2023-04-04 12:37:32:967 GMT+02:00 2023,null,null,276.4,83.66,86.33,null
SMAR,2023-04-04 12:37:32:998 GMT+02:00 2023,null,null,276.07,84.07,86.35,null
SMAR,2023-04-04 12:37:33:033 GMT+02:00 2023,null,null,0.0,356.62,90.0,null
SMAR,2023-04-04 12:37:33:065 GMT+02:00 2023,null,null,0.0,356.69,90.0,null
STON,2023-04-04 12:37:33:069 GMT+02:00 2023,46.089800913333335,11.115511186666666,2.476087,135.437607,-0.476682,1
SMAR,2023-04-04 12:37:33:102 GMT+02:00 2023,null,null,0.0,356.73,90.0,null
SMAR,2023-04-04 12:37:33:139 GMT+02:00 2023,null,null,0.0,356.72,90.0,null
SMAR,2023-04-04 12:37:33:169 GMT+02:00 2023,null,null,0.0,356.71,90.0,null
SMAR,2023-04-04 12:37:33:209 GMT+02:00 2023,null,null,0.0,356.85,90.0,null
SMAR,2023-04-04 12:37:33:238 GMT+02:00 2023,null,null,0.0,356.96,90.0,null
STON,2023-04-04 12:37:33:261 GMT+02:00 2023,46.089800913333335,11.115511186666666,2.402144,135.3535,-0.306081,1
SMAR,2023-04-04 12:37:33:272 GMT+02:00 2023,null,null,0.0,356.95,90.0,null
SMAR,2023-04-04 12:37:33:303 GMT+02:00 2023,null,null,0.0,356.94,90.0,null
SMAR,2023-04-04 12:37:33:333 GMT+02:00 2023,null,null,0.0,356.94,90.0,null
SMAR,2023-04-04 12:37:33:368 GMT+02:00 2023,null,null,0.0,356.98,90.0,null
SMAR,2023-04-04 12:37:33:400 GMT+02:00 2023,null,null,0.0,357.06,90.0,null
SMAR,2023-04-04 12:37:33:434 GMT+02:00 2023,null,null,0.0,357.2,90.0,null
SMAR,2023-04-04 12:37:33:468 GMT+02:00 2023,null,null,0.0,357.36,90.0,null
SMAR,2023-04-04 12:37:33:502 GMT+02:00 2023,null,null,0.0,357.43,90.0,null
STON,2023-04-04 12:37:33:514 GMT+02:00 2023,46.089800913333335,11.115511186666666,2.280669,135.321136,-0.226892,1
SMAR,2023-04-04 12:37:33:537 GMT+02:00 2023,null,null,0.0,357.36,90.0,null
SMAR,2023-04-04 12:37:33:574 GMT+02:00 2023,null,null,0.0,357.25,90.0,null
SMAR,2023-04-04 12:37:33:603 GMT+02:00 2023,null,null,0.0,357.13,90.0,null
SMAR,2023-04-04 12:37:33:636 GMT+02:00 2023,null,null,0.0,356.97,90.0,null
SMAR,2023-04-04 12:37:33:668 GMT+02:00 2023,null,null,0.0,356.8,90.0,null
SMAR,2023-04-04 12:37:33:704 GMT+02:00 2023,null,null,0.0,356.74,90.0,null
SMAR,2023-04-04 12:37:33:738 GMT+02:00 2023,null,null,0.0,356.77,90.0,null
SMAR,2023-04-04 12:37:33:769 GMT+02:00 2023,null,null,0.0,356.93,90.0,null
SMAR,2023-04-04 12:37:33:807 GMT+02:00 2023,null,null,0.0,357.13,90.0,null
SMAR,2023-04-04 12:37:33:843 GMT+02:00 2023,null,null,0.0,357.38,90.0,null
SMAR,2023-04-04 12:37:33:873 GMT+02:00 2023,null,null,0.0,357.54,90.0,null
SMAR,2023-04-04 12:37:33:905 GMT+02:00 2023,null,null,0.0,357.68,90.0,null
SMAR,2023-04-04 12:37:33:935 GMT+02:00 2023,null,null,0.0,357.78,90.0,null
STON,2023-04-04 12:37:33:949 GMT+02:00 2023,46.089800913333335,11.115511186666666,2.074769,134.665482,-0.387484,1
STON,2023-04-04 12:37:33:953 GMT+02:00 2023,46.08980079166667,11.115511063333333,2.074769,134.665482,-0.387484,1
SMAR,2023-04-04 12:37:33:969 GMT+02:00 2023,null,null,0.0,357.89,90.0,null
STON,2023-04-04 12:37:33:975 GMT+02:00 2023,46.08980079166667,11.115511063333333,2.074769,134.665482,-0.387484,1
STON,2023-04-04 12:37:33:981 GMT+02:00 2023,46.08980079166667,11.115511063333333,1.821826,134.457626,-0.739131,1
SMAR,2023-04-04 12:37:34:001 GMT+02:00 2023,null,null,285.13,76.41,86.36,null
SMAR,2023-04-04 12:37:34:036 GMT+02:00 2023,null,null,285.96,75.75,86.31,null
STON,2023-04-04 12:37:34:059 GMT+02:00 2023,46.08980079166667,11.115511063333333,1.635459,133.272537,-1.083753,1
SMAR,2023-04-04 12:37:34:077 GMT+02:00 2023,null,null,286.52,75.33,86.27,null
SMAR,2023-04-04 12:37:34:110 GMT+02:00 2023,null,null,287.32,74.62,86.24,null
SMAR,2023-04-04 12:37:34:147 GMT+02:00 2023,null,null,288.05,73.96,86.22,null
SMAR,2023-04-04 12:37:34:199 GMT+02:00 2023,null,null,289.01,73.11,86.2,null
SMAR,2023-04-04 12:37:34:216 GMT+02:00 2023,null,null,289.83,72.42,86.16,null
SMAR,2023-04-04 12:37:34:247 GMT+02:00 2023,null,null,290.29,72.04,86.14,null
SMAR,2023-04-04 12:37:34:281 GMT+02:00 2023,null,null,290.7,71.67,86.11,null
STON,2023-04-04 12:37:34:286 GMT+02:00 2023,46.08980079166667,11.115511063333333,1.465548,132.469543,-1.394576,1
SMAR,2023-04-04 12:37:34:313 GMT+02:00 2023,null,null,290.99,71.38,86.09,null
SMAR,2023-04-04 12:37:34:342 GMT+02:00 2023,null,null,291.02,71.36,86.08,null
SMAR,2023-04-04 12:37:34:377 GMT+02:00 2023,null,null,291.0,71.38,86.08,null
SMAR,2023-04-04 12:37:34:415 GMT+02:00 2023,null,null,291.11,71.27,86.08,null
SMAR,2023-04-04 12:37:34:448 GMT+02:00 2023,null,null,291.05,71.33,86.09,null
SMAR,2023-04-04 12:37:34:481 GMT+02:00 2023,null,null,290.96,71.36,86.12,null
SMAR,2023-04-04 12:37:34:513 GMT+02:00 2023,null,null,290.97,71.31,86.16,null
SMAR,2023-04-04 12:37:34:548 GMT+02:00 2023,null,null,290.97,71.24,86.19,null
SMAR,2023-04-04 12:37:34:583 GMT+02:00 2023,null,null,290.98,71.13,86.24,null
SMAR,2023-04-04 12:37:34:614 GMT+02:00 2023,null,null,290.89,71.1,86.3,null
SMAR,2023-04-04 12:37:34:648 GMT+02:00 2023,null,null,290.59,71.31,86.35,null
STON,2023-04-04 12:37:34:657 GMT+02:00 2023,46.08980079166667,11.115511063333333,1.368661,132.620193,-1.421925,1
SMAR,2023-04-04 12:37:34:683 GMT+02:00 2023,null,null,0.0,358.47,90.0,null
SMAR,2023-04-04 12:37:34:714 GMT+02:00 2023,null,null,0.0,358.45,90.0,null
STON,2023-04-04 12:37:34:720 GMT+02:00 2023,46.0898008,11.11551153,1.368661,132.620193,-1.421925,1
STON,2023-04-04 12:37:34:725 GMT+02:00 2023,46.0898008,11.11551153,1.368661,132.620193,-1.421925,1
SMAR,2023-04-04 12:37:34:743 GMT+02:00 2023,null,null,0.0,358.46,90.0,null
SMAR,2023-04-04 12:37:34:775 GMT+02:00 2023,null,null,0.0,358.48,90.0,null
SMAR,2023-04-04 12:37:34:809 GMT+02:00 2023,null,null,0.0,358.45,90.0,null
SMAR,2023-04-04 12:37:34:843 GMT+02:00 2023,null,null,0.0,358.46,90.0,null
SMAR,2023-04-04 12:37:34:878 GMT+02:00 2023,null,null,0.0,358.46,90.0,null
SMAR,2023-04-04 12:37:34:913 GMT+02:00 2023,null,null,0.0,358.48,90.0,null
SMAR,2023-04-04 12:37:34:943 GMT+02:00 2023,null,null,0.0,358.5,90.0,null
SMAR,2023-04-04 12:37:34:972 GMT+02:00 2023,null,null,0.0,358.54,90.0,null
SMAR,2023-04-04 12:37:35:004 GMT+02:00 2023,null,null,0.0,358.65,90.0,null
SMAR,2023-04-04 12:37:35:041 GMT+02:00 2023,null,null,0.0,358.86,90.0,null
SMAR,2023-04-04 12:37:35:077 GMT+02:00 2023,null,null,0.0,358.88,90.0,null
STON,2023-04-04 12:37:35:091 GMT+02:00 2023,46.0898008,11.11551153,1.174789,133.046417,-0.83327,1
SMAR,2023-04-04 12:37:35:110 GMT+02:00 2023,null,null,0.0,359.0,90.0,null
SMAR,2023-04-04 12:37:35:150 GMT+02:00 2023,null,null,0.0,359.14,90.0,null
SMAR,2023-04-04 12:37:35:186 GMT+02:00 2023,null,null,0.0,359.3,90.0,null
SMAR,2023-04-04 12:37:35:214 GMT+02:00 2023,null,null,0.0,359.39,90.0,null
SMAR,2023-04-04 12:37:35:244 GMT+02:00 2023,null,null,0.0,359.35,90.0,null
SMAR,2023-04-04 12:37:35:277 GMT+02:00 2023,null,null,0.0,359.27,90.0,null
SMAR,2023-04-04 12:37:35:315 GMT+02:00 2023,null,null,0.0,359.19,90.0,null
SMAR,2023-04-04 12:37:35:349 GMT+02:00 2023,null,null,0.0,359.1,90.0,null
STON,2023-04-04 12:37:35:356 GMT+02:00 2023,46.0898008,11.11551153,1.134834,132.654892,-0.490663,1
SMAR,2023-04-04 12:37:35:380 GMT+02:00 2023,null,null,0.0,359.17,90.0,null
SMAR,2023-04-04 12:37:35:413 GMT+02:00 2023,null,null,0.0,359.3,90.0,null
SMAR,2023-04-04 12:37:35:445 GMT+02:00 2023,null,null,0.0,359.45,90.0,null
SMAR,2023-04-04 12:37:35:481 GMT+02:00 2023,null,null,0.0,359.56,90.0,null
SMAR,2023-04-04 12:37:35:517 GMT+02:00 2023,null,null,0.0,359.6,90.0,null
STON,2023-04-04 12:37:35:525 GMT+02:00 2023,46.0898008,11.11551153,1.113534,133.045471,-0.133546,1
SMAR,2023-04-04 12:37:35:549 GMT+02:00 2023,null,null,0.0,359.57,90.0,null
SMAR,2023-04-04 12:37:35:580 GMT+02:00 2023,null,null,0.0,359.5,90.0,null
SMAR,2023-04-04 12:37:35:621 GMT+02:00 2023,null,null,0.0,359.52,90.0,null
SMAR,2023-04-04 12:37:35:649 GMT+02:00 2023,null,null,0.0,359.59,90.0,null
SMAR,2023-04-04 12:37:35:689 GMT+02:00 2023,null,null,0.0,359.71,90.0,null
SMAR,2023-04-04 12:37:35:716 GMT+02:00 2023,null,null,0.0,0.06,90.0,null
STON,2023-04-04 12:37:35:725 GMT+02:00 2023,46.0898008,11.11551153,1.160095,132.584595,-0.174417,1
STON,2023-04-04 12:37:35:731 GMT+02:00 2023,46.08980055666667,11.11551118,1.160095,132.584595,-0.174417,1
SMAR,2023-04-04 12:37:35:746 GMT+02:00 2023,null,null,0.0,0.43,90.0,null
STON,2023-04-04 12:37:35:757 GMT+02:00 2023,46.08980055666667,11.11551118,1.160095,132.584595,-0.174417,1
SMAR,2023-04-04 12:37:35:777 GMT+02:00 2023,46.0898638,11.1155626,0.0,0.85,90.0,null
SMAR,2023-04-04 12:37:35:811 GMT+02:00 2023,46.0898638,11.1155626,0.0,1.24,90.0,null
SMAR,2023-04-04 12:37:35:848 GMT+02:00 2023,46.0898638,11.1155626,0.0,1.52,90.0,null
SMAR,2023-04-04 12:37:35:887 GMT+02:00 2023,46.0898638,11.1155626,0.0,1.72,90.0,null
SMAR,2023-04-04 12:37:35:920 GMT+02:00 2023,46.0898638,11.1155626,0.0,1.79,90.0,null
SMAR,2023-04-04 12:37:35:948 GMT+02:00 2023,46.0898638,11.1155626,0.0,1.71,90.0,null
STON,2023-04-04 12:37:35:952 GMT+02:00 2023,46.08980055666667,11.11551118,1.212717,130.167618,-0.457716,1
SMAR,2023-04-04 12:37:35:978 GMT+02:00 2023,46.0898638,11.1155626,0.0,1.48,90.0,null
SMAR,2023-04-04 12:37:36:012 GMT+02:00 2023,46.0898638,11.1155626,0.0,1.33,90.0,null
SMAR,2023-04-04 12:37:36:055 GMT+02:00 2023,46.0898638,11.1155626,0.0,1.4,90.0,null
SMAR,2023-04-04 12:37:36:086 GMT+02:00 2023,46.0898638,11.1155626,283.84,81.52,86.33,null
SMAR,2023-04-04 12:37:36:119 GMT+02:00 2023,46.0898638,11.1155626,286.15,80.03,86.16,null
STON,2023-04-04 12:37:36:122 GMT+02:00 2023,46.08980055666667,11.11551118,1.420164,129.176147,-1.177592,1
SMAR,2023-04-04 12:37:36:150 GMT+02:00 2023,46.0898638,11.1155626,287.03,79.97,86.01,null
SMAR,2023-04-04 12:37:36:180 GMT+02:00 2023,46.0898638,11.1155626,286.67,81.12,85.89,null
SMAR,2023-04-04 12:37:36:215 GMT+02:00 2023,46.0898686,11.1155606,286.76,81.91,85.81,null
SMAR,2023-04-04 12:37:36:243 GMT+02:00 2023,46.0898686,11.1155606,287.36,82.08,85.68,null
SMAR,2023-04-04 12:37:36:280 GMT+02:00 2023,46.0898686,11.1155606,287.73,82.23,85.49,null
SMAR,2023-04-04 12:37:36:313 GMT+02:00 2023,46.0898686,11.1155606,287.82,82.32,85.36,null
STON,2023-04-04 12:37:36:319 GMT+02:00 2023,46.08980055666667,11.11551118,1.654648,125.602852,-1.884415,1
SMAR,2023-04-04 12:37:36:349 GMT+02:00 2023,46.0898686,11.1155606,287.55,82.53,85.26,null
SMAR,2023-04-04 12:37:36:382 GMT+02:00 2023,46.0898686,11.1155606,287.34,82.66,85.17,null
SMAR,2023-04-04 12:37:36:421 GMT+02:00 2023,46.0898686,11.1155606,287.32,82.64,85.08,null
SMAR,2023-04-04 12:37:36:451 GMT+02:00 2023,46.0898686,11.1155606,286.56,83.32,84.95,null
SMAR,2023-04-04 12:37:36:485 GMT+02:00 2023,46.0898686,11.1155606,286.54,83.19,84.91,null
SMAR,2023-04-04 12:37:36:517 GMT+02:00 2023,46.0898686,11.1155606,286.75,82.82,84.88,null
SMAR,2023-04-04 12:37:36:548 GMT+02:00 2023,46.0898686,11.1155606,288.05,81.45,84.83,null
STON,2023-04-04 12:37:36:555 GMT+02:00 2023,46.08980055666667,11.11551118,2.006511,123.838394,-2.473251,1
SMAR,2023-04-04 12:37:36:577 GMT+02:00 2023,46.0898686,11.1155606,289.05,80.42,84.79,null
SMAR,2023-04-04 12:37:36:613 GMT+02:00 2023,46.0898686,11.1155606,289.59,79.88,84.81,null
SMAR,2023-04-04 12:37:36:652 GMT+02:00 2023,46.0898686,11.1155606,290.48,79.1,84.82,null
SMAR,2023-04-04 12:37:36:681 GMT+02:00 2023,46.0898686,11.1155606,291.53,78.24,84.87,null
STON,2023-04-04 12:37:36:688 GMT+02:00 2023,46.08980055666667,11.11551118,2.095543,124.12072,-2.796375,1
STON,2023-04-04 12:37:36:690 GMT+02:00 2023,46.08980121,11.115511625,2.095543,124.12072,-2.796375,1
SMAR,2023-04-04 12:37:36:711 GMT+02:00 2023,46.0898686,11.1155606,292.47,77.51,84.95,null
STON,2023-04-04 12:37:36:720 GMT+02:00 2023,46.08980121,11.115511625,2.095543,124.12072,-2.796375,1
SMAR,2023-04-04 12:37:36:745 GMT+02:00 2023,46.0898686,11.1155606,293.32,76.87,85.04,null
SMAR,2023-04-04 12:37:36:780 GMT+02:00 2023,46.0898686,11.1155606,294.07,76.38,85.13,null
SMAR,2023-04-04 12:37:36:819 GMT+02:00 2023,46.0898686,11.1155606,295.06,75.69,85.18,null
SMAR,2023-04-04 12:37:36:850 GMT+02:00 2023,46.0898686,11.1155606,295.69,75.4,85.17,null
SMAR,2023-04-04 12:37:36:882 GMT+02:00 2023,46.0898686,11.1155606,296.33,74.99,85.16,null
SMAR,2023-04-04 12:37:36:914 GMT+02:00 2023,46.0898686,11.1155606,296.89,74.49,85.16,null
SMAR,2023-04-04 12:37:36:950 GMT+02:00 2023,46.0898686,11.1155606,297.36,73.92,85.19,null
SMAR,2023-04-04 12:37:36:984 GMT+02:00 2023,46.0898686,11.1155606,297.67,73.48,85.19,null
SMAR,2023-04-04 12:37:37:014 GMT+02:00 2023,46.0898686,11.1155606,297.81,73.27,85.2,null
SMAR,2023-04-04 12:37:37:054 GMT+02:00 2023,46.0898686,11.1155606,297.66,73.43,85.21,null
SMAR,2023-04-04 12:37:37:086 GMT+02:00 2023,46.0898686,11.1155606,297.4,73.75,85.22,null
STON,2023-04-04 12:37:37:092 GMT+02:00 2023,46.08980121,11.115511625,1.218399,122.15477,-2.665253,1
SMAR,2023-04-04 12:37:37:113 GMT+02:00 2023,46.0898686,11.1155606,297.23,73.96,85.2,null
SMAR,2023-04-04 12:37:37:146 GMT+02:00 2023,46.0898734,11.1155603,296.98,74.23,85.15,null
SMAR,2023-04-04 12:37:37:178 GMT+02:00 2023,46.0898734,11.1155603,296.61,74.64,85.14,null
SMAR,2023-04-04 12:37:37:214 GMT+02:00 2023,46.0898734,11.1155603,296.09,75.13,85.13,null
SMAR,2023-04-04 12:37:37:250 GMT+02:00 2023,46.0898734,11.1155603,295.65,75.51,85.09,null
SMAR,2023-04-04 12:37:37:284 GMT+02:00 2023,46.0898734,11.1155603,295.18,75.91,85.07,null
SMAR,2023-04-04 12:37:37:326 GMT+02:00 2023,46.0898734,11.1155603,294.8,76.28,85.06,null
SMAR,2023-04-04 12:37:37:360 GMT+02:00 2023,46.0898734,11.1155603,294.52,76.58,85.04,null
STON,2023-04-04 12:37:37:364 GMT+02:00 2023,46.08980121,11.115511625,1.231369,121.726067,-2.662719,1
SMAR,2023-04-04 12:37:37:390 GMT+02:00 2023,46.0898734,11.1155603,294.34,76.76,85.03,null
SMAR,2023-04-04 12:37:37:418 GMT+02:00 2023,46.0898734,11.1155603,294.13,76.94,85.04,null
SMAR,2023-04-04 12:37:37:452 GMT+02:00 2023,46.0898734,11.1155603,294.0,77.05,85.05,null
SMAR,2023-04-04 12:37:37:491 GMT+02:00 2023,46.0898734,11.1155603,293.85,77.14,85.05,null
STON,2023-04-04 12:37:37:496 GMT+02:00 2023,46.08980121,11.115511625,1.479655,121.734192,-2.689492,1
SMAR,2023-04-04 12:37:37:522 GMT+02:00 2023,46.0898734,11.1155603,293.73,77.13,85.05,null
SMAR,2023-04-04 12:37:37:554 GMT+02:00 2023,46.0898734,11.1155603,293.42,77.32,85.05,null
SMAR,2023-04-04 12:37:37:591 GMT+02:00 2023,46.0898734,11.1155603,293.1,77.57,85.07,null
SMAR,2023-04-04 12:37:37:618 GMT+02:00 2023,46.0898734,11.1155603,292.78,77.83,85.09,null
SMAR,2023-04-04 12:37:37:649 GMT+02:00 2023,46.0898734,11.1155603,292.92,77.57,85.07,null
SMAR,2023-04-04 12:37:37:683 GMT+02:00 2023,46.08988,11.1155653,292.64,77.71,85.09,null
SMAR,2023-04-04 12:37:37:713 GMT+02:00 2023,46.08988,11.1155653,292.41,77.8,85.1,null
STON,2023-04-04 12:37:37:721 GMT+02:00 2023,46.08980121,11.115511625,1.527317,121.880745,-2.520519,1
SMAR,2023-04-04 12:37:37:746 GMT+02:00 2023,46.08988,11.1155653,292.23,77.85,85.1,null
SMAR,2023-04-04 12:37:37:799 GMT+02:00 2023,46.08988,11.1155653,292.14,77.86,85.11,null
SMAR,2023-04-04 12:37:37:826 GMT+02:00 2023,46.08988,11.1155653,292.01,77.91,85.14,null
STON,2023-04-04 12:37:37:830 GMT+02:00 2023,46.08980105333333,11.115511686666666,1.527317,121.880745,-2.520519,1
STON,2023-04-04 12:37:37:833 GMT+02:00 2023,46.08980105333333,11.115511686666666,1.527317,121.880745,-2.520519,1
SMAR,2023-04-04 12:37:37:868 GMT+02:00 2023,46.08988,11.1155653,291.91,77.91,85.17,null
SMAR,2023-04-04 12:37:37:891 GMT+02:00 2023,46.08988,11.1155653,291.73,78.02,85.2,null
STON,2023-04-04 12:37:37:899 GMT+02:00 2023,46.08980105333333,11.115511686666666,1.622445,122.476814,-2.43308,1
SMAR,2023-04-04 12:37:37:924 GMT+02:00 2023,46.08988,11.1155653,291.44,78.23,85.23,null
SMAR,2023-04-04 12:37:37:955 GMT+02:00 2023,46.08988,11.1155653,291.02,78.54,85.28,null
SMAR,2023-04-04 12:37:37:985 GMT+02:00 2023,46.08988,11.1155653,290.71,78.73,85.31,null
SMAR,2023-04-04 12:37:38:014 GMT+02:00 2023,46.08988,11.1155653,290.36,78.98,85.34,null
SMAR,2023-04-04 12:37:38:050 GMT+02:00 2023,46.08988,11.1155653,289.92,79.3,85.35,null
SMAR,2023-04-04 12:37:38:086 GMT+02:00 2023,46.08988,11.1155653,289.53,79.55,85.38,null
STON,2023-04-04 12:37:38:096 GMT+02:00 2023,46.08980105333333,11.115511686666666,1.596501,122.904472,-2.191722,1
SMAR,2023-04-04 12:37:38:115 GMT+02:00 2023,46.08988,11.1155653,289.15,79.87,85.42,null
SMAR,2023-04-04 12:37:38:151 GMT+02:00 2023,46.08988,11.1155653,288.82,80.17,85.45,null
SMAR,2023-04-04 12:37:38:191 GMT+02:00 2023,46.0898877,11.1155682,288.5,80.43,85.48,null
SMAR,2023-04-04 12:37:38:222 GMT+02:00 2023,46.0898877,11.1155682,288.09,80.69,85.52,null
SMAR,2023-04-04 12:37:38:257 GMT+02:00 2023,46.0898877,11.1155682,287.59,80.98,85.56,null
SMAR,2023-04-04 12:37:38:285 GMT+02:00 2023,46.0898877,11.1155682,287.42,80.92,85.6,null
SMAR,2023-04-04 12:37:38:317 GMT+02:00 2023,46.0898877,11.1155682,287.84,80.38,85.62,null
STON,2023-04-04 12:37:38:326 GMT+02:00 2023,46.08980105333333,11.115511686666666,1.716706,123.477219,-2.024546,1
SMAR,2023-04-04 12:37:38:350 GMT+02:00 2023,46.0898877,11.1155682,287.49,80.7,85.65,null
SMAR,2023-04-04 12:37:38:385 GMT+02:00 2023,46.0898877,11.1155682,287.16,80.98,85.68,null
SMAR,2023-04-04 12:37:38:425 GMT+02:00 2023,46.0898877,11.1155682,286.91,81.1,85.74,null
SMAR,2023-04-04 12:37:38:459 GMT+02:00 2023,46.0898877,11.1155682,286.58,81.22,85.77,null
SMAR,2023-04-04 12:37:38:490 GMT+02:00 2023,46.0898877,11.1155682,286.37,81.28,85.81,null
SMAR,2023-04-04 12:37:38:520 GMT+02:00 2023,46.0898877,11.1155682,286.59,81.0,85.83,null
STON,2023-04-04 12:37:38:526 GMT+02:00 2023,46.08980105333333,11.115511686666666,1.774466,124.129623,-1.738741,1
SMAR,2023-04-04 12:37:38:555 GMT+02:00 2023,46.0898877,11.1155682,286.8,80.78,85.82,null
SMAR,2023-04-04 12:37:38:587 GMT+02:00 2023,46.0898877,11.1155682,286.51,80.94,85.84,null
SMAR,2023-04-04 12:37:38:622 GMT+02:00 2023,46.0898877,11.1155682,286.1,81.19,85.89,null
SMAR,2023-04-04 12:37:38:652 GMT+02:00 2023,46.0898877,11.1155682,285.72,81.44,85.94,null
SMAR,2023-04-04 12:37:38:692 GMT+02:00 2023,46.0898899,11.1155706,285.43,81.65,85.99,null
STON,2023-04-04 12:37:38:700 GMT+02:00 2023,46.08980105333333,11.115511686666666,1.810753,124.884613,-1.538841,1
SMAR,2023-04-04 12:37:38:726 GMT+02:00 2023,46.0898899,11.1155706,285.15,81.87,86.04,null
STON,2023-04-04 12:37:38:736 GMT+02:00 2023,46.089800913333335,11.115511368333333,1.810753,124.884613,-1.538841,1
STON,2023-04-04 12:37:38:741 GMT+02:00 2023,46.089800913333335,11.115511368333333,1.810753,124.884613,-1.538841,1
SMAR,2023-04-04 12:37:38:755 GMT+02:00 2023,46.0898899,11.1155706,284.83,82.08,86.05,null
SMAR,2023-04-04 12:37:38:793 GMT+02:00 2023,46.0898899,11.1155706,284.74,82.01,86.07,null
SMAR,2023-04-04 12:37:38:821 GMT+02:00 2023,46.0898899,11.1155706,284.57,81.9,86.1,null
SMAR,2023-04-04 12:37:38:852 GMT+02:00 2023,46.0898899,11.1155706,284.69,81.51,86.13,null
SMAR,2023-04-04 12:37:38:889 GMT+02:00 2023,46.0898899,11.1155706,284.73,81.2,86.16,null
SMAR,2023-04-04 12:37:38:931 GMT+02:00 2023,46.0898899,11.1155706,284.96,80.72,86.19,null
STON,2023-04-04 12:37:38:939 GMT+02:00 2023,46.089800913333335,11.115511368333333,1.805097,125.455498,-1.270424,1
SMAR,2023-04-04 12:37:38:964 GMT+02:00 2023,46.0898899,11.1155706,285.39,80.1,86.21,null
SMAR,2023-04-04 12:37:38:993 GMT+02:00 2023,46.0898899,11.1155706,285.67,79.59,86.23,null
SMAR,2023-04-04 12:37:39:027 GMT+02:00 2023,46.0898899,11.1155706,285.96,79.01,86.27,null
SMAR,2023-04-04 12:37:39:062 GMT+02:00 2023,46.0898899,11.1155706,286.14,78.49,86.32,null
SMAR,2023-04-04 12:37:39:090 GMT+02:00 2023,46.0898899,11.1155706,286.4,77.91,86.35,null
SMAR,2023-04-04 12:37:39:130 GMT+02:00 2023,46.0898899,11.1155706,286.7,77.25,86.37,null
SMAR,2023-04-04 12:37:39:161 GMT+02:00 2023,46.0898899,11.1155706,0.0,0.18,90.0,null
SMAR,2023-04-04 12:37:39:198 GMT+02:00 2023,46.0898899,11.1155706,0.0,359.91,90.0,null
SMAR,2023-04-04 12:37:39:226 GMT+02:00 2023,46.0898899,11.1155706,0.0,359.65,90.0,null
SMAR,2023-04-04 12:37:39:267 GMT+02:00 2023,46.0898899,11.1155706,0.0,359.38,90.0,null
SMAR,2023-04-04 12:37:39:295 GMT+02:00 2023,46.0898899,11.1155706,0.0,359.09,90.0,null
SMAR,2023-04-04 12:37:39:326 GMT+02:00 2023,46.0898899,11.1155706,0.0,358.79,90.0,null
SMAR,2023-04-04 12:37:39:355 GMT+02:00 2023,46.0898899,11.1155706,0.0,358.49,90.0,null
SMAR,2023-04-04 12:37:39:389 GMT+02:00 2023,46.0898899,11.1155706,0.0,358.19,90.0,null
SMAR,2023-04-04 12:37:39:423 GMT+02:00 2023,46.0898899,11.1155706,0.0,357.94,90.0,null
SMAR,2023-04-04 12:37:39:451 GMT+02:00 2023,46.0898899,11.1155706,0.0,357.72,90.0,null
SMAR,2023-04-04 12:37:39:493 GMT+02:00 2023,46.0898899,11.1155706,0.0,357.45,90.0,null
SMAR,2023-04-04 12:37:39:522 GMT+02:00 2023,46.0898899,11.1155706,0.0,357.14,90.0,null
STON,2023-04-04 12:37:39:530 GMT+02:00 2023,46.089800913333335,11.115511368333333,1.690371,126.810677,-1.123909,1
SMAR,2023-04-04 12:37:39:552 GMT+02:00 2023,46.0898899,11.1155706,0.0,356.83,90.0,null
STON,2023-04-04 12:37:39:562 GMT+02:00 2023,46.089800913333335,11.115511368333333,1.477176,128.647934,-1.044375,1
SMAR,2023-04-04 12:37:39:583 GMT+02:00 2023,46.0898899,11.1155706,0.0,356.51,90.0,null
SMAR,2023-04-04 12:37:39:621 GMT+02:00 2023,46.0898899,11.1155706,0.0,356.23,90.0,null
SMAR,2023-04-04 12:37:39:653 GMT+02:00 2023,46.0898899,11.1155706,0.0,355.95,90.0,null
SMAR,2023-04-04 12:37:39:689 GMT+02:00 2023,46.0898918,11.1155737,0.0,355.63,90.0,null
STON,2023-04-04 12:37:39:699 GMT+02:00 2023,46.089800913333335,11.115511368333333,0.993924,132.533401,-0.965778,1
SMAR,2023-04-04 12:37:39:727 GMT+02:00 2023,46.0898918,11.1155737,0.0,355.36,90.0,null
SMAR,2023-04-04 12:37:39:763 GMT+02:00 2023,46.0898918,11.1155737,0.0,355.16,90.0,null
STON,2023-04-04 12:37:39:767 GMT+02:00 2023,46.08980064666667,11.115511475,0.993924,132.533401,-0.965778,1
STON,2023-04-04 12:37:39:769 GMT+02:00 2023,46.08980064666667,11.115511475,0.993924,132.533401,-0.965778,1
SMAR,2023-04-04 12:37:39:792 GMT+02:00 2023,46.0898918,11.1155737,0.0,354.87,90.0,null
SMAR,2023-04-04 12:37:39:828 GMT+02:00 2023,46.0898918,11.1155737,0.0,354.54,90.0,null
SMAR,2023-04-04 12:37:39:858 GMT+02:00 2023,46.0898918,11.1155737,0.0,354.24,90.0,null
SMAR,2023-04-04 12:37:39:890 GMT+02:00 2023,46.0898918,11.1155737,0.0,353.96,90.0,null
STON,2023-04-04 12:37:39:897 GMT+02:00 2023,46.08980064666667,11.115511475,0.709617,134.505264,-1.028961,1
SMAR,2023-04-04 12:37:39:925 GMT+02:00 2023,46.0898918,11.1155737,0.0,353.67,90.0,null
SMAR,2023-04-04 12:37:39:959 GMT+02:00 2023,46.0898918,11.1155737,0.0,353.44,90.0,null
SMAR,2023-04-04 12:37:39:997 GMT+02:00 2023,46.0898918,11.1155737,0.0,353.21,90.0,null
SMAR,2023-04-04 12:37:40:027 GMT+02:00 2023,46.0898918,11.1155737,0.0,352.98,90.0,null
SMAR,2023-04-04 12:37:40:058 GMT+02:00 2023,46.0898918,11.1155737,0.0,352.77,90.0,null
SMAR,2023-04-04 12:37:40:088 GMT+02:00 2023,46.0898918,11.1155737,0.0,352.52,90.0,null
STON,2023-04-04 12:37:40:095 GMT+02:00 2023,46.08980064666667,11.115511475,0.430912,136.634384,-1.190965,1
SMAR,2023-04-04 12:37:40:119 GMT+02:00 2023,46.0898918,11.1155737,0.0,352.28,90.0,null
SMAR,2023-04-04 12:37:40:158 GMT+02:00 2023,46.0898918,11.1155737,0.0,352.1,90.0,null
SMAR,2023-04-04 12:37:40:188 GMT+02:00 2023,46.0898918,11.1155737,0.0,351.91,90.0,null
SMAR,2023-04-04 12:37:40:221 GMT+02:00 2023,46.0898918,11.1155737,0.0,351.7,90.0,null
SMAR,2023-04-04 12:37:40:261 GMT+02:00 2023,46.0898918,11.1155737,0.0,351.46,90.0,null
SMAR,2023-04-04 12:37:40:289 GMT+02:00 2023,46.0898918,11.1155737,0.0,351.16,90.0,null
STON,2023-04-04 12:37:40:295 GMT+02:00 2023,46.08980064666667,11.115511475,0.220953,138.326096,-1.293276,1
SMAR,2023-04-04 12:37:40:320 GMT+02:00 2023,46.0898918,11.1155737,0.0,350.91,90.0,null
SMAR,2023-04-04 12:37:40:354 GMT+02:00 2023,46.0898918,11.1155737,0.0,350.78,90.0,null
SMAR,2023-04-04 12:37:40:390 GMT+02:00 2023,46.0898918,11.1155737,0.0,350.66,90.0,null
SMAR,2023-04-04 12:37:40:422 GMT+02:00 2023,46.0898918,11.1155737,0.0,350.52,90.0,null
SMAR,2023-04-04 12:37:40:457 GMT+02:00 2023,46.0898918,11.1155737,0.0,350.44,90.0,null
SMAR,2023-04-04 12:37:40:490 GMT+02:00 2023,46.0898918,11.1155737,0.0,350.3,90.0,null
SMAR,2023-04-04 12:37:40:522 GMT+02:00 2023,46.0898918,11.1155737,0.0,350.13,90.0,null
SMAR,2023-04-04 12:37:40:558 GMT+02:00 2023,46.0898918,11.1155737,0.0,350.0,90.0,null
STON,2023-04-04 12:37:40:564 GMT+02:00 2023,46.08980064666667,11.115511475,0.116404,140.030945,-1.443205,1
SMAR,2023-04-04 12:37:40:591 GMT+02:00 2023,46.0898918,11.1155737,0.0,349.87,90.0,null
SMAR,2023-04-04 12:37:40:629 GMT+02:00 2023,46.0898918,11.1155737,0.0,349.78,90.0,null
SMAR,2023-04-04 12:37:40:663 GMT+02:00 2023,46.0898918,11.1155737,0.0,349.75,90.0,null
SMAR,2023-04-04 12:37:40:689 GMT+02:00 2023,46.0898934,11.1155763,0.0,349.66,90.0,null
SMAR,2023-04-04 12:37:40:724 GMT+02:00 2023,46.0898934,11.1155763,0.0,349.59,90.0,null
SMAR,2023-04-04 12:37:40:757 GMT+02:00 2023,46.0898934,11.1155763,0.0,349.52,90.0,null
SMAR,2023-04-04 12:37:40:790 GMT+02:00 2023,46.0898934,11.1155763,311.67,39.98,86.37,null
STON,2023-04-04 12:37:40:796 GMT+02:00 2023,46.08980064666667,11.115511475,0.108265,141.145935,-1.407559,1
STON,2023-04-04 12:37:40:801 GMT+02:00 2023,46.089800485,11.11551184,0.108265,141.145935,-1.407559,1
STON,2023-04-04 12:37:40:805 GMT+02:00 2023,46.089800485,11.11551184,0.108265,141.145935,-1.407559,1
SMAR,2023-04-04 12:37:40:825 GMT+02:00 2023,46.0898934,11.1155763,311.8,39.62,86.35,null
SMAR,2023-04-04 12:37:40:858 GMT+02:00 2023,46.0898934,11.1155763,312.86,38.31,86.3,null
SMAR,2023-04-04 12:37:40:896 GMT+02:00 2023,46.0898934,11.1155763,313.04,37.95,86.3,null
SMAR,2023-04-04 12:37:40:932 GMT+02:00 2023,46.0898934,11.1155763,313.1,37.74,86.29,null
STON,2023-04-04 12:37:40:940 GMT+02:00 2023,46.089800485,11.11551184,0.077889,141.984695,-1.469279,1
SMAR,2023-04-04 12:37:40:962 GMT+02:00 2023,46.0898934,11.1155763,313.21,37.45,86.25,null
SMAR,2023-04-04 12:37:40:992 GMT+02:00 2023,46.0898934,11.1155763,313.26,37.15,86.25,null
SMAR,2023-04-04 12:37:41:027 GMT+02:00 2023,46.0898934,11.1155763,313.26,36.91,86.25,null
SMAR,2023-04-04 12:37:41:058 GMT+02:00 2023,46.0898934,11.1155763,313.27,36.69,86.22,null
SMAR,2023-04-04 12:37:41:091 GMT+02:00 2023,46.0898934,11.1155763,313.32,36.43,86.2,null
STON,2023-04-04 12:37:41:097 GMT+02:00 2023,46.089800485,11.11551184,0.027385,143.398422,-1.509857,1
SMAR,2023-04-04 12:37:41:123 GMT+02:00 2023,46.0898934,11.1155763,313.38,36.11,86.19,null
SMAR,2023-04-04 12:37:41:158 GMT+02:00 2023,46.0898934,11.1155763,313.63,35.62,86.17,null
SMAR,2023-04-04 12:37:41:196 GMT+02:00 2023,46.0898934,11.1155763,313.65,35.4,86.16,null
SMAR,2023-04-04 12:37:41:235 GMT+02:00 2023,46.0898934,11.1155763,313.6,35.28,86.15,null
SMAR,2023-04-04 12:37:41:271 GMT+02:00 2023,46.0898934,11.1155763,313.87,34.8,86.13,null
SMAR,2023-04-04 12:37:41:296 GMT+02:00 2023,46.0898934,11.1155763,313.86,34.61,86.13,null
STON,2023-04-04 12:37:41:301 GMT+02:00 2023,46.089800485,11.11551184,-0.003759,145.003357,-1.598523,1
SMAR,2023-04-04 12:37:41:328 GMT+02:00 2023,46.0898934,11.1155763,313.78,34.52,86.12,null
SMAR,2023-04-04 12:37:41:365 GMT+02:00 2023,46.0898934,11.1155763,314.18,33.94,86.11,null
SMAR,2023-04-04 12:37:41:395 GMT+02:00 2023,46.0898934,11.1155763,314.07,33.82,86.11,null
SMAR,2023-04-04 12:37:41:428 GMT+02:00 2023,46.0898934,11.1155763,313.98,33.72,86.11,null
SMAR,2023-04-04 12:37:41:462 GMT+02:00 2023,46.0898934,11.1155763,314.04,33.55,86.1,null
SMAR,2023-04-04 12:37:41:494 GMT+02:00 2023,46.0898934,11.1155763,313.91,33.58,86.1,null
SMAR,2023-04-04 12:37:41:529 GMT+02:00 2023,46.0898934,11.1155763,313.66,33.67,86.1,null
STON,2023-04-04 12:37:41:534 GMT+02:00 2023,46.089800485,11.11551184,0.002251,146.524704,-1.685061,1
SMAR,2023-04-04 12:37:41:562 GMT+02:00 2023,46.0898934,11.1155763,313.71,33.47,86.1,null
SMAR,2023-04-04 12:37:41:596 GMT+02:00 2023,46.0898934,11.1155763,313.53,33.51,86.09,null
SMAR,2023-04-04 12:37:41:627 GMT+02:00 2023,46.0898934,11.1155763,313.36,33.54,86.09,null
SMAR,2023-04-04 12:37:41:659 GMT+02:00 2023,46.0898934,11.1155763,313.41,33.34,86.09,null
SMAR,2023-04-04 12:37:41:699 GMT+02:00 2023,46.0898893,11.1155766,313.11,33.52,86.1,null
SMAR,2023-04-04 12:37:41:733 GMT+02:00 2023,46.0898893,11.1155766,313.03,33.52,86.1,null
SMAR,2023-04-04 12:37:41:760 GMT+02:00 2023,46.0898893,11.1155766,313.12,33.34,86.09,null
SMAR,2023-04-04 12:37:41:793 GMT+02:00 2023,46.0898893,11.1155766,312.88,33.45,86.08,null
STON,2023-04-04 12:37:41:800 GMT+02:00 2023,46.089800485,11.11551184,0.055514,147.658447,-1.693874,1
SMAR,2023-04-04 12:37:41:826 GMT+02:00 2023,46.0898893,11.1155766,312.63,33.57,86.07,null
SMAR,2023-04-04 12:37:41:861 GMT+02:00 2023,46.0898893,11.1155766,312.66,33.46,86.06,null
SMAR,2023-04-04 12:37:41:894 GMT+02:00 2023,46.0898893,11.1155766,312.38,33.67,86.06,null
STON,2023-04-04 12:37:41:901 GMT+02:00 2023,46.089800448333335,11.115511941666666,0.055514,147.658447,-1.693874,1
STON,2023-04-04 12:37:41:907 GMT+02:00 2023,46.089800448333335,11.115511941666666,0.055514,147.658447,-1.693874,1
STON,2023-04-04 12:37:41:913 GMT+02:00 2023,46.089800448333335,11.115511941666666,0.129265,148.722412,-1.682625,1
SMAR,2023-04-04 12:37:41:938 GMT+02:00 2023,46.0898893,11.1155766,311.96,33.97,86.05,null
SMAR,2023-04-04 12:37:41:974 GMT+02:00 2023,46.0898893,11.1155766,311.94,33.86,86.06,null
SMAR,2023-04-04 12:37:42:003 GMT+02:00 2023,46.0898893,11.1155766,311.6,34.14,86.07,null
SMAR,2023-04-04 12:37:42:037 GMT+02:00 2023,46.0898893,11.1155766,311.19,34.53,86.06,null
SMAR,2023-04-04 12:37:42:066 GMT+02:00 2023,46.0898893,11.1155766,311.19,34.51,86.02,null
SMAR,2023-04-04 12:37:42:109 GMT+02:00 2023,46.0898893,11.1155766,310.8,34.8,86.01,null
STON,2023-04-04 12:37:42:115 GMT+02:00 2023,46.089800448333335,11.115511941666666,0.237574,149.428436,-1.682365,1
SMAR,2023-04-04 12:37:42:133 GMT+02:00 2023,46.0898893,11.1155766,310.48,34.97,86.0,null
SMAR,2023-04-04 12:37:42:171 GMT+02:00 2023,46.0898893,11.1155766,310.46,34.9,86.0,null
SMAR,2023-04-04 12:37:42:209 GMT+02:00 2023,46.0898893,11.1155766,310.12,35.18,85.98,null
SMAR,2023-04-04 12:37:42:244 GMT+02:00 2023,46.0898893,11.1155766,309.87,35.38,85.98,null
SMAR,2023-04-04 12:37:42:276 GMT+02:00 2023,46.0898893,11.1155766,309.77,35.39,85.98,null
SMAR,2023-04-04 12:37:42:307 GMT+02:00 2023,46.0898893,11.1155766,309.56,35.52,85.96,null
STON,2023-04-04 12:37:42:312 GMT+02:00 2023,46.089800448333335,11.115511941666666,0.39982,150.153427,-1.746714,1
SMAR,2023-04-04 12:37:42:339 GMT+02:00 2023,46.0898893,11.1155766,309.28,35.69,85.93,null
SMAR,2023-04-04 12:37:42:368 GMT+02:00 2023,46.0898893,11.1155766,309.25,35.57,85.92,null
SMAR,2023-04-04 12:37:42:402 GMT+02:00 2023,46.0898893,11.1155766,309.09,35.56,85.9,null
SMAR,2023-04-04 12:37:42:429 GMT+02:00 2023,46.0898893,11.1155766,308.96,35.56,85.88,null
SMAR,2023-04-04 12:37:42:460 GMT+02:00 2023,46.0898893,11.1155766,308.87,35.57,85.86,null
SMAR,2023-04-04 12:37:42:491 GMT+02:00 2023,46.0898893,11.1155766,308.56,35.79,85.84,null
SMAR,2023-04-04 12:37:42:530 GMT+02:00 2023,46.0898893,11.1155766,308.38,35.84,85.82,null
STON,2023-04-04 12:37:42:538 GMT+02:00 2023,46.089800448333335,11.115511941666666,0.531557,151.241516,-1.851703,1
SMAR,2023-04-04 12:37:42:560 GMT+02:00 2023,46.0898893,11.1155766,308.13,35.93,85.79,null
SMAR,2023-04-04 12:37:42:594 GMT+02:00 2023,46.0898893,11.1155766,307.87,36.04,85.77,null
SMAR,2023-04-04 12:37:42:626 GMT+02:00 2023,46.0898893,11.1155766,307.64,36.11,85.75,null
SMAR,2023-04-04 12:37:42:658 GMT+02:00 2023,46.0898893,11.1155766,307.41,36.21,85.74,null
SMAR,2023-04-04 12:37:42:695 GMT+02:00 2023,46.0898814,11.1155818,307.39,36.12,85.73,null
STON,2023-04-04 12:37:42:703 GMT+02:00 2023,46.089800448333335,11.115511941666666,0.608875,152.322388,-1.946258,1
SMAR,2023-04-04 12:37:42:728 GMT+02:00 2023,46.0898814,11.1155818,307.38,36.05,85.73,null
SMAR,2023-04-04 12:37:42:771 GMT+02:00 2023,46.0898814,11.1155818,307.41,35.94,85.72,null
SMAR,2023-04-04 12:37:42:806 GMT+02:00 2023,46.0898814,11.1155818,307.39,35.86,85.7,null
SMAR,2023-04-04 12:37:42:838 GMT+02:00 2023,46.0898814,11.1155818,307.42,35.69,85.7,null
SMAR,2023-04-04 12:37:42:865 GMT+02:00 2023,46.0898814,11.1155818,307.56,35.43,85.69,null
STON,2023-04-04 12:37:42:872 GMT+02:00 2023,46.08980059833333,11.11551199,0.608875,152.322388,-1.946258,1
STON,2023-04-04 12:37:42:874 GMT+02:00 2023,46.08980059833333,11.11551199,0.608875,152.322388,-1.946258,1
SMAR,2023-04-04 12:37:42:900 GMT+02:00 2023,46.0898814,11.1155818,307.56,35.35,85.67,null
SMAR,2023-04-04 12:37:42:935 GMT+02:00 2023,46.0898814,11.1155818,307.58,35.27,85.66,null
STON,2023-04-04 12:37:42:943 GMT+02:00 2023,46.08980059833333,11.11551199,0.674214,153.240387,-2.071462,1
SMAR,2023-04-04 12:37:42:968 GMT+02:00 2023,46.0898814,11.1155818,307.75,35.01,85.66,null
SMAR,2023-04-04 12:37:42:996 GMT+02:00 2023,46.0898814,11.1155818,307.88,34.77,85.66,null
SMAR,2023-04-04 12:37:43:035 GMT+02:00 2023,46.0898814,11.1155818,308.01,34.6,85.66,null
SMAR,2023-04-04 12:37:43:067 GMT+02:00 2023,46.0898814,11.1155818,308.15,34.46,85.66,null
SMAR,2023-04-04 12:37:43:094 GMT+02:00 2023,46.0898814,11.1155818,308.18,34.44,85.67,null
SMAR,2023-04-04 12:37:43:129 GMT+02:00 2023,46.0898814,11.1155818,308.22,34.4,85.68,null
STON,2023-04-04 12:37:43:138 GMT+02:00 2023,46.08980059833333,11.11551199,0.657289,154.104034,-2.142246,1
SMAR,2023-04-04 12:37:43:160 GMT+02:00 2023,46.0898814,11.1155818,308.37,34.24,85.68,null
SMAR,2023-04-04 12:37:43:196 GMT+02:00 2023,46.0898814,11.1155818,308.43,34.19,85.69,null
SMAR,2023-04-04 12:37:43:230 GMT+02:00 2023,46.0898814,11.1155818,308.46,34.17,85.69,null
SMAR,2023-04-04 12:37:43:267 GMT+02:00 2023,46.0898814,11.1155818,308.62,34.02,85.69,null
SMAR,2023-04-04 12:37:43:303 GMT+02:00 2023,46.0898814,11.1155818,308.72,33.91,85.7,null
SMAR,2023-04-04 12:37:43:339 GMT+02:00 2023,46.0898814,11.1155818,308.77,33.86,85.71,null
STON,2023-04-04 12:37:43:343 GMT+02:00 2023,46.08980059833333,11.11551199,0.63988,154.273468,-2.124361,1
SMAR,2023-04-04 12:37:43:370 GMT+02:00 2023,46.0898814,11.1155818,308.83,33.83,85.72,null
SMAR,2023-04-04 12:37:43:403 GMT+02:00 2023,46.0898814,11.1155818,308.97,33.74,85.73,null
SMAR,2023-04-04 12:37:43:439 GMT+02:00 2023,46.0898814,11.1155818,309.13,33.59,85.74,null
SMAR,2023-04-04 12:37:43:470 GMT+02:00 2023,46.0898814,11.1155818,309.3,33.44,85.74,null
SMAR,2023-04-04 12:37:43:500 GMT+02:00 2023,46.0898814,11.1155818,309.49,33.24,85.74,null
SMAR,2023-04-04 12:37:43:529 GMT+02:00 2023,46.0898814,11.1155818,309.72,33.02,85.74,null
STON,2023-04-04 12:37:43:537 GMT+02:00 2023,46.08980059833333,11.11551199,0.612648,154.438843,-2.072524,1
SMAR,2023-04-04 12:37:43:560 GMT+02:00 2023,46.0898814,11.1155818,310.04,32.68,85.76,null
SMAR,2023-04-04 12:37:43:598 GMT+02:00 2023,46.0898814,11.1155818,310.26,32.47,85.75,null
SMAR,2023-04-04 12:37:43:632 GMT+02:00 2023,46.0898814,11.1155818,310.47,32.28,85.75,null
SMAR,2023-04-04 12:37:43:665 GMT+02:00 2023,46.0898814,11.1155818,310.72,32.03,85.74,null
SMAR,2023-04-04 12:37:43:697 GMT+02:00 2023,46.0898787,11.1155843,311.0,31.73,85.72,null
SMAR,2023-04-04 12:37:43:731 GMT+02:00 2023,46.0898787,11.1155843,311.29,31.46,85.71,null
SMAR,2023-04-04 12:37:43:763 GMT+02:00 2023,46.0898787,11.1155843,311.48,31.29,85.7,null
STON,2023-04-04 12:37:43:770 GMT+02:00 2023,46.08980059833333,11.11551199,0.493145,154.589691,-1.991189,1
STON,2023-04-04 12:37:43:775 GMT+02:00 2023,46.08980055833333,11.115512043333334,0.493145,154.589691,-1.991189,1
STON,2023-04-04 12:37:43:778 GMT+02:00 2023,46.08980055833333,11.115512043333334,0.493145,154.589691,-1.991189,1
SMAR,2023-04-04 12:37:43:806 GMT+02:00 2023,46.0898787,11.1155843,311.69,31.07,85.69,null
SMAR,2023-04-04 12:37:43:841 GMT+02:00 2023,46.0898787,11.1155843,312.0,30.76,85.69,null
SMAR,2023-04-04 12:37:43:872 GMT+02:00 2023,46.0898787,11.1155843,312.22,30.54,85.7,null
SMAR,2023-04-04 12:37:43:901 GMT+02:00 2023,46.0898787,11.1155843,312.39,30.38,85.69,null
STON,2023-04-04 12:37:43:909 GMT+02:00 2023,46.08980055833333,11.115512043333334,0.400044,154.79657,-2.103617,1
SMAR,2023-04-04 12:37:43:935 GMT+02:00 2023,46.0898787,11.1155843,312.58,30.2,85.69,null
SMAR,2023-04-04 12:37:43:974 GMT+02:00 2023,46.0898787,11.1155843,312.8,29.97,85.69,null
SMAR,2023-04-04 12:37:44:007 GMT+02:00 2023,46.0898787,11.1155843,313.04,29.77,85.68,null
SMAR,2023-04-04 12:37:44:039 GMT+02:00 2023,46.0898787,11.1155843,313.28,29.58,85.68,null
SMAR,2023-04-04 12:37:44:066 GMT+02:00 2023,46.0898787,11.1155843,313.49,29.37,85.67,null
SMAR,2023-04-04 12:37:44:101 GMT+02:00 2023,46.0898787,11.1155843,313.68,29.14,85.67,null
SMAR,2023-04-04 12:37:44:135 GMT+02:00 2023,46.0898787,11.1155843,313.85,28.98,85.67,null
STON,2023-04-04 12:37:44:139 GMT+02:00 2023,46.08980055833333,11.115512043333334,0.335957,154.861404,-2.172565,1
SMAR,2023-04-04 12:37:44:165 GMT+02:00 2023,46.0898787,11.1155843,314.11,28.74,85.66,null
SMAR,2023-04-04 12:37:44:203 GMT+02:00 2023,46.0898787,11.1155843,314.27,28.53,85.65,null
SMAR,2023-04-04 12:37:44:243 GMT+02:00 2023,46.0898787,11.1155843,314.37,28.37,85.66,null
SMAR,2023-04-04 12:37:44:277 GMT+02:00 2023,46.0898787,11.1155843,314.52,28.23,85.66,null
SMAR,2023-04-04 12:37:44:309 GMT+02:00 2023,46.0898787,11.1155843,314.64,28.13,85.66,null
STON,2023-04-04 12:37:44:314 GMT+02:00 2023,46.08980055833333,11.115512043333334,0.263319,155.180023,-2.199746,1
SMAR,2023-04-04 12:37:44:344 GMT+02:00 2023,46.0898787,11.1155843,314.75,28.0,85.65,null
SMAR,2023-04-04 12:37:44:372 GMT+02:00 2023,46.0898787,11.1155843,314.8,27.92,85.65,null
SMAR,2023-04-04 12:37:44:410 GMT+02:00 2023,46.0898787,11.1155843,314.77,27.97,85.65,null
SMAR,2023-04-04 12:37:44:442 GMT+02:00 2023,46.0898787,11.1155843,314.78,27.97,85.64,null
SMAR,2023-04-04 12:37:44:466 GMT+02:00 2023,46.0898787,11.1155843,314.78,27.94,85.64,null
SMAR,2023-04-04 12:37:44:499 GMT+02:00 2023,46.0898787,11.1155843,314.83,27.87,85.64,null
STON,2023-04-04 12:37:44:503 GMT+02:00 2023,46.08980055833333,11.115512043333334,0.214794,155.382553,-2.212853,1
SMAR,2023-04-04 12:37:44:528 GMT+02:00 2023,46.0898787,11.1155843,314.83,27.9,85.64,null
SMAR,2023-04-04 12:37:44:566 GMT+02:00 2023,46.0898787,11.1155843,314.91,27.87,85.65,null
SMAR,2023-04-04 12:37:44:607 GMT+02:00 2023,46.0898787,11.1155843,314.96,27.87,85.66,null
SMAR,2023-04-04 12:37:44:642 GMT+02:00 2023,46.0898787,11.1155843,314.85,28.0,85.66,null
SMAR,2023-04-04 12:37:44:676 GMT+02:00 2023,46.0898787,11.1155843,314.8,28.1,85.65,null
SMAR,2023-04-04 12:37:44:705 GMT+02:00 2023,46.0898778,11.115585,314.66,28.25,85.64,null
SMAR,2023-04-04 12:37:44:744 GMT+02:00 2023,46.0898778,11.115585,314.58,28.4,85.63,null
SMAR,2023-04-04 12:37:44:775 GMT+02:00 2023,46.0898778,11.115585,314.49,28.63,85.61,null
SMAR,2023-04-04 12:37:44:806 GMT+02:00 2023,46.0898778,11.115585,314.41,28.95,85.58,null
SMAR,2023-04-04 12:37:44:838 GMT+02:00 2023,46.0898778,11.115585,314.24,29.46,85.54,null
SMAR,2023-04-04 12:37:44:871 GMT+02:00 2023,46.0898778,11.115585,313.85,30.21,85.52,null
STON,2023-04-04 12:37:44:877 GMT+02:00 2023,46.08980055833333,11.115512043333334,0.20517,155.51532,-2.183594,1
STON,2023-04-04 12:37:44:880 GMT+02:00 2023,46.08980047833333,11.115512138333333,0.20517,155.51532,-2.183594,1
STON,2023-04-04 12:37:44:883 GMT+02:00 2023,46.08980047833333,11.115512138333333,0.20517,155.51532,-2.183594,1
SMAR,2023-04-04 12:37:44:906 GMT+02:00 2023,46.0898778,11.115585,313.55,30.88,85.49,null
STON,2023-04-04 12:37:44:926 GMT+02:00 2023,46.08980047833333,11.115512138333333,0.240391,155.158722,-2.168587,1
SMAR,2023-04-04 12:37:44:939 GMT+02:00 2023,46.0898778,11.115585,313.01,31.72,85.45,null
SMAR,2023-04-04 12:37:44:969 GMT+02:00 2023,46.0898778,11.115585,312.25,32.73,85.4,null
SMAR,2023-04-04 12:37:45:005 GMT+02:00 2023,46.0898778,11.115585,311.44,33.76,85.33,null
SMAR,2023-04-04 12:37:45:038 GMT+02:00 2023,46.0898778,11.115585,310.62,34.82,85.26,null
SMAR,2023-04-04 12:37:45:076 GMT+02:00 2023,46.0898778,11.115585,310.28,35.52,85.22,null
STON,2023-04-04 12:37:45:097 GMT+02:00 2023,46.08980047833333,11.115512138333333,0.432802,153.556625,-2.363149,1
SMAR,2023-04-04 12:37:45:103 GMT+02:00 2023,46.0898778,11.115585,309.99,36.2,85.18,null
SMAR,2023-04-04 12:37:45:139 GMT+02:00 2023,46.0898778,11.115585,309.85,36.76,85.11,null
SMAR,2023-04-04 12:37:45:169 GMT+02:00 2023,46.0898778,11.115585,310.41,36.67,85.0,null
SMAR,2023-04-04 12:37:45:204 GMT+02:00 2023,46.0898778,11.115585,310.07,37.4,84.93,null
SMAR,2023-04-04 12:37:45:234 GMT+02:00 2023,46.0898778,11.115585,309.54,38.3,84.91,null
SMAR,2023-04-04 12:37:45:267 GMT+02:00 2023,46.0898778,11.115585,309.17,39.03,84.89,null
SMAR,2023-04-04 12:37:45:308 GMT+02:00 2023,46.0898778,11.115585,309.03,39.5,84.86,null
STON,2023-04-04 12:37:45:313 GMT+02:00 2023,46.08980047833333,11.115512138333333,0.697194,151.444839,-2.67122,1
SMAR,2023-04-04 12:37:45:347 GMT+02:00 2023,46.0898778,11.115585,309.0,39.77,84.83,null
SMAR,2023-04-04 12:37:45:377 GMT+02:00 2023,46.0898778,11.115585,309.04,39.8,84.82,null
SMAR,2023-04-04 12:37:45:407 GMT+02:00 2023,46.0898778,11.115585,309.09,39.68,84.84,null
SMAR,2023-04-04 12:37:45:438 GMT+02:00 2023,46.0898778,11.115585,309.06,39.58,84.89,null
SMAR,2023-04-04 12:37:45:472 GMT+02:00 2023,46.0898778,11.115585,309.0,39.54,84.94,null
SMAR,2023-04-04 12:37:45:502 GMT+02:00 2023,46.0898778,11.115585,308.92,39.56,84.97,null
STON,2023-04-04 12:37:45:510 GMT+02:00 2023,46.08980047833333,11.115512138333333,0.824729,150.220428,-2.890315,1
SMAR,2023-04-04 12:37:45:543 GMT+02:00 2023,46.0898778,11.115585,308.82,39.54,85.01,null
SMAR,2023-04-04 12:37:45:583 GMT+02:00 2023,46.0898778,11.115585,308.45,39.72,85.07,null
SMAR,2023-04-04 12:37:45:616 GMT+02:00 2023,46.0898778,11.115585,308.42,39.6,85.13,null
SMAR,2023-04-04 12:37:45:645 GMT+02:00 2023,46.0898778,11.115585,308.23,39.67,85.19,null
SMAR,2023-04-04 12:37:45:675 GMT+02:00 2023,46.0898618,11.1155955,308.08,39.76,85.24,null
SMAR,2023-04-04 12:37:45:706 GMT+02:00 2023,46.0898618,11.1155955,308.35,39.48,85.32,null
STON,2023-04-04 12:37:45:712 GMT+02:00 2023,46.08980047833333,11.115512138333333,0.880406,151.015137,-2.667322,1
STON,2023-04-04 12:37:45:715 GMT+02:00 2023,46.08980073833333,11.115512188333334,0.880406,151.015137,-2.667322,1
STON,2023-04-04 12:37:45:719 GMT+02:00 2023,46.08980073833333,11.115512188333334,0.880406,151.015137,-2.667322,1
SMAR,2023-04-04 12:37:45:738 GMT+02:00 2023,46.0898618,11.1155955,308.65,39.18,85.39,null
SMAR,2023-04-04 12:37:45:770 GMT+02:00 2023,46.0898618,11.1155955,308.91,38.94,85.42,null
SMAR,2023-04-04 12:37:45:809 GMT+02:00 2023,46.0898618,11.1155955,309.03,38.77,85.46,null
SMAR,2023-04-04 12:37:45:841 GMT+02:00 2023,46.0898618,11.1155955,309.27,38.5,85.47,null
SMAR,2023-04-04 12:37:45:874 GMT+02:00 2023,46.0898618,11.1155955,309.5,38.2,85.48,null
SMAR,2023-04-04 12:37:45:906 GMT+02:00 2023,46.0898618,11.1155955,309.62,37.96,85.49,null
SMAR,2023-04-04 12:37:45:938 GMT+02:00 2023,46.0898618,11.1155955,309.65,37.74,85.5,null
SMAR,2023-04-04 12:37:45:973 GMT+02:00 2023,46.0898618,11.1155955,309.74,37.45,85.48,null
SMAR,2023-04-04 12:37:46:005 GMT+02:00 2023,46.0898618,11.1155955,309.76,37.22,85.46,null
STON,2023-04-04 12:37:46:027 GMT+02:00 2023,46.08980073833333,11.115512188333334,0.792367,151.283707,-2.233822,1
SMAR,2023-04-04 12:37:46:040 GMT+02:00 2023,46.0898618,11.1155955,309.81,37.04,85.46,null
SMAR,2023-04-04 12:37:46:076 GMT+02:00 2023,46.0898618,11.1155955,309.86,36.96,85.44,null
SMAR,2023-04-04 12:37:46:108 GMT+02:00 2023,46.0898618,11.1155955,309.93,36.89,85.45,null
SMAR,2023-04-04 12:37:46:136 GMT+02:00 2023,46.0898618,11.1155955,310.02,36.84,85.47,null
SMAR,2023-04-04 12:37:46:167 GMT+02:00 2023,46.0898618,11.1155955,310.21,36.66,85.48,null
STON,2023-04-04 12:37:46:173 GMT+02:00 2023,46.08980073833333,11.115512188333334,0.742182,152.098343,-2.190359,1
SMAR,2023-04-04 12:37:46:204 GMT+02:00 2023,46.0898618,11.1155955,310.4,36.44,85.48,null
SMAR,2023-04-04 12:37:46:234 GMT+02:00 2023,46.0898618,11.1155955,311.04,35.81,85.47,null
SMAR,2023-04-04 12:37:46:278 GMT+02:00 2023,46.0898618,11.1155955,312.19,34.77,85.42,null
SMAR,2023-04-04 12:37:46:309 GMT+02:00 2023,46.0898618,11.1155955,313.33,33.74,85.36,null
STON,2023-04-04 12:37:46:313 GMT+02:00 2023,46.08980073833333,11.115512188333334,0.718257,152.193176,-2.179554,1
SMAR,2023-04-04 12:37:46:347 GMT+02:00 2023,46.0898618,11.1155955,314.72,32.42,85.29,null
SMAR,2023-04-04 12:37:46:379 GMT+02:00 2023,46.0898618,11.1155955,316.1,31.07,85.24,null
SMAR,2023-04-04 12:37:46:417 GMT+02:00 2023,46.0898618,11.1155955,317.06,30.15,85.23,null
SMAR,2023-04-04 12:37:46:445 GMT+02:00 2023,46.0898618,11.1155955,317.49,29.79,85.25,null
SMAR,2023-04-04 12:37:46:477 GMT+02:00 2023,46.0898618,11.1155955,317.69,29.63,85.3,null
SMAR,2023-04-04 12:37:46:510 GMT+02:00 2023,46.0898618,11.1155955,317.99,29.29,85.34,null
STON,2023-04-04 12:37:46:516 GMT+02:00 2023,46.08980073833333,11.115512188333334,0.621579,152.392471,-2.133484,1
SMAR,2023-04-04 12:37:46:540 GMT+02:00 2023,46.0898618,11.1155955,318.21,29.01,85.38,null
SMAR,2023-04-04 12:37:46:572 GMT+02:00 2023,46.0898618,11.1155955,318.43,28.75,85.4,null
SMAR,2023-04-04 12:37:46:613 GMT+02:00 2023,46.0898618,11.1155955,318.47,28.66,85.44,null
SMAR,2023-04-04 12:37:46:641 GMT+02:00 2023,46.0898512,11.1155953,318.59,28.45,85.47,null
SMAR,2023-04-04 12:37:46:672 GMT+02:00 2023,46.0898512,11.1155953,318.79,28.15,85.51,null
SMAR,2023-04-04 12:37:46:706 GMT+02:00 2023,46.0898512,11.1155953,318.85,27.99,85.54,null
STON,2023-04-04 12:37:46:716 GMT+02:00 2023,46.08980073833333,11.115512188333334,0.515886,152.554199,-2.001326,1
STON,2023-04-04 12:37:46:720 GMT+02:00 2023,46.08980055166667,11.115512035,0.515886,152.554199,-2.001326,1
STON,2023-04-04 12:37:46:722 GMT+02:00 2023,46.08980055166667,11.115512035,0.515886,152.554199,-2.001326,1
SMAR,2023-04-04 12:37:46:739 GMT+02:00 2023,46.0898512,11.1155953,318.85,27.94,85.56,null
SMAR,2023-04-04 12:37:46:772 GMT+02:00 2023,46.0898512,11.1155953,319.0,27.78,85.59,null
SMAR,2023-04-04 12:37:46:808 GMT+02:00 2023,46.0898512,11.1155953,319.23,27.51,85.61,null
SMAR,2023-04-04 12:37:46:840 GMT+02:00 2023,46.0898512,11.1155953,319.38,27.32,85.63,null
STON,2023-04-04 12:37:46:860 GMT+02:00 2023,46.08980055166667,11.115512035,0.502778,153.064255,-1.85299,1
SMAR,2023-04-04 12:37:46:873 GMT+02:00 2023,46.0898512,11.1155953,319.49,27.15,85.64,null
SMAR,2023-04-04 12:37:46:907 GMT+02:00 2023,46.0898512,11.1155953,319.63,26.9,85.64,null
SMAR,2023-04-04 12:37:46:942 GMT+02:00 2023,46.0898512,11.1155953,319.81,26.59,85.65,null
SMAR,2023-04-04 12:37:46:974 GMT+02:00 2023,46.0898512,11.1155953,319.96,26.31,85.66,null
SMAR,2023-04-04 12:37:47:007 GMT+02:00 2023,46.0898512,11.1155953,320.16,26.0,85.67,null
SMAR,2023-04-04 12:37:47:042 GMT+02:00 2023,46.0898512,11.1155953,320.36,25.77,85.69,null
SMAR,2023-04-04 12:37:47:076 GMT+02:00 2023,46.0898512,11.1155953,320.5,25.64,85.7,null
STON,2023-04-04 12:37:47:080 GMT+02:00 2023,46.08980055166667,11.115512035,0.439323,153.759705,-1.793041,1
SMAR,2023-04-04 12:37:47:113 GMT+02:00 2023,46.0898512,11.1155953,320.6,25.53,85.73,null
SMAR,2023-04-04 12:37:47:142 GMT+02:00 2023,46.0898512,11.1155953,320.75,25.38,85.76,null
SMAR,2023-04-04 12:37:47:173 GMT+02:00 2023,46.0898512,11.1155953,320.81,25.36,85.8,null
SMAR,2023-04-04 12:37:47:207 GMT+02:00 2023,46.0898512,11.1155953,320.79,25.42,85.81,null
SMAR,2023-04-04 12:37:47:240 GMT+02:00 2023,46.0898512,11.1155953,320.69,25.51,85.83,null
SMAR,2023-04-04 12:37:47:272 GMT+02:00 2023,46.0898512,11.1155953,320.51,25.6,85.84,null
SMAR,2023-04-04 12:37:47:311 GMT+02:00 2023,46.0898512,11.1155953,320.45,25.59,85.86,null
SMAR,2023-04-04 12:37:47:344 GMT+02:00 2023,46.0898512,11.1155953,320.38,25.61,85.88,null
SMAR,2023-04-04 12:37:47:374 GMT+02:00 2023,46.0898512,11.1155953,320.37,25.6,85.9,null
SMAR,2023-04-04 12:37:47:402 GMT+02:00 2023,46.0898512,11.1155953,320.34,25.6,85.92,null
SMAR,2023-04-04 12:37:47:436 GMT+02:00 2023,46.0898512,11.1155953,320.42,25.5,85.94,null
STON,2023-04-04 12:37:47:459 GMT+02:00 2023,46.08980055166667,11.115512035,0.415227,154.145264,-1.540828,1
SMAR,2023-04-04 12:37:47:471 GMT+02:00 2023,46.0898512,11.1155953,320.55,25.35,85.95,null
SMAR,2023-04-04 12:37:47:506 GMT+02:00 2023,46.0898512,11.1155953,320.52,25.35,85.96,null
SMAR,2023-04-04 12:37:47:539 GMT+02:00 2023,46.0898512,11.1155953,320.59,25.2,85.97,null
SMAR,2023-04-04 12:37:47:571 GMT+02:00 2023,46.0898512,11.1155953,320.55,25.05,85.98,null
SMAR,2023-04-04 12:37:47:605 GMT+02:00 2023,46.0898512,11.1155953,320.66,24.68,85.99,null
SMAR,2023-04-04 12:37:47:639 GMT+02:00 2023,46.0898454,11.1155948,320.67,24.35,86.01,null
STON,2023-04-04 12:37:47:663 GMT+02:00 2023,46.08980055166667,11.115512035,0.403538,154.687576,-1.430633,1
SMAR,2023-04-04 12:37:47:674 GMT+02:00 2023,46.0898454,11.1155948,320.74,23.92,86.01,null
SMAR,2023-04-04 12:37:47:711 GMT+02:00 2023,46.0898454,11.1155948,321.07,23.11,86.0,null
SMAR,2023-04-04 12:37:47:742 GMT+02:00 2023,46.0898454,11.1155948,321.32,22.25,85.99,null
SMAR,2023-04-04 12:37:47:775 GMT+02:00 2023,46.0898454,11.1155948,321.58,21.37,85.98,null
SMAR,2023-04-04 12:37:47:808 GMT+02:00 2023,46.0898454,11.1155948,321.84,20.45,85.95,null
STON,2023-04-04 12:37:47:821 GMT+02:00 2023,46.089800458333336,11.115511838333333,0.403538,154.687576,-1.430633,1
SMAR,2023-04-04 12:37:47:846 GMT+02:00 2023,46.0898454,11.1155948,322.23,19.36,85.93,null
SMAR,2023-04-04 12:37:47:877 GMT+02:00 2023,46.0898454,11.1155948,322.63,18.25,85.9,null
STON,2023-04-04 12:37:47:884 GMT+02:00 2023,46.089800458333336,11.115511838333333,0.403538,154.687576,-1.430633,1
STON,2023-04-04 12:37:47:888 GMT+02:00 2023,46.089800458333336,11.115511838333333,0.298972,157.78096,-1.477241,1
SMAR,2023-04-04 12:37:47:906 GMT+02:00 2023,46.0898454,11.1155948,322.94,17.25,85.87,null
SMAR,2023-04-04 12:37:47:943 GMT+02:00 2023,46.0898454,11.1155948,323.34,16.17,85.82,null
SMAR,2023-04-04 12:37:47:982 GMT+02:00 2023,46.0898454,11.1155948,323.82,15.05,85.79,null
SMAR,2023-04-04 12:37:48:014 GMT+02:00 2023,46.0898454,11.1155948,324.29,14.0,85.76,null
SMAR,2023-04-04 12:37:48:050 GMT+02:00 2023,46.0898454,11.1155948,324.66,12.99,85.72,null
SMAR,2023-04-04 12:37:48:083 GMT+02:00 2023,46.0898454,11.1155948,324.97,12.0,85.7,null
SMAR,2023-04-04 12:37:48:114 GMT+02:00 2023,46.0898454,11.1155948,325.38,10.93,85.67,null
STON,2023-04-04 12:37:48:117 GMT+02:00 2023,46.089800458333336,11.115511838333333,0.103014,161.867188,-1.6692,1
SMAR,2023-04-04 12:37:48:144 GMT+02:00 2023,46.0898454,11.1155948,325.67,10.06,85.64,null
SMAR,2023-04-04 12:37:48:176 GMT+02:00 2023,46.0898454,11.1155948,325.67,9.51,85.61,null
SMAR,2023-04-04 12:37:48:214 GMT+02:00 2023,46.0898454,11.1155948,325.9,8.71,85.58,null
SMAR,2023-04-04 12:37:48:245 GMT+02:00 2023,46.0898454,11.1155948,326.17,7.85,85.56,null
SMAR,2023-04-04 12:37:48:274 GMT+02:00 2023,46.0898454,11.1155948,326.13,7.35,85.55,null
STON,2023-04-04 12:37:48:283 GMT+02:00 2023,46.089800458333336,11.115511838333333,-0.133254,165.894943,-1.800886,1
SMAR,2023-04-04 12:37:48:312 GMT+02:00 2023,46.0898454,11.1155948,326.27,6.7,85.53,null
SMAR,2023-04-04 12:37:48:349 GMT+02:00 2023,46.0898454,11.1155948,326.39,6.08,85.51,null
SMAR,2023-04-04 12:37:48:385 GMT+02:00 2023,46.0898454,11.1155948,326.37,5.68,85.51,null
SMAR,2023-04-04 12:37:48:419 GMT+02:00 2023,46.0898454,11.1155948,326.3,5.38,85.5,null
SMAR,2023-04-04 12:37:48:454 GMT+02:00 2023,46.0898454,11.1155948,326.18,5.11,85.48,null
SMAR,2023-04-04 12:37:48:483 GMT+02:00 2023,46.0898454,11.1155948,326.62,4.29,85.49,null
STON,2023-04-04 12:37:48:486 GMT+02:00 2023,46.089800458333336,11.115511838333333,-0.271562,169.180283,-1.871322,1
SMAR,2023-04-04 12:37:48:515 GMT+02:00 2023,46.0898454,11.1155948,326.5,4.09,85.49,null
SMAR,2023-04-04 12:37:48:547 GMT+02:00 2023,46.0898454,11.1155948,326.23,4.11,85.47,null
SMAR,2023-04-04 12:37:48:586 GMT+02:00 2023,46.0898454,11.1155948,326.14,3.93,85.47,null
SMAR,2023-04-04 12:37:48:619 GMT+02:00 2023,46.0898454,11.1155948,326.07,3.68,85.47,null
SMAR,2023-04-04 12:37:48:652 GMT+02:00 2023,46.0898454,11.1155948,326.02,3.43,85.46,null
SMAR,2023-04-04 12:37:48:685 GMT+02:00 2023,46.0898425,11.1155913,326.17,3.07,85.41,null
SMAR,2023-04-04 12:37:48:722 GMT+02:00 2023,46.0898425,11.1155913,326.07,2.94,85.4,null
SMAR,2023-04-04 12:37:48:752 GMT+02:00 2023,46.0898425,11.1155913,325.98,2.81,85.38,null
STON,2023-04-04 12:37:48:757 GMT+02:00 2023,46.089800458333336,11.115511838333333,-0.251804,171.482895,-1.90129,1
STON,2023-04-04 12:37:48:762 GMT+02:00 2023,46.089800231666665,11.115512133333333,-0.251804,171.482895,-1.90129,1
STON,2023-04-04 12:37:48:765 GMT+02:00 2023,46.089800231666665,11.115512133333333,-0.251804,171.482895,-1.90129,1
SMAR,2023-04-04 12:37:48:784 GMT+02:00 2023,46.0898425,11.1155913,326.23,2.38,85.36,null
SMAR,2023-04-04 12:37:48:815 GMT+02:00 2023,46.0898425,11.1155913,326.17,2.28,85.34,null
SMAR,2023-04-04 12:37:48:847 GMT+02:00 2023,46.0898425,11.1155913,326.06,2.28,85.33,null
SMAR,2023-04-04 12:37:48:887 GMT+02:00 2023,46.0898425,11.1155913,326.32,1.92,85.31,null
SMAR,2023-04-04 12:37:48:919 GMT+02:00 2023,46.0898425,11.1155913,326.36,1.8,85.31,null
STON,2023-04-04 12:37:48:929 GMT+02:00 2023,46.089800231666665,11.115512133333333,-0.244175,173.199417,-1.969141,1
SMAR,2023-04-04 12:37:48:952 GMT+02:00 2023,46.0898425,11.1155913,326.39,1.71,85.3,null
SMAR,2023-04-04 12:37:48:983 GMT+02:00 2023,46.0898425,11.1155913,326.27,1.78,85.28,null
SMAR,2023-04-04 12:37:49:016 GMT+02:00 2023,46.0898425,11.1155913,326.17,1.84,85.27,null
SMAR,2023-04-04 12:37:49:052 GMT+02:00 2023,46.0898425,11.1155913,326.1,1.89,85.27,null
SMAR,2023-04-04 12:37:49:088 GMT+02:00 2023,46.0898425,11.1155913,326.78,1.22,85.22,null
SMAR,2023-04-04 12:37:49:120 GMT+02:00 2023,46.0898425,11.1155913,326.73,1.26,85.22,null
SMAR,2023-04-04 12:37:49:159 GMT+02:00 2023,46.0898425,11.1155913,326.83,1.18,85.22,null
SMAR,2023-04-04 12:37:49:191 GMT+02:00 2023,46.0898425,11.1155913,327.05,0.95,85.22,null
STON,2023-04-04 12:37:49:198 GMT+02:00 2023,46.089800231666665,11.115512133333333,-0.23553,173.785751,-2.07918,1
SMAR,2023-04-04 12:37:49:225 GMT+02:00 2023,46.0898425,11.1155913,327.2,0.86,85.22,null
SMAR,2023-04-04 12:37:49:257 GMT+02:00 2023,46.0898425,11.1155913,327.32,0.78,85.21,null
SMAR,2023-04-04 12:37:49:289 GMT+02:00 2023,46.0898425,11.1155913,327.34,0.74,85.22,null
STON,2023-04-04 12:37:49:294 GMT+02:00 2023,46.089800231666665,11.115512133333333,-0.231815,174.186295,-2.08726,1
SMAR,2023-04-04 12:37:49:324 GMT+02:00 2023,46.0898425,11.1155913,327.49,0.61,85.22,null
SMAR,2023-04-04 12:37:49:356 GMT+02:00 2023,46.0898425,11.1155913,327.76,0.38,85.22,null
SMAR,2023-04-04 12:37:49:387 GMT+02:00 2023,46.0898425,11.1155913,327.83,0.32,85.22,null
SMAR,2023-04-04 12:37:49:424 GMT+02:00 2023,46.0898425,11.1155913,328.08,0.11,85.22,null
SMAR,2023-04-04 12:37:49:459 GMT+02:00 2023,46.0898425,11.1155913,328.43,359.8,85.22,null
SMAR,2023-04-04 12:37:49:490 GMT+02:00 2023,46.0898425,11.1155913,328.94,359.3,85.22,null
SMAR,2023-04-04 12:37:49:523 GMT+02:00 2023,46.0898425,11.1155913,329.36,358.9,85.23,null
STON,2023-04-04 12:37:49:528 GMT+02:00 2023,46.089800231666665,11.115512133333333,-0.289457,174.377625,-2.14498,1
SMAR,2023-04-04 12:37:49:555 GMT+02:00 2023,46.0898425,11.1155913,329.64,358.69,85.25,null
