Input,Time,Latitude,Longitude,Pitch,Yaw,Roll,Status
SMAR,2023-04-04 12:33:20:109 GMT+02:00 2023,46.0899281,11.1158534,0.0,0.0,0.0,null
STON,2023-04-04 12:33:20:136 GMT+02:00 2023,46.089799598333336,11.115508618333333,0.019088,121.168472,-0.023919,1
STON,2023-04-04 12:33:20:227 GMT+02:00 2023,46.089799598333336,11.115508618333333,0.080942,121.437714,-0.03927,1
STON,2023-04-04 12:33:20:376 GMT+02:00 2023,46.089799598333336,11.115508618333333,0.178474,121.063713,-0.048813,1
STON,2023-04-04 12:33:20:591 GMT+02:00 2023,46.089799598333336,11.115508618333333,0.281898,120.783051,-0.138419,1
STON,2023-04-04 12:33:20:791 GMT+02:00 2023,46.089799598333336,11.115508618333333,0.370724,120.852341,-0.247907,1
SMAR,2023-04-04 12:33:20:831 GMT+02:00 2023,46.0899281,11.1158534,0.0,0.0,0.0,null
STON,2023-04-04 12:33:20:838 GMT+02:00 2023,46.08979976,11.115508618333333,0.370724,120.852341,-0.247907,1
STON,2023-04-04 12:33:20:841 GMT+02:00 2023,46.08979976,11.115508618333333,0.370724,120.852341,-0.247907,1
SMAR,2023-04-04 12:33:20:867 GMT+02:00 2023,46.0899281,11.1158534,0.0,0.0,0.0,null
SMAR,2023-04-04 12:33:20:896 GMT+02:00 2023,46.0899281,11.1158534,0.0,0.0,0.0,null
SMAR,2023-04-04 12:33:20:930 GMT+02:00 2023,46.0899281,11.1158534,0.0,0.0,0.0,null
STON,2023-04-04 12:33:20:938 GMT+02:00 2023,46.08979976,11.115508618333333,0.422798,120.575478,-0.444044,1
SMAR,2023-04-04 12:33:20:965 GMT+02:00 2023,46.0899281,11.1158534,0.0,0.0,0.0,null
SMAR,2023-04-04 12:33:20:997 GMT+02:00 2023,46.0899281,11.1158534,0.0,0.0,0.0,null
SMAR,2023-04-04 12:33:21:030 GMT+02:00 2023,46.0899281,11.1158534,0.0,0.0,0.0,null
SMAR,2023-04-04 12:33:21:066 GMT+02:00 2023,46.0899281,11.1158534,0.0,0.0,0.0,null
SMAR,2023-04-04 12:33:21:098 GMT+02:00 2023,46.0899281,11.1158534,0.0,0.0,0.0,null
STON,2023-04-04 12:33:21:103 GMT+02:00 2023,46.08979976,11.115508618333333,0.473506,120.255455,-0.68212,1
SMAR,2023-04-04 12:33:21:135 GMT+02:00 2023,46.0899281,11.1158534,0.0,0.0,0.0,null
SMAR,2023-04-04 12:33:21:167 GMT+02:00 2023,46.0899281,11.1158534,0.0,0.0,0.0,null
SMAR,2023-04-04 12:33:21:199 GMT+02:00 2023,46.0899281,11.1158534,0.0,0.0,0.0,null
SMAR,2023-04-04 12:33:21:236 GMT+02:00 2023,46.0899281,11.1158534,289.28,62.11,84.94,null
SMAR,2023-04-04 12:33:21:264 GMT+02:00 2023,46.0899281,11.1158534,289.33,62.07,84.92,null
SMAR,2023-04-04 12:33:21:297 GMT+02:00 2023,46.0899281,11.1158534,289.41,62.02,84.89,null
SMAR,2023-04-04 12:33:21:334 GMT+02:00 2023,46.0899281,11.1158534,288.76,62.67,84.76,null
STON,2023-04-04 12:33:21:340 GMT+02:00 2023,46.08979976,11.115508618333333,0.522566,120.218102,-0.860068,1
SMAR,2023-04-04 12:33:21:366 GMT+02:00 2023,46.0899281,11.1158534,288.97,62.49,84.77,null
SMAR,2023-04-04 12:33:21:400 GMT+02:00 2023,46.0899281,11.1158534,290.24,61.71,84.95,null
SMAR,2023-04-04 12:33:21:434 GMT+02:00 2023,46.0899281,11.1158534,290.32,61.85,84.95,null
SMAR,2023-04-04 12:33:21:467 GMT+02:00 2023,46.0899281,11.1158534,290.19,61.91,84.92,null
SMAR,2023-04-04 12:33:21:501 GMT+02:00 2023,46.0899281,11.1158534,290.32,61.62,84.92,null
STON,2023-04-04 12:33:21:507 GMT+02:00 2023,46.08979976,11.115508618333333,0.392665,120.269859,-0.871251,1
SMAR,2023-04-04 12:33:21:534 GMT+02:00 2023,46.0899281,11.1158534,290.5,61.27,84.9,null
SMAR,2023-04-04 12:33:21:567 GMT+02:00 2023,46.0899281,11.1158534,290.49,61.18,84.88,null
SMAR,2023-04-04 12:33:21:599 GMT+02:00 2023,46.0899281,11.1158534,290.39,61.3,84.88,null
SMAR,2023-04-04 12:33:21:633 GMT+02:00 2023,46.0899281,11.1158534,290.78,60.96,84.86,null
SMAR,2023-04-04 12:33:21:666 GMT+02:00 2023,46.0899281,11.1158534,290.85,60.96,84.85,null
SMAR,2023-04-04 12:33:21:702 GMT+02:00 2023,46.0899281,11.1158534,290.95,60.83,84.85,null
SMAR,2023-04-04 12:33:21:734 GMT+02:00 2023,46.0899281,11.1158534,291.25,60.42,84.83,null
STON,2023-04-04 12:33:21:739 GMT+02:00 2023,46.08979976,11.115508618333333,0.32519,120.691505,-0.911285,1
STON,2023-04-04 12:33:21:744 GMT+02:00 2023,46.089799895,11.115508823333334,0.32519,120.691505,-0.911285,1
STON,2023-04-04 12:33:21:751 GMT+02:00 2023,46.089799895,11.115508823333334,0.32519,120.691505,-0.911285,1
SMAR,2023-04-04 12:33:21:766 GMT+02:00 2023,46.0899281,11.1158534,291.36,60.2,84.84,null
SMAR,2023-04-04 12:33:21:804 GMT+02:00 2023,46.0899281,11.1158534,291.54,59.96,84.86,null
SMAR,2023-04-04 12:33:21:839 GMT+02:00 2023,46.0899281,11.1158534,291.78,59.67,84.86,null
SMAR,2023-04-04 12:33:21:872 GMT+02:00 2023,46.0899281,11.1158534,291.85,59.64,84.86,null
SMAR,2023-04-04 12:33:21:903 GMT+02:00 2023,46.0899281,11.1158534,291.93,59.66,84.86,null
STON,2023-04-04 12:33:21:923 GMT+02:00 2023,46.089799895,11.115508823333334,0.292935,120.966835,-0.931637,1
SMAR,2023-04-04 12:33:21:937 GMT+02:00 2023,46.0899281,11.1158534,291.98,59.67,84.85,null
SMAR,2023-04-04 12:33:21:973 GMT+02:00 2023,46.0899281,11.1158534,292.05,59.6,84.86,null
SMAR,2023-04-04 12:33:22:004 GMT+02:00 2023,46.0899281,11.1158534,292.07,59.56,84.86,null
SMAR,2023-04-04 12:33:22:037 GMT+02:00 2023,46.0899281,11.1158534,291.91,59.71,84.85,null
SMAR,2023-04-04 12:33:22:074 GMT+02:00 2023,46.0899038,11.1158067,291.67,59.96,84.85,null
SMAR,2023-04-04 12:33:22:107 GMT+02:00 2023,46.0899038,11.1158067,291.44,60.18,84.85,null
SMAR,2023-04-04 12:33:22:140 GMT+02:00 2023,46.0899038,11.1158067,291.53,59.9,84.9,null
SMAR,2023-04-04 12:33:22:172 GMT+02:00 2023,46.0899038,11.1158067,291.52,59.82,84.91,null
SMAR,2023-04-04 12:33:22:206 GMT+02:00 2023,46.0899038,11.1158067,291.3,59.93,84.91,null
SMAR,2023-04-04 12:33:22:242 GMT+02:00 2023,46.0899038,11.1158067,291.43,59.75,84.94,null
SMAR,2023-04-04 12:33:22:278 GMT+02:00 2023,46.0899038,11.1158067,291.55,59.68,84.95,null
SMAR,2023-04-04 12:33:22:313 GMT+02:00 2023,46.0899038,11.1158067,291.63,59.66,84.97,null
STON,2023-04-04 12:33:22:334 GMT+02:00 2023,46.089799895,11.115508823333334,0.230343,121.053696,-0.796017,1
SMAR,2023-04-04 12:33:22:352 GMT+02:00 2023,46.0899038,11.1158067,292.04,59.23,85.01,null
SMAR,2023-04-04 12:33:22:381 GMT+02:00 2023,46.0899038,11.1158067,292.15,59.12,85.03,null
SMAR,2023-04-04 12:33:22:409 GMT+02:00 2023,46.0899038,11.1158067,292.26,59.0,85.04,null
SMAR,2023-04-04 12:33:22:446 GMT+02:00 2023,46.0899038,11.1158067,292.54,58.73,85.07,null
STON,2023-04-04 12:33:22:457 GMT+02:00 2023,46.089799895,11.115508823333334,0.162524,121.1287,-0.660864,1
SMAR,2023-04-04 12:33:22:474 GMT+02:00 2023,46.0899038,11.1158067,292.66,58.71,85.08,null
SMAR,2023-04-04 12:33:22:509 GMT+02:00 2023,46.0899038,11.1158067,292.66,58.78,85.08,null
SMAR,2023-04-04 12:33:22:544 GMT+02:00 2023,46.0899038,11.1158067,292.77,58.72,85.11,null
SMAR,2023-04-04 12:33:22:590 GMT+02:00 2023,46.0899215,11.1159337,292.93,58.54,85.11,null
SMAR,2023-04-04 12:33:22:618 GMT+02:00 2023,46.0899215,11.1159337,292.93,58.5,85.12,null
SMAR,2023-04-04 12:33:22:651 GMT+02:00 2023,46.0899215,11.1159337,292.91,58.44,85.12,null
SMAR,2023-04-04 12:33:22:687 GMT+02:00 2023,46.0899215,11.1159337,292.42,58.71,85.13,null
SMAR,2023-04-04 12:33:22:718 GMT+02:00 2023,46.0899215,11.1159337,290.45,60.18,85.18,null
STON,2023-04-04 12:33:22:727 GMT+02:00 2023,46.089799895,11.115508823333334,0.121327,120.931244,-0.687135,1
SMAR,2023-04-04 12:33:22:757 GMT+02:00 2023,46.0899215,11.1159337,290.44,60.07,85.17,null
SMAR,2023-04-04 12:33:22:787 GMT+02:00 2023,46.0899215,11.1159337,290.38,60.11,85.18,null
SMAR,2023-04-04 12:33:22:817 GMT+02:00 2023,46.0899215,11.1159337,290.32,60.23,85.18,null
SMAR,2023-04-04 12:33:22:849 GMT+02:00 2023,46.0899215,11.1159337,290.09,60.55,85.19,null
STON,2023-04-04 12:33:22:854 GMT+02:00 2023,46.089799845,11.11550888,0.121327,120.931244,-0.687135,1
STON,2023-04-04 12:33:22:857 GMT+02:00 2023,46.089799845,11.11550888,0.121327,120.931244,-0.687135,1
SMAR,2023-04-04 12:33:22:879 GMT+02:00 2023,46.0899215,11.1159337,289.88,60.91,85.24,null
SMAR,2023-04-04 12:33:22:918 GMT+02:00 2023,46.0899215,11.1159337,290.03,60.85,85.25,null
SMAR,2023-04-04 12:33:22:947 GMT+02:00 2023,46.0899215,11.1159337,290.04,60.8,85.26,null
STON,2023-04-04 12:33:22:958 GMT+02:00 2023,46.089799845,11.11550888,0.089794,121.380707,-0.699834,1
SMAR,2023-04-04 12:33:22:988 GMT+02:00 2023,46.0899215,11.1159337,290.11,60.68,85.24,null
SMAR,2023-04-04 12:33:23:017 GMT+02:00 2023,46.0899215,11.1159337,289.97,60.82,85.21,null
SMAR,2023-04-04 12:33:23:050 GMT+02:00 2023,46.0899215,11.1159337,289.65,61.1,85.19,null
SMAR,2023-04-04 12:33:23:084 GMT+02:00 2023,46.0899215,11.1159337,288.98,61.64,85.14,null
SMAR,2023-04-04 12:33:23:113 GMT+02:00 2023,46.0899084,11.1159823,288.21,62.21,85.09,null
STON,2023-04-04 12:33:23:126 GMT+02:00 2023,46.089799845,11.11550888,0.086858,121.253189,-0.755563,1
SMAR,2023-04-04 12:33:23:148 GMT+02:00 2023,46.0899084,11.1159823,286.97,63.4,85.19,null
SMAR,2023-04-04 12:33:23:181 GMT+02:00 2023,46.0899084,11.1159823,287.15,63.12,85.21,null
SMAR,2023-04-04 12:33:23:214 GMT+02:00 2023,46.0899084,11.1159823,287.25,62.93,85.22,null
SMAR,2023-04-04 12:33:23:255 GMT+02:00 2023,46.0899084,11.1159823,287.06,63.09,85.23,null
SMAR,2023-04-04 12:33:23:288 GMT+02:00 2023,46.0899084,11.1159823,287.68,62.68,85.27,null
SMAR,2023-04-04 12:33:23:323 GMT+02:00 2023,46.0899084,11.1159823,287.61,62.84,85.24,null
STON,2023-04-04 12:33:23:329 GMT+02:00 2023,46.089799845,11.11550888,0.134662,121.712181,-0.889525,1
SMAR,2023-04-04 12:33:23:352 GMT+02:00 2023,46.0899084,11.1159823,287.58,62.99,85.22,null
SMAR,2023-04-04 12:33:23:397 GMT+02:00 2023,46.0899084,11.1159823,287.76,62.98,85.21,null
SMAR,2023-04-04 12:33:23:425 GMT+02:00 2023,46.0899084,11.1159823,287.84,62.97,85.2,null
SMAR,2023-04-04 12:33:23:457 GMT+02:00 2023,46.0899084,11.1159823,288.07,62.72,85.18,null
SMAR,2023-04-04 12:33:23:491 GMT+02:00 2023,46.0899084,11.1159823,288.26,62.46,85.17,null
STON,2023-04-04 12:33:23:497 GMT+02:00 2023,46.089799845,11.11550888,0.153092,121.006516,-0.973009,1
SMAR,2023-04-04 12:33:23:524 GMT+02:00 2023,46.0899084,11.1159823,288.4,62.28,85.16,null
SMAR,2023-04-04 12:33:23:556 GMT+02:00 2023,46.0899084,11.1159823,288.42,62.28,85.13,null
SMAR,2023-04-04 12:33:23:580 GMT+02:00 2023,46.0899084,11.1159823,288.57,62.23,85.13,null
SMAR,2023-04-04 12:33:23:618 GMT+02:00 2023,46.0899183,11.1160087,288.99,61.99,85.15,null
SMAR,2023-04-04 12:33:23:653 GMT+02:00 2023,46.0899183,11.1160087,289.15,61.95,85.13,null
SMAR,2023-04-04 12:33:23:682 GMT+02:00 2023,46.0899183,11.1160087,289.14,62.0,85.1,null
SMAR,2023-04-04 12:33:23:711 GMT+02:00 2023,46.0899183,11.1160087,289.33,61.84,85.08,null
STON,2023-04-04 12:33:23:716 GMT+02:00 2023,46.089799845,11.11550888,0.133121,120.939507,-1.069221,1
STON,2023-04-04 12:33:23:721 GMT+02:00 2023,46.08979995166667,11.115509058333334,0.133121,120.939507,-1.069221,1
STON,2023-04-04 12:33:23:724 GMT+02:00 2023,46.08979995166667,11.115509058333334,0.133121,120.939507,-1.069221,1
SMAR,2023-04-04 12:33:23:747 GMT+02:00 2023,46.0899183,11.1160087,289.71,61.5,85.06,null
SMAR,2023-04-04 12:33:23:787 GMT+02:00 2023,46.0899183,11.1160087,290.37,61.04,85.09,null
SMAR,2023-04-04 12:33:23:827 GMT+02:00 2023,46.0899183,11.1160087,291.85,59.83,85.09,null
SMAR,2023-04-04 12:33:23:860 GMT+02:00 2023,46.0899183,11.1160087,292.36,59.45,85.06,null
SMAR,2023-04-04 12:33:23:894 GMT+02:00 2023,46.0899183,11.1160087,292.54,59.41,85.04,null
SMAR,2023-04-04 12:33:23:924 GMT+02:00 2023,46.0899183,11.1160087,292.77,59.28,85.03,null
SMAR,2023-04-04 12:33:23:953 GMT+02:00 2023,46.0899183,11.1160087,292.91,59.26,85.01,null
SMAR,2023-04-04 12:33:23:992 GMT+02:00 2023,46.0899183,11.1160087,292.95,59.34,85.02,null
STON,2023-04-04 12:33:23:999 GMT+02:00 2023,46.08979995166667,11.115509058333334,0.066143,120.445198,-1.073248,1
SMAR,2023-04-04 12:33:24:022 GMT+02:00 2023,46.0899183,11.1160087,293.72,58.89,85.13,null
SMAR,2023-04-04 12:33:24:056 GMT+02:00 2023,46.0899183,11.1160087,293.99,58.74,85.14,null
SMAR,2023-04-04 12:33:24:090 GMT+02:00 2023,46.0899183,11.1160087,294.06,58.69,85.12,null
SMAR,2023-04-04 12:33:24:115 GMT+02:00 2023,46.0899299,11.116022,294.24,58.52,85.12,null
STON,2023-04-04 12:33:24:128 GMT+02:00 2023,46.08979995166667,11.115509058333334,0.007809,119.716408,-1.092898,1
SMAR,2023-04-04 12:33:24:152 GMT+02:00 2023,46.0899299,11.116022,294.49,58.27,85.11,null
SMAR,2023-04-04 12:33:24:182 GMT+02:00 2023,46.0899299,11.116022,294.9,57.88,85.1,null
SMAR,2023-04-04 12:33:24:217 GMT+02:00 2023,46.0899299,11.116022,294.99,57.8,85.07,null
SMAR,2023-04-04 12:33:24:251 GMT+02:00 2023,46.0899299,11.116022,295.02,57.69,85.03,null
SMAR,2023-04-04 12:33:24:285 GMT+02:00 2023,46.0899299,11.116022,294.93,57.62,84.99,null
SMAR,2023-04-04 12:33:24:321 GMT+02:00 2023,46.0899299,11.116022,294.87,57.57,84.97,null
SMAR,2023-04-04 12:33:24:358 GMT+02:00 2023,46.0899299,11.116022,294.79,57.57,84.95,null
SMAR,2023-04-04 12:33:24:392 GMT+02:00 2023,46.0899299,11.116022,294.77,57.47,84.95,null
SMAR,2023-04-04 12:33:24:431 GMT+02:00 2023,46.0899299,11.116022,294.78,57.37,84.95,null
SMAR,2023-04-04 12:33:24:461 GMT+02:00 2023,46.0899299,11.116022,294.65,57.47,84.93,null
SMAR,2023-04-04 12:33:24:496 GMT+02:00 2023,46.0899299,11.116022,294.71,57.33,84.91,null
SMAR,2023-04-04 12:33:24:531 GMT+02:00 2023,46.0899299,11.116022,294.42,57.3,84.81,null
SMAR,2023-04-04 12:33:24:560 GMT+02:00 2023,46.0899299,11.116022,294.62,56.92,84.79,null
SMAR,2023-04-04 12:33:24:593 GMT+02:00 2023,46.0899299,11.116022,294.85,56.42,84.78,null
SMAR,2023-04-04 12:33:24:624 GMT+02:00 2023,46.0899299,11.116022,295.18,55.75,84.79,null
STON,2023-04-04 12:33:24:638 GMT+02:00 2023,46.08979995166667,11.115509058333334,-0.012331,119.501442,-1.275997,1
STON,2023-04-04 12:33:24:646 GMT+02:00 2023,46.08979995166667,11.115509058333334,-0.081265,119.798706,-1.293239,1
SMAR,2023-04-04 12:33:24:655 GMT+02:00 2023,46.0899284,11.1160146,295.56,55.1,84.81,null
SMAR,2023-04-04 12:33:24:692 GMT+02:00 2023,46.0899284,11.1160146,295.97,54.58,84.81,null
SMAR,2023-04-04 12:33:24:728 GMT+02:00 2023,46.0899284,11.1160146,296.49,54.06,84.81,null
SMAR,2023-04-04 12:33:24:760 GMT+02:00 2023,46.0899284,11.1160146,297.02,53.53,84.83,null
STON,2023-04-04 12:33:24:771 GMT+02:00 2023,46.08979995166667,11.115509058333334,-0.122834,120.546219,-1.349959,1
SMAR,2023-04-04 12:33:24:796 GMT+02:00 2023,46.0899284,11.1160146,297.62,52.93,84.86,null
STON,2023-04-04 12:33:24:807 GMT+02:00 2023,46.089799963333334,11.115509245,-0.122834,120.546219,-1.349959,1
STON,2023-04-04 12:33:24:812 GMT+02:00 2023,46.089799963333334,11.115509245,-0.122834,120.546219,-1.349959,1
SMAR,2023-04-04 12:33:24:826 GMT+02:00 2023,46.0899284,11.1160146,297.9,52.71,84.87,null
SMAR,2023-04-04 12:33:24:864 GMT+02:00 2023,46.0899284,11.1160146,298.18,52.56,84.89,null
SMAR,2023-04-04 12:33:24:890 GMT+02:00 2023,46.0899284,11.1160146,297.79,53.07,84.85,null
SMAR,2023-04-04 12:33:24:930 GMT+02:00 2023,46.0899284,11.1160146,297.94,52.99,84.86,null
STON,2023-04-04 12:33:24:938 GMT+02:00 2023,46.089799963333334,11.115509245,-0.370066,121.121208,-1.305409,1
SMAR,2023-04-04 12:33:24:960 GMT+02:00 2023,46.0899284,11.1160146,298.33,52.68,84.87,null
SMAR,2023-04-04 12:33:24:995 GMT+02:00 2023,46.0899284,11.1160146,298.51,52.57,84.88,null
SMAR,2023-04-04 12:33:25:032 GMT+02:00 2023,46.0899284,11.1160146,298.7,52.43,84.91,null
SMAR,2023-04-04 12:33:25:062 GMT+02:00 2023,46.0899284,11.1160146,298.73,52.43,84.94,null
SMAR,2023-04-04 12:33:25:088 GMT+02:00 2023,46.0899284,11.1160146,298.81,52.38,84.97,null
STON,2023-04-04 12:33:25:094 GMT+02:00 2023,46.089799963333334,11.115509245,-0.4468,120.753357,-1.334427,1
SMAR,2023-04-04 12:33:25:127 GMT+02:00 2023,46.0899284,11.1160146,298.75,52.5,84.99,null
SMAR,2023-04-04 12:33:25:158 GMT+02:00 2023,46.0899284,11.1160146,298.48,52.86,85.02,null
SMAR,2023-04-04 12:33:25:195 GMT+02:00 2023,46.0899284,11.1160146,298.41,53.1,85.04,null
SMAR,2023-04-04 12:33:25:226 GMT+02:00 2023,46.0899284,11.1160146,298.33,53.35,85.05,null
SMAR,2023-04-04 12:33:25:261 GMT+02:00 2023,46.0899284,11.1160146,298.12,53.72,85.07,null
SMAR,2023-04-04 12:33:25:292 GMT+02:00 2023,46.0899284,11.1160146,297.78,54.11,85.08,null
SMAR,2023-04-04 12:33:25:324 GMT+02:00 2023,46.0899284,11.1160146,297.45,54.4,85.11,null
STON,2023-04-04 12:33:25:330 GMT+02:00 2023,46.089799963333334,11.115509245,-0.477653,120.248909,-1.18699,1
SMAR,2023-04-04 12:33:25:352 GMT+02:00 2023,46.0899284,11.1160146,297.39,54.31,85.14,null
SMAR,2023-04-04 12:33:25:392 GMT+02:00 2023,46.0899284,11.1160146,297.36,54.19,85.17,null
SMAR,2023-04-04 12:33:25:424 GMT+02:00 2023,46.0899284,11.1160146,297.39,54.02,85.21,null
SMAR,2023-04-04 12:33:25:460 GMT+02:00 2023,46.0899284,11.1160146,297.38,53.98,85.25,null
SMAR,2023-04-04 12:33:25:502 GMT+02:00 2023,46.0899284,11.1160146,297.93,53.6,85.36,null
SMAR,2023-04-04 12:33:25:530 GMT+02:00 2023,46.0899284,11.1160146,300.17,51.76,85.59,null
STON,2023-04-04 12:33:25:536 GMT+02:00 2023,46.089799963333334,11.115509245,-0.312122,120.347069,-1.221828,1
SMAR,2023-04-04 12:33:25:558 GMT+02:00 2023,46.0899284,11.1160146,299.55,52.69,85.5,null
SMAR,2023-04-04 12:33:25:594 GMT+02:00 2023,46.0899284,11.1160146,298.18,54.25,85.31,null
SMAR,2023-04-04 12:33:25:630 GMT+02:00 2023,46.0899247,11.1160014,296.57,55.69,85.03,null
SMAR,2023-04-04 12:33:25:658 GMT+02:00 2023,46.0899247,11.1160014,293.58,58.04,84.93,null
SMAR,2023-04-04 12:33:25:692 GMT+02:00 2023,46.0899247,11.1160014,292.93,57.98,85.26,null
SMAR,2023-04-04 12:33:25:724 GMT+02:00 2023,46.0899247,11.1160014,292.85,57.72,85.51,null
STON,2023-04-04 12:33:25:736 GMT+02:00 2023,46.089799963333334,11.115509245,-0.29416,119.293198,-1.293443,1
SMAR,2023-04-04 12:33:25:758 GMT+02:00 2023,46.0899247,11.1160014,293.06,57.69,85.53,null
STON,2023-04-04 12:33:25:776 GMT+02:00 2023,46.08979978833333,11.115509175,-0.29416,119.293198,-1.293443,1
STON,2023-04-04 12:33:25:784 GMT+02:00 2023,46.08979978833333,11.115509175,-0.29416,119.293198,-1.293443,1
SMAR,2023-04-04 12:33:25:794 GMT+02:00 2023,46.0899247,11.1160014,293.83,57.2,85.56,null
SMAR,2023-04-04 12:33:25:832 GMT+02:00 2023,46.0899247,11.1160014,295.1,56.45,85.58,null
SMAR,2023-04-04 12:33:25:865 GMT+02:00 2023,46.0899247,11.1160014,295.96,56.17,85.59,null
SMAR,2023-04-04 12:33:25:893 GMT+02:00 2023,46.0899247,11.1160014,296.62,55.79,85.62,null
SMAR,2023-04-04 12:33:25:928 GMT+02:00 2023,46.0899247,11.1160014,296.77,55.66,85.65,null
SMAR,2023-04-04 12:33:25:966 GMT+02:00 2023,46.0899247,11.1160014,296.92,55.57,85.68,null
SMAR,2023-04-04 12:33:25:995 GMT+02:00 2023,46.0899247,11.1160014,297.13,55.43,85.7,null
SMAR,2023-04-04 12:33:26:031 GMT+02:00 2023,46.0899247,11.1160014,297.38,55.32,85.73,null
SMAR,2023-04-04 12:33:26:062 GMT+02:00 2023,46.0899247,11.1160014,297.78,55.11,85.73,null
SMAR,2023-04-04 12:33:26:096 GMT+02:00 2023,46.0899247,11.1160014,298.14,54.92,85.75,null
STON,2023-04-04 12:33:26:101 GMT+02:00 2023,46.08979978833333,11.115509175,-0.544284,117.942772,-0.968997,1
SMAR,2023-04-04 12:33:26:130 GMT+02:00 2023,46.0899247,11.1160014,298.42,54.77,85.77,null
SMAR,2023-04-04 12:33:26:157 GMT+02:00 2023,46.0899247,11.1160014,298.67,54.67,85.77,null
SMAR,2023-04-04 12:33:26:191 GMT+02:00 2023,46.0899247,11.1160014,298.94,54.57,85.79,null
SMAR,2023-04-04 12:33:26:229 GMT+02:00 2023,46.0899247,11.1160014,299.3,54.3,85.8,null
SMAR,2023-04-04 12:33:26:261 GMT+02:00 2023,46.0899247,11.1160014,299.44,54.17,85.81,null
STON,2023-04-04 12:33:26:291 GMT+02:00 2023,46.08979978833333,11.115509175,-0.636139,116.956635,-1.001202,1
SMAR,2023-04-04 12:33:26:298 GMT+02:00 2023,46.0899247,11.1160014,299.85,53.75,85.83,null
SMAR,2023-04-04 12:33:26:337 GMT+02:00 2023,46.0899247,11.1160014,300.0,53.53,85.84,null
SMAR,2023-04-04 12:33:26:370 GMT+02:00 2023,46.0899247,11.1160014,299.87,53.54,85.86,null
SMAR,2023-04-04 12:33:26:401 GMT+02:00 2023,46.0899247,11.1160014,300.26,53.02,85.88,null
SMAR,2023-04-04 12:33:26:436 GMT+02:00 2023,46.0899247,11.1160014,300.39,52.77,85.9,null
SMAR,2023-04-04 12:33:26:468 GMT+02:00 2023,46.0899247,11.1160014,300.3,52.69,85.89,null
STON,2023-04-04 12:33:26:481 GMT+02:00 2023,46.08979978833333,11.115509175,-0.731036,117.266586,-0.969852,1
SMAR,2023-04-04 12:33:26:505 GMT+02:00 2023,46.0899247,11.1160014,300.52,52.21,85.89,null
SMAR,2023-04-04 12:33:26:538 GMT+02:00 2023,46.0899247,11.1160014,300.8,51.75,85.93,null
SMAR,2023-04-04 12:33:26:571 GMT+02:00 2023,46.0899104,11.1159818,300.71,51.69,85.95,null
SMAR,2023-04-04 12:33:26:600 GMT+02:00 2023,46.0899104,11.1159818,300.36,51.97,85.98,null
SMAR,2023-04-04 12:33:26:634 GMT+02:00 2023,46.0899104,11.1159818,300.07,52.23,86.01,null
SMAR,2023-04-04 12:33:26:667 GMT+02:00 2023,46.0899104,11.1159818,299.84,52.52,86.05,null
SMAR,2023-04-04 12:33:26:701 GMT+02:00 2023,46.0899104,11.1159818,299.25,52.93,86.07,null
SMAR,2023-04-04 12:33:26:731 GMT+02:00 2023,46.0899104,11.1159818,298.46,53.26,86.13,null
SMAR,2023-04-04 12:33:26:769 GMT+02:00 2023,46.0899104,11.1159818,298.13,53.46,86.14,null
STON,2023-04-04 12:33:26:778 GMT+02:00 2023,46.08979978833333,11.115509175,-0.767666,117.942764,-0.672689,1
STON,2023-04-04 12:33:26:796 GMT+02:00 2023,46.089799533333334,11.115509176666666,-0.767666,117.942764,-0.672689,1
STON,2023-04-04 12:33:26:800 GMT+02:00 2023,46.089799533333334,11.115509176666666,-0.767666,117.942764,-0.672689,1
SMAR,2023-04-04 12:33:26:802 GMT+02:00 2023,46.0899104,11.1159818,298.29,53.36,86.14,null
SMAR,2023-04-04 12:33:26:841 GMT+02:00 2023,46.0899104,11.1159818,298.63,53.23,86.16,null
SMAR,2023-04-04 12:33:26:864 GMT+02:00 2023,46.0899104,11.1159818,298.21,53.61,86.2,null
STON,2023-04-04 12:33:26:868 GMT+02:00 2023,46.089799533333334,11.115509176666666,-0.691353,118.019737,-0.554276,1
SMAR,2023-04-04 12:33:26:900 GMT+02:00 2023,46.0899104,11.1159818,297.85,53.85,86.21,null
SMAR,2023-04-04 12:33:26:930 GMT+02:00 2023,46.0899104,11.1159818,297.38,54.2,86.23,null
SMAR,2023-04-04 12:33:26:965 GMT+02:00 2023,46.0899104,11.1159818,296.64,54.9,86.26,null
SMAR,2023-04-04 12:33:26:996 GMT+02:00 2023,46.0899104,11.1159818,296.89,54.67,86.27,null
SMAR,2023-04-04 12:33:27:034 GMT+02:00 2023,46.0899104,11.1159818,296.71,54.94,86.27,null
SMAR,2023-04-04 12:33:27:065 GMT+02:00 2023,46.0899104,11.1159818,296.61,55.05,86.29,null
SMAR,2023-04-04 12:33:27:096 GMT+02:00 2023,46.0899104,11.1159818,296.29,55.44,86.33,null
SMAR,2023-04-04 12:33:27:130 GMT+02:00 2023,46.0899104,11.1159818,295.61,56.18,86.34,null
SMAR,2023-04-04 12:33:27:165 GMT+02:00 2023,46.0899104,11.1159818,294.34,57.43,86.37,null
SMAR,2023-04-04 12:33:27:199 GMT+02:00 2023,46.0899104,11.1159818,0.0,348.79,90.0,null
SMAR,2023-04-04 12:33:27:240 GMT+02:00 2023,46.0899104,11.1159818,293.82,58.01,86.37,null
SMAR,2023-04-04 12:33:27:270 GMT+02:00 2023,46.0899104,11.1159818,293.24,58.58,86.37,null
SMAR,2023-04-04 12:33:27:306 GMT+02:00 2023,46.0899104,11.1159818,292.45,59.12,86.37,null
STON,2023-04-04 12:33:27:318 GMT+02:00 2023,46.089799533333334,11.115509176666666,-0.436258,118.223808,-0.244874,1
SMAR,2023-04-04 12:33:27:341 GMT+02:00 2023,46.0899104,11.1159818,291.94,59.33,86.35,null
SMAR,2023-04-04 12:33:27:366 GMT+02:00 2023,46.0899104,11.1159818,291.54,59.42,86.33,null
SMAR,2023-04-04 12:33:27:394 GMT+02:00 2023,46.0899104,11.1159818,291.23,59.49,86.33,null
SMAR,2023-04-04 12:33:27:431 GMT+02:00 2023,46.0899104,11.1159818,290.78,59.7,86.32,null
STON,2023-04-04 12:33:27:453 GMT+02:00 2023,46.089799533333334,11.115509176666666,-0.18758,119.584045,-0.227986,1
SMAR,2023-04-04 12:33:27:459 GMT+02:00 2023,46.0899104,11.1159818,290.01,60.0,86.32,null
SMAR,2023-04-04 12:33:27:493 GMT+02:00 2023,46.0899104,11.1159818,289.0,60.37,86.33,null
SMAR,2023-04-04 12:33:27:528 GMT+02:00 2023,46.0899104,11.1159818,288.09,60.66,86.34,null
SMAR,2023-04-04 12:33:27:559 GMT+02:00 2023,46.0899104,11.1159818,287.37,60.98,86.35,null
SMAR,2023-04-04 12:33:27:593 GMT+02:00 2023,46.0898959,11.1159616,0.0,344.87,90.0,null
SMAR,2023-04-04 12:33:27:627 GMT+02:00 2023,46.0898959,11.1159616,0.0,344.62,90.0,null
STON,2023-04-04 12:33:27:660 GMT+02:00 2023,46.089799533333334,11.115509176666666,0.121941,121.75338,-0.339742,1
SMAR,2023-04-04 12:33:27:665 GMT+02:00 2023,46.0898959,11.1159616,0.0,344.49,90.0,null
SMAR,2023-04-04 12:33:27:711 GMT+02:00 2023,46.0898959,11.1159616,0.0,344.42,90.0,null
SMAR,2023-04-04 12:33:27:730 GMT+02:00 2023,46.0898959,11.1159616,0.0,344.35,90.0,null
SMAR,2023-04-04 12:33:27:759 GMT+02:00 2023,46.0898959,11.1159616,0.0,344.31,90.0,null
SMAR,2023-04-04 12:33:27:799 GMT+02:00 2023,46.0898959,11.1159616,0.0,344.3,90.0,null
SMAR,2023-04-04 12:33:27:832 GMT+02:00 2023,46.0898959,11.1159616,0.0,344.33,90.0,null
SMAR,2023-04-04 12:33:27:865 GMT+02:00 2023,46.0898959,11.1159616,0.0,344.29,90.0,null
SMAR,2023-04-04 12:33:27:893 GMT+02:00 2023,46.0898959,11.1159616,0.0,344.28,90.0,null
SMAR,2023-04-04 12:33:27:927 GMT+02:00 2023,46.0898959,11.1159616,0.0,344.35,90.0,null
STON,2023-04-04 12:33:27:937 GMT+02:00 2023,46.089799555,11.115508846666666,0.121941,121.75338,-0.339742,1
STON,2023-04-04 12:33:27:944 GMT+02:00 2023,46.089799555,11.115508846666666,0.121941,121.75338,-0.339742,1
STON,2023-04-04 12:33:27:948 GMT+02:00 2023,46.089799555,11.115508846666666,0.235585,122.313065,-0.052628,1
SMAR,2023-04-04 12:33:27:957 GMT+02:00 2023,46.0898959,11.1159616,0.0,344.43,90.0,null
SMAR,2023-04-04 12:33:27:989 GMT+02:00 2023,46.0898959,11.1159616,283.47,64.43,86.32,null
SMAR,2023-04-04 12:33:28:025 GMT+02:00 2023,46.0898959,11.1159616,283.67,64.5,86.27,null
SMAR,2023-04-04 12:33:28:060 GMT+02:00 2023,46.0898959,11.1159616,284.76,63.67,86.18,null
STON,2023-04-04 12:33:28:070 GMT+02:00 2023,46.089799555,11.115508846666666,0.373678,121.813881,-0.108344,1
SMAR,2023-04-04 12:33:28:102 GMT+02:00 2023,46.0898959,11.1159616,285.0,63.74,86.1,null
SMAR,2023-04-04 12:33:28:134 GMT+02:00 2023,46.0898959,11.1159616,285.41,63.71,86.02,null
SMAR,2023-04-04 12:33:28:165 GMT+02:00 2023,46.0898959,11.1159616,286.04,63.39,85.92,null
SMAR,2023-04-04 12:33:28:195 GMT+02:00 2023,46.0898959,11.1159616,286.88,62.81,85.81,null
SMAR,2023-04-04 12:33:28:237 GMT+02:00 2023,46.0898959,11.1159616,288.07,61.88,85.71,null
SMAR,2023-04-04 12:33:28:265 GMT+02:00 2023,46.0898959,11.1159616,289.33,60.84,85.6,null
SMAR,2023-04-04 12:33:28:303 GMT+02:00 2023,46.0898959,11.1159616,290.1,60.15,85.52,null
SMAR,2023-04-04 12:33:28:330 GMT+02:00 2023,46.0898959,11.1159616,291.56,58.73,85.44,null
STON,2023-04-04 12:33:28:335 GMT+02:00 2023,46.089799555,11.115508846666666,0.355598,120.10817,-0.622359,1
SMAR,2023-04-04 12:33:28:366 GMT+02:00 2023,46.0898959,11.1159616,292.7,57.52,85.35,null
SMAR,2023-04-04 12:33:28:401 GMT+02:00 2023,46.0898959,11.1159616,293.83,56.31,85.3,null
SMAR,2023-04-04 12:33:28:436 GMT+02:00 2023,46.0898959,11.1159616,294.98,55.05,85.25,null
SMAR,2023-04-04 12:33:28:465 GMT+02:00 2023,46.0898959,11.1159616,295.84,54.04,85.18,null
STON,2023-04-04 12:33:28:477 GMT+02:00 2023,46.089799555,11.115508846666666,-0.057591,119.90078,-1.365432,1
SMAR,2023-04-04 12:33:28:502 GMT+02:00 2023,46.0898959,11.1159616,296.58,53.28,85.13,null
SMAR,2023-04-04 12:33:28:539 GMT+02:00 2023,46.0898959,11.1159616,297.21,52.74,85.07,null
SMAR,2023-04-04 12:33:28:571 GMT+02:00 2023,46.0898825,11.1159439,297.8,52.22,85.04,null
SMAR,2023-04-04 12:33:28:602 GMT+02:00 2023,46.0898825,11.1159439,298.37,51.68,85.03,null
SMAR,2023-04-04 12:33:28:638 GMT+02:00 2023,46.0898825,11.1159439,298.67,51.41,85.03,null
SMAR,2023-04-04 12:33:28:668 GMT+02:00 2023,46.0898825,11.1159439,298.93,51.26,85.05,null
STON,2023-04-04 12:33:28:691 GMT+02:00 2023,46.089799555,11.115508846666666,-0.395747,119.986488,-1.894128,1
SMAR,2023-04-04 12:33:28:703 GMT+02:00 2023,46.0898825,11.1159439,298.93,51.49,85.05,null
STON,2023-04-04 12:33:28:716 GMT+02:00 2023,46.089799766666665,11.115509493333333,-0.395747,119.986488,-1.894128,1
STON,2023-04-04 12:33:28:726 GMT+02:00 2023,46.089799766666665,11.115509493333333,-0.395747,119.986488,-1.894128,1
SMAR,2023-04-04 12:33:28:738 GMT+02:00 2023,46.0898825,11.1159439,298.93,51.78,85.05,null
SMAR,2023-04-04 12:33:28:771 GMT+02:00 2023,46.0898825,11.1159439,299.36,51.54,85.07,null
SMAR,2023-04-04 12:33:28:809 GMT+02:00 2023,46.0898825,11.1159439,299.23,51.77,85.07,null
SMAR,2023-04-04 12:33:28:843 GMT+02:00 2023,46.0898825,11.1159439,299.15,51.97,85.07,null
SMAR,2023-04-04 12:33:28:873 GMT+02:00 2023,46.0898825,11.1159439,298.89,52.34,85.08,null
STON,2023-04-04 12:33:28:893 GMT+02:00 2023,46.089799766666665,11.115509493333333,-0.476637,119.233109,-1.899991,1
SMAR,2023-04-04 12:33:28:906 GMT+02:00 2023,46.0898825,11.1159439,298.07,53.24,85.08,null
SMAR,2023-04-04 12:33:28:939 GMT+02:00 2023,46.0898825,11.1159439,297.48,53.93,85.04,null
SMAR,2023-04-04 12:33:28:973 GMT+02:00 2023,46.0898825,11.1159439,296.92,54.52,84.99,null
SMAR,2023-04-04 12:33:29:003 GMT+02:00 2023,46.0898825,11.1159439,296.13,55.14,84.93,null
SMAR,2023-04-04 12:33:29:040 GMT+02:00 2023,46.0898825,11.1159439,295.35,55.68,84.87,null
STON,2023-04-04 12:33:29:061 GMT+02:00 2023,46.089799766666665,11.115509493333333,-0.321292,118.856224,-1.991155,1
SMAR,2023-04-04 12:33:29:065 GMT+02:00 2023,46.0898825,11.1159439,294.82,56.25,84.81,null
SMAR,2023-04-04 12:33:29:103 GMT+02:00 2023,46.0898825,11.1159439,294.17,57.0,84.74,null
SMAR,2023-04-04 12:33:29:135 GMT+02:00 2023,46.0898825,11.1159439,293.59,57.71,84.71,null
SMAR,2023-04-04 12:33:29:168 GMT+02:00 2023,46.0898825,11.1159439,293.09,58.21,84.65,null
SMAR,2023-04-04 12:33:29:206 GMT+02:00 2023,46.0898825,11.1159439,292.69,58.37,84.6,null
SMAR,2023-04-04 12:33:29:238 GMT+02:00 2023,46.0898825,11.1159439,292.25,58.35,84.58,null
SMAR,2023-04-04 12:33:29:271 GMT+02:00 2023,46.0898825,11.1159439,291.66,58.58,84.58,null
SMAR,2023-04-04 12:33:29:308 GMT+02:00 2023,46.0898825,11.1159439,290.89,59.02,84.55,null
SMAR,2023-04-04 12:33:29:341 GMT+02:00 2023,46.0898825,11.1159439,289.91,59.61,84.55,null
SMAR,2023-04-04 12:33:29:373 GMT+02:00 2023,46.0898825,11.1159439,288.76,60.24,84.53,null
SMAR,2023-04-04 12:33:29:401 GMT+02:00 2023,46.0898825,11.1159439,287.6,60.69,84.51,null
SMAR,2023-04-04 12:33:29:439 GMT+02:00 2023,46.0898825,11.1159439,286.29,61.01,84.52,null
SMAR,2023-04-04 12:33:29:470 GMT+02:00 2023,46.0898825,11.1159439,284.84,61.35,84.49,null
STON,2023-04-04 12:33:29:488 GMT+02:00 2023,46.089799766666665,11.115509493333333,0.469089,121.948357,-2.263042,1
SMAR,2023-04-04 12:33:29:503 GMT+02:00 2023,46.0898825,11.1159439,283.37,61.5,84.47,null
SMAR,2023-04-04 12:33:29:542 GMT+02:00 2023,46.0898825,11.1159439,282.11,61.21,84.47,null
SMAR,2023-04-04 12:33:29:572 GMT+02:00 2023,46.089874,11.1159247,280.94,61.16,84.14,null
SMAR,2023-04-04 12:33:29:602 GMT+02:00 2023,46.089874,11.1159247,279.9,60.62,84.08,null
SMAR,2023-04-04 12:33:29:633 GMT+02:00 2023,46.089874,11.1159247,278.85,59.9,84.16,null
SMAR,2023-04-04 12:33:29:669 GMT+02:00 2023,46.089874,11.1159247,277.62,59.44,84.2,null
SMAR,2023-04-04 12:33:29:709 GMT+02:00 2023,46.089874,11.1159247,276.94,58.33,84.29,null
SMAR,2023-04-04 12:33:29:743 GMT+02:00 2023,46.089874,11.1159247,276.16,57.29,84.41,null
SMAR,2023-04-04 12:33:29:779 GMT+02:00 2023,46.089874,11.1159247,274.62,56.94,84.46,null
SMAR,2023-04-04 12:33:29:809 GMT+02:00 2023,46.089874,11.1159247,274.15,55.56,84.61,null
SMAR,2023-04-04 12:33:29:845 GMT+02:00 2023,46.089874,11.1159247,273.54,54.34,84.75,null
SMAR,2023-04-04 12:33:29:876 GMT+02:00 2023,46.089874,11.1159247,272.55,53.57,84.9,null
SMAR,2023-04-04 12:33:29:914 GMT+02:00 2023,46.089874,11.1159247,271.89,52.54,85.02,null
STON,2023-04-04 12:33:29:919 GMT+02:00 2023,46.089799766666665,11.115509493333333,1.283862,130.640732,-1.934698,1
SMAR,2023-04-04 12:33:29:940 GMT+02:00 2023,46.089874,11.1159247,271.32,51.51,85.12,null
STON,2023-04-04 12:33:29:956 GMT+02:00 2023,46.089800053333335,11.115509103333334,1.283862,130.640732,-1.934698,1
STON,2023-04-04 12:33:29:960 GMT+02:00 2023,46.089800053333335,11.115509103333334,1.283862,130.640732,-1.934698,1
STON,2023-04-04 12:33:29:963 GMT+02:00 2023,46.089800053333335,11.115509103333334,1.368519,141.623627,-1.177737,1
SMAR,2023-04-04 12:33:29:971 GMT+02:00 2023,46.089874,11.1159247,269.42,51.91,85.23,null
SMAR,2023-04-04 12:33:30:003 GMT+02:00 2023,46.089874,11.1159247,268.83,51.26,85.34,null
SMAR,2023-04-04 12:33:30:035 GMT+02:00 2023,46.089874,11.1159247,268.64,50.49,85.43,null
SMAR,2023-04-04 12:33:30:075 GMT+02:00 2023,46.089874,11.1159247,268.23,50.11,85.54,null
STON,2023-04-04 12:33:30:083 GMT+02:00 2023,46.089800053333335,11.115509103333334,1.275818,151.43396,-0.338556,1
SMAR,2023-04-04 12:33:30:115 GMT+02:00 2023,46.089874,11.1159247,268.29,49.38,85.64,null
SMAR,2023-04-04 12:33:30:138 GMT+02:00 2023,46.089874,11.1159247,268.57,48.52,85.75,null
SMAR,2023-04-04 12:33:30:172 GMT+02:00 2023,46.089874,11.1159247,268.5,47.98,85.69,null
SMAR,2023-04-04 12:33:30:208 GMT+02:00 2023,46.089874,11.1159247,268.7,46.98,85.81,null
SMAR,2023-04-04 12:33:30:240 GMT+02:00 2023,46.089874,11.1159247,268.79,45.94,85.94,null
SMAR,2023-04-04 12:33:30:273 GMT+02:00 2023,46.089874,11.1159247,270.06,43.53,86.0,null
SMAR,2023-04-04 12:33:30:307 GMT+02:00 2023,46.089874,11.1159247,270.26,42.09,86.16,null
STON,2023-04-04 12:33:30:321 GMT+02:00 2023,46.089800053333335,11.115509103333334,0.985313,156.485031,0.060276,1
SMAR,2023-04-04 12:33:30:333 GMT+02:00 2023,46.089874,11.1159247,270.33,40.79,86.31,null
SMAR,2023-04-04 12:33:30:367 GMT+02:00 2023,46.089874,11.1159247,272.47,37.49,86.34,null
SMAR,2023-04-04 12:33:30:404 GMT+02:00 2023,46.089874,11.1159247,0.0,306.82,90.0,null
SMAR,2023-04-04 12:33:30:442 GMT+02:00 2023,46.089874,11.1159247,0.0,305.93,90.0,null
SMAR,2023-04-04 12:33:30:474 GMT+02:00 2023,46.089874,11.1159247,0.0,305.15,90.0,null
SMAR,2023-04-04 12:33:30:512 GMT+02:00 2023,46.089874,11.1159247,0.0,304.39,90.0,null
STON,2023-04-04 12:33:30:518 GMT+02:00 2023,46.089800053333335,11.115509103333334,0.42497,164.074753,0.59539,1
SMAR,2023-04-04 12:33:30:542 GMT+02:00 2023,46.089874,11.1159247,0.0,303.89,90.0,null
SMAR,2023-04-04 12:33:30:571 GMT+02:00 2023,46.089874,11.1159247,0.0,303.81,90.0,null
SMAR,2023-04-04 12:33:30:605 GMT+02:00 2023,46.0898279,11.115786,0.0,303.7,90.0,null
SMAR,2023-04-04 12:33:30:639 GMT+02:00 2023,46.0898279,11.115786,0.0,303.69,90.0,null
SMAR,2023-04-04 12:33:30:671 GMT+02:00 2023,46.0898279,11.115786,0.0,303.94,90.0,null
SMAR,2023-04-04 12:33:30:711 GMT+02:00 2023,46.0898279,11.115786,0.0,304.37,90.0,null
STON,2023-04-04 12:33:30:719 GMT+02:00 2023,46.08979945666667,11.115508305,0.42497,164.074753,0.59539,1
STON,2023-04-04 12:33:30:723 GMT+02:00 2023,46.08979945666667,11.115508305,0.42497,164.074753,0.59539,1
SMAR,2023-04-04 12:33:30:736 GMT+02:00 2023,46.0898279,11.115786,0.0,304.9,90.0,null
SMAR,2023-04-04 12:33:30:775 GMT+02:00 2023,46.0898279,11.115786,0.0,305.49,90.0,null
SMAR,2023-04-04 12:33:30:800 GMT+02:00 2023,46.0898279,11.115786,0.0,306.05,90.0,null
SMAR,2023-04-04 12:33:30:835 GMT+02:00 2023,46.0898279,11.115786,0.0,306.59,90.0,null
SMAR,2023-04-04 12:33:30:870 GMT+02:00 2023,46.0898279,11.115786,0.0,307.22,90.0,null
SMAR,2023-04-04 12:33:30:904 GMT+02:00 2023,46.0898279,11.115786,0.0,307.79,90.0,null
SMAR,2023-04-04 12:33:30:939 GMT+02:00 2023,46.0898279,11.115786,0.0,308.39,90.0,null
SMAR,2023-04-04 12:33:30:974 GMT+02:00 2023,46.0898279,11.115786,0.0,309.06,90.0,null
SMAR,2023-04-04 12:33:31:008 GMT+02:00 2023,46.0898279,11.115786,0.0,309.76,90.0,null
STON,2023-04-04 12:33:31:026 GMT+02:00 2023,46.08979945666667,11.115508305,-0.224897,167.366501,0.921325,1
SMAR,2023-04-04 12:33:31:033 GMT+02:00 2023,46.0898279,11.115786,0.0,310.43,90.0,null
SMAR,2023-04-04 12:33:31:073 GMT+02:00 2023,46.0898279,11.115786,0.0,310.99,90.0,null
STON,2023-04-04 12:33:31:089 GMT+02:00 2023,46.08979945666667,11.115508305,-0.261454,164.355499,0.73906,1
SMAR,2023-04-04 12:33:31:104 GMT+02:00 2023,46.0898279,11.115786,0.0,311.56,90.0,null
SMAR,2023-04-04 12:33:31:142 GMT+02:00 2023,46.0898279,11.115786,292.46,21.01,86.34,null
SMAR,2023-04-04 12:33:31:171 GMT+02:00 2023,46.0898279,11.115786,292.31,21.94,86.3,null
SMAR,2023-04-04 12:33:31:201 GMT+02:00 2023,46.0898279,11.115786,291.94,23.13,86.22,null
SMAR,2023-04-04 12:33:31:244 GMT+02:00 2023,46.0898279,11.115786,291.54,24.29,86.14,null
SMAR,2023-04-04 12:33:31:274 GMT+02:00 2023,46.0898279,11.115786,291.56,24.91,86.07,null
STON,2023-04-04 12:33:31:292 GMT+02:00 2023,46.08979945666667,11.115508305,-0.098387,160.684952,0.396126,1
SMAR,2023-04-04 12:33:31:303 GMT+02:00 2023,46.0898279,11.115786,291.87,25.2,86.01,null
SMAR,2023-04-04 12:33:31:342 GMT+02:00 2023,46.0898279,11.115786,292.03,25.69,85.95,null
SMAR,2023-04-04 12:33:31:375 GMT+02:00 2023,46.0898279,11.115786,291.02,27.3,85.93,null
SMAR,2023-04-04 12:33:31:406 GMT+02:00 2023,46.0898279,11.115786,291.22,27.76,85.86,null
SMAR,2023-04-04 12:33:31:442 GMT+02:00 2023,46.0898279,11.115786,291.33,28.35,85.78,null
STON,2023-04-04 12:33:31:463 GMT+02:00 2023,46.08979945666667,11.115508305,0.068506,157.33577,-0.163074,1
SMAR,2023-04-04 12:33:31:471 GMT+02:00 2023,46.0898279,11.115786,291.71,28.68,85.69,null
SMAR,2023-04-04 12:33:31:506 GMT+02:00 2023,46.0898279,11.115786,291.85,29.19,85.62,null
SMAR,2023-04-04 12:33:31:535 GMT+02:00 2023,46.0898279,11.115786,291.95,29.63,85.56,null
SMAR,2023-04-04 12:33:31:573 GMT+02:00 2023,46.0898279,11.115786,292.44,29.54,85.48,null
SMAR,2023-04-04 12:33:31:605 GMT+02:00 2023,46.0898279,11.115786,292.72,29.56,85.43,null
SMAR,2023-04-04 12:33:31:635 GMT+02:00 2023,46.0898198,11.1157288,293.0,29.51,85.38,null
SMAR,2023-04-04 12:33:31:680 GMT+02:00 2023,46.0898198,11.1157288,293.42,29.37,85.32,null
SMAR,2023-04-04 12:33:31:715 GMT+02:00 2023,46.0898198,11.1157288,293.63,29.5,85.27,null
STON,2023-04-04 12:33:31:727 GMT+02:00 2023,46.089799453333335,11.115508881666667,0.068506,157.33577,-0.163074,1
STON,2023-04-04 12:33:31:735 GMT+02:00 2023,46.089799453333335,11.115508881666667,0.068506,157.33577,-0.163074,1
SMAR,2023-04-04 12:33:31:743 GMT+02:00 2023,46.0898198,11.1157288,293.86,29.63,85.22,null
SMAR,2023-04-04 12:33:31:777 GMT+02:00 2023,46.0898198,11.1157288,294.29,29.55,85.16,null
SMAR,2023-04-04 12:33:31:805 GMT+02:00 2023,46.0898198,11.1157288,294.56,29.57,85.11,null
SMAR,2023-04-04 12:33:31:840 GMT+02:00 2023,46.0898198,11.1157288,294.76,29.47,85.07,null
SMAR,2023-04-04 12:33:31:870 GMT+02:00 2023,46.0898198,11.1157288,295.08,29.09,85.05,null
STON,2023-04-04 12:33:31:886 GMT+02:00 2023,46.089799453333335,11.115508881666667,0.021682,152.713623,-0.797751,1
SMAR,2023-04-04 12:33:31:901 GMT+02:00 2023,46.0898198,11.1157288,295.33,28.77,85.03,null
SMAR,2023-04-04 12:33:31:945 GMT+02:00 2023,46.0898198,11.1157288,295.46,28.66,85.02,null
SMAR,2023-04-04 12:33:31:979 GMT+02:00 2023,46.0898198,11.1157288,295.62,28.47,85.01,null
SMAR,2023-04-04 12:33:32:009 GMT+02:00 2023,46.0898198,11.1157288,295.72,28.26,85.02,null
SMAR,2023-04-04 12:33:32:044 GMT+02:00 2023,46.0898198,11.1157288,295.73,28.14,85.03,null
SMAR,2023-04-04 12:33:32:076 GMT+02:00 2023,46.0898198,11.1157288,295.59,28.22,85.02,null
STON,2023-04-04 12:33:32:094 GMT+02:00 2023,46.089799453333335,11.115508881666667,-0.064046,153.201752,-1.065713,1
SMAR,2023-04-04 12:33:32:103 GMT+02:00 2023,46.0898198,11.1157288,295.58,28.24,85.03,null
SMAR,2023-04-04 12:33:32:139 GMT+02:00 2023,46.0898198,11.1157288,295.51,28.28,85.05,null
SMAR,2023-04-04 12:33:32:170 GMT+02:00 2023,46.0898198,11.1157288,295.21,28.47,85.07,null
SMAR,2023-04-04 12:33:32:200 GMT+02:00 2023,46.0898198,11.1157288,294.98,28.52,85.08,null
SMAR,2023-04-04 12:33:32:248 GMT+02:00 2023,46.0898198,11.1157288,294.79,28.49,85.11,null
SMAR,2023-04-04 12:33:32:271 GMT+02:00 2023,46.0898198,11.1157288,294.27,28.8,85.13,null
SMAR,2023-04-04 12:33:32:319 GMT+02:00 2023,46.0898198,11.1157288,293.65,29.31,85.13,null
SMAR,2023-04-04 12:33:32:352 GMT+02:00 2023,46.0898198,11.1157288,292.85,30.19,85.14,null
STON,2023-04-04 12:33:32:357 GMT+02:00 2023,46.089799453333335,11.115508881666667,-0.0834,153.851822,-0.971229,1
SMAR,2023-04-04 12:33:32:400 GMT+02:00 2023,46.0898198,11.1157288,291.83,31.34,85.13,null
SMAR,2023-04-04 12:33:32:429 GMT+02:00 2023,46.0898198,11.1157288,290.73,32.52,85.11,null
SMAR,2023-04-04 12:33:32:450 GMT+02:00 2023,46.0898198,11.1157288,289.73,33.61,85.08,null
SMAR,2023-04-04 12:33:32:490 GMT+02:00 2023,46.0898198,11.1157288,288.68,34.67,85.05,null
SMAR,2023-04-04 12:33:32:508 GMT+02:00 2023,46.0898198,11.1157288,287.35,35.97,84.98,null
STON,2023-04-04 12:33:32:518 GMT+02:00 2023,46.089799453333335,11.115508881666667,0.140464,154.115265,-0.842112,1
SMAR,2023-04-04 12:33:32:546 GMT+02:00 2023,46.0898198,11.1157288,286.21,37.18,84.92,null
SMAR,2023-04-04 12:33:32:579 GMT+02:00 2023,46.0898198,11.1157288,285.31,38.24,84.86,null
SMAR,2023-04-04 12:33:32:621 GMT+02:00 2023,46.0898198,11.1157288,284.76,38.89,84.82,null
SMAR,2023-04-04 12:33:32:639 GMT+02:00 2023,46.0898243,11.115705,284.37,39.26,84.78,null
SMAR,2023-04-04 12:33:32:675 GMT+02:00 2023,46.0898243,11.115705,283.9,39.74,84.73,null
STON,2023-04-04 12:33:32:684 GMT+02:00 2023,46.089799453333335,11.115508881666667,0.796309,154.077393,-0.896764,1
SMAR,2023-04-04 12:33:32:714 GMT+02:00 2023,46.0898243,11.115705,283.46,40.37,84.68,null
SMAR,2023-04-04 12:33:32:746 GMT+02:00 2023,46.0898243,11.115705,283.07,41.0,84.63,null
SMAR,2023-04-04 12:33:32:779 GMT+02:00 2023,46.0898243,11.115705,282.89,41.41,84.59,null
SMAR,2023-04-04 12:33:32:821 GMT+02:00 2023,46.0898243,11.115705,282.73,41.8,84.56,null
SMAR,2023-04-04 12:33:32:839 GMT+02:00 2023,46.0898243,11.115705,282.62,42.09,84.55,null
STON,2023-04-04 12:33:32:851 GMT+02:00 2023,46.08979970666667,11.115508971666667,0.796309,154.077393,-0.896764,1
SMAR,2023-04-04 12:33:32:870 GMT+02:00 2023,46.0898243,11.115705,282.47,42.37,84.55,null
SMAR,2023-04-04 12:33:32:909 GMT+02:00 2023,46.0898243,11.115705,282.39,42.51,84.56,null
STON,2023-04-04 12:33:32:917 GMT+02:00 2023,46.08979970666667,11.115508971666667,0.796309,154.077393,-0.896764,1
STON,2023-04-04 12:33:32:919 GMT+02:00 2023,46.08979970666667,11.115508971666667,1.132222,153.429901,-1.105312,1
SMAR,2023-04-04 12:33:32:941 GMT+02:00 2023,46.0898243,11.115705,282.25,42.61,84.58,null
SMAR,2023-04-04 12:33:32:976 GMT+02:00 2023,46.0898243,11.115705,282.18,42.51,84.61,null
SMAR,2023-04-04 12:33:33:010 GMT+02:00 2023,46.0898243,11.115705,282.27,42.06,84.65,null
SMAR,2023-04-04 12:33:33:040 GMT+02:00 2023,46.0898243,11.115705,282.43,41.43,84.69,null
SMAR,2023-04-04 12:33:33:071 GMT+02:00 2023,46.0898243,11.115705,282.83,40.64,84.75,null
SMAR,2023-04-04 12:33:33:110 GMT+02:00 2023,46.0898243,11.115705,283.27,40.07,84.81,null
STON,2023-04-04 12:33:33:119 GMT+02:00 2023,46.08979970666667,11.115508971666667,1.181449,153.756393,-1.077055,1
SMAR,2023-04-04 12:33:33:142 GMT+02:00 2023,46.0898243,11.115705,283.61,39.89,84.88,null
SMAR,2023-04-04 12:33:33:174 GMT+02:00 2023,46.0898243,11.115705,284.09,39.54,84.94,null
SMAR,2023-04-04 12:33:33:206 GMT+02:00 2023,46.0898243,11.115705,284.82,38.73,85.02,null
SMAR,2023-04-04 12:33:33:237 GMT+02:00 2023,46.0898243,11.115705,285.82,37.56,85.1,null
SMAR,2023-04-04 12:33:33:271 GMT+02:00 2023,46.0898243,11.115705,286.87,36.34,85.13,null
STON,2023-04-04 12:33:33:282 GMT+02:00 2023,46.08979970666667,11.115508971666667,0.898636,154.758957,-0.720956,1
SMAR,2023-04-04 12:33:33:311 GMT+02:00 2023,46.0898243,11.115705,288.02,35.01,85.2,null
SMAR,2023-04-04 12:33:33:349 GMT+02:00 2023,46.0898243,11.115705,289.22,33.64,85.27,null
