Input,Time,Latitude,Longitude,Altitude,Pitch,Yaw,Roll,Stonex_status
SMAR,2023-06-12 15:00:02.732,46.0898161,11.1155522,250.34865538857156,-3.44,-1.32,0.89,null
STON,2023-06-12 15:00:02.732,46.08980580833333,11.11553027,198.212,-2.588285,-111.187149,1.513847,2
SMAR,2023-06-12 15:00:02.773,46.0898161,11.1155522,250.34865538857156,-3.41,-1.31,0.9,null
SMAR,2023-06-12 15:00:02.808,46.0898161,11.1155522,250.34865538857156,-3.42,-1.2,0.92,null
STON,2023-06-12 15:00:02.808,46.08980580833333,11.11553027,198.212,-2.470503,-111.467148,1.744131,2
SMAR,2023-06-12 15:00:02.831,46.0898161,11.1155522,250.34865538857156,-3.43,-1.13,0.94,null
SMAR,2023-06-12 15:00:02.875,46.0898161,11.1155522,250.34865538857156,-3.44,-1.2,0.96,null
SMAR,2023-06-12 15:00:02.907,46.0898161,11.1155522,250.34865538857156,-3.46,-1.38,0.98,null
STON,2023-06-12 15:00:02.907,46.089805825,11.115530288333334,198.214,-2.470503,-111.467148,1.744131,2
SMAR,2023-06-12 15:00:02.948,46.0898161,11.1155522,250.34865538857156,-3.48,-1.52,0.99,null
SMAR,2023-06-12 15:00:02.964,46.0898161,11.1155522,250.34865538857156,-3.5,-1.61,1.0,null
SMAR,2023-06-12 15:00:03.008,46.0898161,11.1155522,250.34865538857156,-3.51,-1.68,1.0,null
STON,2023-06-12 15:00:03.008,46.089805825,11.115530288333334,198.214,-2.490182,-111.721916,1.86291,2
SMAR,2023-06-12 15:00:03.044,46.0898161,11.1155522,250.34865538857156,-3.54,-1.73,1.0,null
SMAR,2023-06-12 15:00:03.074,46.0898161,11.1155522,250.34865538857156,-3.57,-1.83,1.0,null
SMAR,2023-06-12 15:00:03.107,46.0898161,11.1155522,250.34865538857156,-3.58,-1.97,0.99,null
STON,2023-06-12 15:00:03.107,46.08980579166667,11.115530345,198.215,-2.490182,-111.721916,1.86291,2
SMAR,2023-06-12 15:00:03.142,46.0898161,11.1155522,250.34865538857156,-3.6,-2.19,0.97,null
SMAR,2023-06-12 15:00:03.174,46.0898161,11.1155522,250.34865538857156,-3.64,-2.52,0.96,null
STON,2023-06-12 15:00:03.174,46.08980579166667,11.115530345,198.215,-2.601584,-112.418724,1.852143,2
SMAR,2023-06-12 15:00:03.208,46.0898161,11.1155522,250.34865538857156,-3.66,-2.96,0.93,null
SMAR,2023-06-12 15:00:03.24,46.0898161,11.1155522,250.34865538857156,-3.68,-3.54,0.92,null
SMAR,2023-06-12 15:00:03.276,46.0898161,11.1155522,250.34865538857156,-3.71,-4.15,0.91,null
SMAR,2023-06-12 15:00:03.307,46.0898161,11.1155522,250.34865538857156,-3.71,-4.62,0.89,null
SMAR,2023-06-12 15:00:03.341,46.0898161,11.1155522,250.34865538857156,-3.76,-4.92,0.87,null
SMAR,2023-06-12 15:00:03.374,46.0898163,11.1155522,250.32421443651754,-3.83,-5.2,0.84,null
STON,2023-06-12 15:00:03.374,46.08980570166667,11.115530371666667,198.214,-2.601584,-112.418724,1.852143,2
STON,2023-06-12 15:00:03.374,46.08980570166667,11.115530371666667,198.214,-2.733035,-115.167587,1.774834,2
SMAR,2023-06-12 15:00:03.413,46.0898163,11.1155522,250.32421443651754,-3.87,-5.71,0.82,null
SMAR,2023-06-12 15:00:03.446,46.0898163,11.1155522,250.32421443651754,-3.9,-6.57,0.81,null
SMAR,2023-06-12 15:00:03.478,46.0898163,11.1155522,250.32421443651754,-3.94,-7.67,0.83,null
SMAR,2023-06-12 15:00:03.509,46.0898163,11.1155522,250.32421443651754,-3.98,-8.9,0.84,null
SMAR,2023-06-12 15:00:03.547,46.0898163,11.1155522,250.32421443651754,-3.99,-10.19,0.85,null
STON,2023-06-12 15:00:03.547,46.08980559,11.115530435,198.217,-2.733035,-115.167587,1.774834,2
SMAR,2023-06-12 15:00:03.575,46.0898163,11.1155522,250.32421443651754,-4.03,-11.39,0.84,null
SMAR,2023-06-12 15:00:03.608,46.0898163,11.1155522,250.32421443651754,-4.05,-12.36,0.82,null
STON,2023-06-12 15:00:03.608,46.08980559,11.115530435,198.217,-2.926194,-120.216042,1.752022,2
SMAR,2023-06-12 15:00:03.642,46.0898163,11.1155522,250.32421443651754,-4.13,-13.17,0.79,null
SMAR,2023-06-12 15:00:03.676,46.0898163,11.1155522,250.32421443651754,-4.21,-13.92,0.74,null
SMAR,2023-06-12 15:00:03.709,46.0898163,11.1155522,250.32421443651754,-4.3,-14.71,0.72,null
SMAR,2023-06-12 15:00:03.742,46.0898163,11.1155522,250.32421443651754,-4.35,-15.65,0.71,null
STON,2023-06-12 15:00:03.742,46.08980541333333,11.115530483333334,198.215,-2.926194,-120.216042,1.752022,2
SMAR,2023-06-12 15:00:03.769,46.0898163,11.1155522,250.32421443651754,-4.42,-16.66,0.72,null
SMAR,2023-06-12 15:00:03.81,46.0898163,11.1155522,250.32421443651754,-4.5,-17.64,0.72,null
STON,2023-06-12 15:00:03.81,46.08980541333333,11.115530483333334,198.215,-3.266567,-125.703644,1.609301,2
SMAR,2023-06-12 15:00:03.843,46.0898163,11.1155522,250.32421443651754,-4.53,-18.47,0.7,null
SMAR,2023-06-12 15:00:03.875,46.0898163,11.1155522,250.32421443651754,-4.62,-19.16,0.68,null
SMAR,2023-06-12 15:00:03.91,46.0898163,11.1155522,250.32421443651754,-4.72,-19.8,0.66,null
SMAR,2023-06-12 15:00:03.943,46.0898163,11.1155522,250.32421443651754,-4.84,-20.6,0.63,null
STON,2023-06-12 15:00:03.943,46.08980523,11.11553055,198.214,-3.266567,-125.703644,1.609301,2
SMAR,2023-06-12 15:00:03.975,46.0898163,11.1155522,250.32421443651754,-4.92,-21.79,0.65,null
STON,2023-06-12 15:00:03.975,46.08980523,11.11553055,198.214,-3.715404,-130.646332,1.524267,2
SMAR,2023-06-12 15:00:04.008,46.0898163,11.1155522,250.32421443651754,-4.95,-23.24,0.73,null
SMAR,2023-06-12 15:00:04.042,46.0898163,11.1155522,250.32421443651754,-5.01,-24.62,0.79,null
SMAR,2023-06-12 15:00:04.076,46.0898163,11.1155522,250.32421443651754,-5.08,-25.71,0.86,null
SMAR,2023-06-12 15:00:04.109,46.0898163,11.1155522,250.32421443651754,-5.12,-26.53,0.91,null
SMAR,2023-06-12 15:00:04.145,46.0898163,11.1155522,250.32421443651754,-5.19,-27.29,0.96,null
STON,2023-06-12 15:00:04.145,46.089805156666664,11.115530671666667,198.222,-3.715404,-130.646332,1.524267,2
SMAR,2023-06-12 15:00:04.184,46.0898163,11.1155522,250.32421443651754,-5.22,-28.23,1.02,null
SMAR,2023-06-12 15:00:04.204,46.0898163,11.1155522,250.32421443651754,-5.2,-29.43,1.11,null
STON,2023-06-12 15:00:04.204,46.089805156666664,11.115530671666667,198.222,-4.055774,-137.296997,1.815409,2
SMAR,2023-06-12 15:00:04.235,46.0898163,11.1155522,250.32421443651754,-5.15,-30.71,1.22,null
SMAR,2023-06-12 15:00:04.277,46.0898163,11.1155522,250.32421443651754,-5.1,-31.97,1.32,null
SMAR,2023-06-12 15:00:04.312,46.0898163,11.1155522,250.32421443651754,-5.01,-33.15,1.4,null
SMAR,2023-06-12 15:00:04.343,46.0898163,11.1155522,250.32421443651754,-4.94,-34.24,1.49,null
SMAR,2023-06-12 15:00:04.375,46.0898161,11.1155529,250.4202544786064,-4.87,-35.26,1.56,null
SMAR,2023-06-12 15:00:04.409,46.0898161,11.1155529,250.4202544786064,-4.77,-36.27,1.64,null
STON,2023-06-12 15:00:04.409,46.089805178333336,11.115530643333333,198.224,-4.055774,-137.296997,1.815409,2
SMAR,2023-06-12 15:00:04.451,46.0898161,11.1155529,250.4202544786064,-4.69,-37.33,1.72,null
SMAR,2023-06-12 15:00:04.468,46.0898161,11.1155529,250.4202544786064,-4.59,-38.51,1.8,null
STON,2023-06-12 15:00:04.468,46.089805178333336,11.115530643333333,198.224,-3.794482,-144.166611,2.331765,2
SMAR,2023-06-12 15:00:04.508,46.0898161,11.1155529,250.4202544786064,-4.49,-39.85,1.88,null
SMAR,2023-06-12 15:00:04.548,46.0898161,11.1155529,250.4202544786064,-4.37,-41.36,1.99,null
STON,2023-06-12 15:00:04.548,46.08980528666667,11.115530571666667,198.227,-3.794482,-144.166611,2.331765,2
SMAR,2023-06-12 15:00:04.576,46.0898161,11.1155529,250.4202544786064,-4.26,-42.97,2.09,null
SMAR,2023-06-12 15:00:04.61,46.0898161,11.1155529,250.4202544786064,-4.1,-44.51,2.18,null
SMAR,2023-06-12 15:00:04.642,46.0898161,11.1155529,250.4202544786064,-4.0,-45.86,2.26,null
SMAR,2023-06-12 15:00:04.678,46.0898161,11.1155529,250.4202544786064,-3.95,-46.8,2.31,null
SMAR,2023-06-12 15:00:04.711,46.0898161,11.1155529,250.4202544786064,-3.92,-47.37,2.32,null
SMAR,2023-06-12 15:00:04.745,46.0898161,11.1155529,250.4202544786064,-3.88,-47.77,2.32,null
STON,2023-06-12 15:00:04.745,46.089805338333335,11.115530526666667,198.231,-3.794482,-144.166611,2.331765,2
SMAR,2023-06-12 15:00:04.777,46.0898161,11.1155529,250.4202544786064,-3.89,-48.23,2.33,null
STON,2023-06-12 15:00:04.777,46.089805338333335,11.115530526666667,198.231,-2.680996,-157.704803,3.161098,2
SMAR,2023-06-12 15:00:04.813,46.0898161,11.1155529,250.4202544786064,-3.85,-48.95,2.36,null
SMAR,2023-06-12 15:00:04.844,46.0898161,11.1155529,250.4202544786064,-3.8,-50.03,2.41,null
SMAR,2023-06-12 15:00:04.876,46.0898161,11.1155529,250.4202544786064,-3.76,-51.38,2.48,null
SMAR,2023-06-12 15:00:04.91,46.0898161,11.1155529,250.4202544786064,-3.68,-52.95,2.56,null
SMAR,2023-06-12 15:00:04.943,46.0898161,11.1155529,250.4202544786064,-3.57,-54.47,2.66,null
STON,2023-06-12 15:00:04.943,46.08980534333333,11.115530508333332,198.229,-2.680996,-157.704803,3.161098,2
SMAR,2023-06-12 15:00:04.976,46.0898161,11.1155529,250.4202544786064,-3.54,-55.78,2.74,null
SMAR,2023-06-12 15:00:05.012,46.0898161,11.1155529,250.4202544786064,-3.46,-56.87,2.81,null
STON,2023-06-12 15:00:05.012,46.08980534333333,11.115530508333332,198.229,-2.358276,-164.091904,3.448784,2
SMAR,2023-06-12 15:00:05.045,46.0898161,11.1155529,250.4202544786064,-3.42,-57.81,2.86,null
SMAR,2023-06-12 15:00:05.08,46.0898161,11.1155529,250.4202544786064,-3.41,-58.7,2.91,null
SMAR,2023-06-12 15:00:05.11,46.0898161,11.1155529,250.4202544786064,-3.37,-59.57,2.96,null
SMAR,2023-06-12 15:00:05.144,46.0898161,11.1155529,250.4202544786064,-3.32,-60.47,3.0,null
STON,2023-06-12 15:00:05.144,46.08980533166667,11.115530493333333,198.211,-2.358276,-164.091904,3.448784,2
SMAR,2023-06-12 15:00:05.177,46.0898161,11.1155529,250.4202544786064,-3.33,-61.38,3.06,null
SMAR,2023-06-12 15:00:05.209,46.0898161,11.1155529,250.4202544786064,-3.3,-62.45,3.11,null
STON,2023-06-12 15:00:05.209,46.08980533166667,11.115530493333333,198.211,-2.093207,-170.099609,3.787079,2
SMAR,2023-06-12 15:00:05.249,46.0898161,11.1155529,250.4202544786064,-3.24,-63.82,3.16,null
SMAR,2023-06-12 15:00:05.27,46.0898161,11.1155529,250.4202544786064,-3.19,-65.36,3.22,null
SMAR,2023-06-12 15:00:05.312,46.0898161,11.1155529,250.4202544786064,-3.1,-66.83,3.26,null
SMAR,2023-06-12 15:00:05.344,46.0898161,11.1155529,250.4202544786064,-3.09,-68.13,3.28,null
SMAR,2023-06-12 15:00:05.377,46.0898161,11.1155529,250.4202544786064,-3.09,-69.2,3.28,null
SMAR,2023-06-12 15:00:05.411,46.0898158,11.1155524,250.4697884688759,-3.05,-69.95,3.26,null
SMAR,2023-06-12 15:00:05.445,46.0898158,11.1155524,250.4697884688759,-3.11,-70.47,3.23,null
STON,2023-06-12 15:00:05.445,46.089805266666666,11.11553051,198.207,-2.093207,-170.099609,3.787079,2
SMAR,2023-06-12 15:00:05.478,46.0898158,11.1155524,250.4697884688759,-3.16,-70.93,3.19,null
SMAR,2023-06-12 15:00:05.51,46.0898158,11.1155524,250.4697884688759,-3.17,-71.62,3.16,null
SMAR,2023-06-12 15:00:05.545,46.0898158,11.1155524,250.4697884688759,-3.19,-72.7,3.14,null
STON,2023-06-12 15:00:05.545,46.089805266666666,11.11553051,198.207,-1.865682,-177.53244,4.03325,2
STON,2023-06-12 15:00:05.545,46.08980519,11.115530376666667,198.207,-1.865682,-177.53244,4.03325,2
SMAR,2023-06-12 15:00:05.578,46.0898158,11.1155524,250.4697884688759,-3.19,-74.11,3.12,null
SMAR,2023-06-12 15:00:05.61,46.0898158,11.1155524,250.4697884688759,-3.16,-75.71,3.1,null
SMAR,2023-06-12 15:00:05.645,46.0898158,11.1155524,250.4697884688759,-3.13,-77.33,3.09,null
STON,2023-06-12 15:00:05.645,46.08980519,11.115530376666667,198.207,-1.977343,177.955475,3.868465,2
SMAR,2023-06-12 15:00:05.677,46.0898158,11.1155524,250.4697884688759,-3.12,-78.88,3.05,null
SMAR,2023-06-12 15:00:05.71,46.0898158,11.1155524,250.4697884688759,-3.06,-80.33,3.03,null
SMAR,2023-06-12 15:00:05.744,46.0898158,11.1155524,250.4697884688759,-3.03,-81.86,2.98,null
STON,2023-06-12 15:00:05.744,46.08980514666667,11.115530176666667,198.208,-1.977343,177.955475,3.868465,2
SMAR,2023-06-12 15:00:05.774,46.0898158,11.1155524,250.4697884688759,-2.95,-83.44,2.93,null
SMAR,2023-06-12 15:00:05.812,46.0898158,11.1155524,250.4697884688759,-2.85,-84.97,2.88,null
STON,2023-06-12 15:00:05.812,46.08980514666667,11.115530176666667,198.208,-1.795495,169.069519,3.668747,2
SMAR,2023-06-12 15:00:05.844,46.0898158,11.1155524,250.4697884688759,-2.81,-86.39,2.8,null
SMAR,2023-06-12 15:00:05.877,46.0898158,11.1155524,250.4697884688759,-2.74,-87.71,2.72,null
SMAR,2023-06-12 15:00:05.912,46.0898158,11.1155524,250.4697884688759,-2.66,-89.02,2.63,null
STON,2023-06-12 15:00:05.912,46.08980522,11.115529918333333,198.21,-1.795495,169.069519,3.668747,2
SMAR,2023-06-12 15:00:05.946,46.0898158,11.1155524,250.4697884688759,-2.6,-90.45,2.55,null
SMAR,2023-06-12 15:00:05.977,46.0898158,11.1155524,250.4697884688759,-2.52,-92.18,2.48,null
SMAR,2023-06-12 15:00:06.01,46.0898158,11.1155524,250.4697884688759,-2.38,-94.16,2.42,null
STON,2023-06-12 15:00:06.01,46.08980522,11.115529918333333,198.21,-1.372379,160.655807,3.208717,2
SMAR,2023-06-12 15:00:06.035,46.0898158,11.1155524,250.4697884688759,-2.26,-96.27,2.36,null
SMAR,2023-06-12 15:00:06.078,46.0898158,11.1155524,250.4697884688759,-2.14,-98.32,2.31,null
SMAR,2023-06-12 15:00:06.111,46.0898158,11.1155524,250.4697884688759,-1.96,-100.19,2.26,null
STON,2023-06-12 15:00:06.111,46.08980536833333,11.115529748333334,198.209,-1.372379,160.655807,3.208717,2
SMAR,2023-06-12 15:00:06.15,46.0898158,11.1155524,250.4697884688759,-1.85,-101.87,2.2,null
SMAR,2023-06-12 15:00:06.18,46.0898158,11.1155524,250.4697884688759,-1.74,-103.42,2.15,null
SMAR,2023-06-12 15:00:06.211,46.0898158,11.1155524,250.4697884688759,-1.58,-104.91,2.11,null
STON,2023-06-12 15:00:06.211,46.08980536833333,11.115529748333334,198.209,-0.624839,149.500687,2.801826,2
SMAR,2023-06-12 15:00:06.244,46.0898158,11.1155524,250.4697884688759,-1.45,-106.3,2.08,null
SMAR,2023-06-12 15:00:06.277,46.0898158,11.1155524,250.4697884688759,-1.33,-107.59,2.05,null
SMAR,2023-06-12 15:00:06.312,46.0898158,11.1155524,250.4697884688759,-1.19,-108.74,2.04,null
SMAR,2023-06-12 15:00:06.347,46.0898158,11.1155524,250.4697884688759,-1.08,-109.82,2.04,null
SMAR,2023-06-12 15:00:06.379,46.0898158,11.1155524,250.4697884688759,-0.98,-110.92,2.06,null
SMAR,2023-06-12 15:00:06.411,46.0898153,11.1155527,250.57572747040427,-0.84,-112.05,2.06,null
STON,2023-06-12 15:00:06.411,46.08980536833333,11.115529748333334,198.209,0.116558,141.615921,2.616189,2
SMAR,2023-06-12 15:00:06.445,46.0898153,11.1155527,250.57572747040427,-0.72,-113.19,2.09,null
STON,2023-06-12 15:00:06.445,46.08980550166667,11.115529785,198.211,0.116558,141.615921,2.616189,2
SMAR,2023-06-12 15:00:06.479,46.0898153,11.1155527,250.57572747040427,-0.62,-114.41,2.12,null
SMAR,2023-06-12 15:00:06.512,46.0898153,11.1155527,250.57572747040427,-0.47,-115.65,2.14,null
SMAR,2023-06-12 15:00:06.541,46.0898153,11.1155527,250.57572747040427,-0.36,-116.83,2.17,null
STON,2023-06-12 15:00:06.541,46.089805553333335,11.115529963333334,198.216,0.116558,141.615921,2.616189,2
SMAR,2023-06-12 15:00:06.58,46.0898153,11.1155527,250.57572747040427,-0.27,-117.82,2.18,null
SMAR,2023-06-12 15:00:06.61,46.0898153,11.1155527,250.57572747040427,-0.17,-118.62,2.19,null
STON,2023-06-12 15:00:06.61,46.089805553333335,11.115529963333334,198.216,0.809705,134.747681,2.766024,2
SMAR,2023-06-12 15:00:06.644,46.0898153,11.1155527,250.57572747040427,-0.1,-119.3,2.2,null
SMAR,2023-06-12 15:00:06.681,46.0898153,11.1155527,250.57572747040427,-0.05,-119.97,2.22,null
SMAR,2023-06-12 15:00:06.714,46.0898153,11.1155527,250.57572747040427,0.01,-120.74,2.23,null
STON,2023-06-12 15:00:06.714,46.08980555666667,11.115530075,198.216,0.809705,134.747681,2.766024,2
SMAR,2023-06-12 15:00:06.744,46.0898153,11.1155527,250.57572747040427,0.07,-121.63,2.23,null
SMAR,2023-06-12 15:00:06.782,46.0898153,11.1155527,250.57572747040427,0.13,-122.51,2.22,null
SMAR,2023-06-12 15:00:06.811,46.0898153,11.1155527,250.57572747040427,0.18,-123.38,2.2,null
STON,2023-06-12 15:00:06.811,46.08980555666667,11.115530075,198.216,1.251968,130.014114,2.844687,2
SMAR,2023-06-12 15:00:06.839,46.0898153,11.1155527,250.57572747040427,0.22,-124.3,2.17,null
SMAR,2023-06-12 15:00:06.878,46.0898153,11.1155527,250.57572747040427,0.26,-125.26,2.12,null
SMAR,2023-06-12 15:00:06.914,46.0898153,11.1155527,250.57572747040427,0.29,-126.24,2.1,null
STON,2023-06-12 15:00:06.914,46.08980559333333,11.115530063333333,198.221,1.251968,130.014114,2.844687,2
SMAR,2023-06-12 15:00:06.949,46.0898153,11.1155527,250.57572747040427,0.29,-127.24,2.04,null
SMAR,2023-06-12 15:00:06.968,46.0898153,11.1155527,250.57572747040427,0.28,-128.23,1.98,null
SMAR,2023-06-12 15:00:07.012,46.0898153,11.1155527,250.57572747040427,0.29,-129.28,1.89,null
SMAR,2023-06-12 15:00:07.046,46.0898153,11.1155527,250.57572747040427,0.29,-130.33,1.8,null
STON,2023-06-12 15:00:07.046,46.08980559333333,11.115530063333333,198.221,1.482199,124.553558,2.646011,2
SMAR,2023-06-12 15:00:07.08,46.0898153,11.1155527,250.57572747040427,0.26,-131.4,1.72,null
SMAR,2023-06-12 15:00:07.111,46.0898153,11.1155527,250.57572747040427,0.25,-132.48,1.64,null
STON,2023-06-12 15:00:07.111,46.089805651666666,11.115529896666667,198.222,1.482199,124.553558,2.646011,2
SMAR,2023-06-12 15:00:07.146,46.0898153,11.1155527,250.57572747040427,0.2,-133.73,1.56,null
SMAR,2023-06-12 15:00:07.179,46.0898153,11.1155527,250.57572747040427,0.15,-135.25,1.48,null
STON,2023-06-12 15:00:07.179,46.089805651666666,11.115529896666667,198.222,1.385634,118.231812,2.165591,2
SMAR,2023-06-12 15:00:07.215,46.0898153,11.1155527,250.57572747040427,0.17,-136.89,1.39,null
SMAR,2023-06-12 15:00:07.235,46.0898153,11.1155527,250.57572747040427,0.13,-138.57,1.31,null
SMAR,2023-06-12 15:00:07.282,46.0898153,11.1155527,250.57572747040427,0.08,-140.16,1.24,null
SMAR,2023-06-12 15:00:07.314,46.0898153,11.1155527,250.57572747040427,0.07,-141.52,1.17,null
SMAR,2023-06-12 15:00:07.346,46.0898153,11.1155527,250.57572747040427,-0.01,-142.66,1.12,null
SMAR,2023-06-12 15:00:07.38,46.0898148,11.1155528,250.56729322954476,-0.07,-143.63,1.07,null
SMAR,2023-06-12 15:00:07.413,46.0898148,11.1155528,250.56729322954476,-0.11,-144.52,1.03,null
SMAR,2023-06-12 15:00:07.446,46.0898148,11.1155528,250.56729322954476,-0.19,-145.48,1.0,null
SMAR,2023-06-12 15:00:07.479,46.0898148,11.1155528,250.56729322954476,-0.23,-146.69,0.96,null
SMAR,2023-06-12 15:00:07.513,46.0898148,11.1155528,250.56729322954476,-0.24,-148.11,0.93,null
SMAR,2023-06-12 15:00:07.545,46.0898148,11.1155528,250.56729322954476,-0.27,-149.56,0.9,null
STON,2023-06-12 15:00:07.545,46.089805685,11.115529698333333,198.219,1.385634,118.231812,2.165591,2
SMAR,2023-06-12 15:00:07.58,46.0898148,11.1155528,250.56729322954476,-0.3,-150.94,0.87,null
SMAR,2023-06-12 15:00:07.597,46.0898148,11.1155528,250.56729322954476,-0.35,-152.15,0.85,null
STON,2023-06-12 15:00:07.597,46.089805685,11.115529553333333,198.215,1.385634,118.231812,2.165591,2
SMAR,2023-06-12 15:00:07.641,46.0898148,11.1155528,250.56729322954476,-0.37,-153.22,0.82,null
SMAR,2023-06-12 15:00:07.68,46.0898148,11.1155528,250.56729322954476,-0.43,-154.3,0.8,null
STON,2023-06-12 15:00:07.68,46.089805685,11.115529553333333,198.215,0.869184,102.802483,1.434499,2
SMAR,2023-06-12 15:00:07.713,46.0898148,11.1155528,250.56729322954476,-0.43,-155.45,0.78,null
STON,2023-06-12 15:00:07.713,46.089805705,11.115529426666667,198.212,0.869184,102.802483,1.434499,2
SMAR,2023-06-12 15:00:07.754,46.0898148,11.1155528,250.56729322954476,-0.47,-156.74,0.76,null
SMAR,2023-06-12 15:00:07.771,46.0898148,11.1155528,250.56729322954476,-0.49,-158.21,0.73,null
SMAR,2023-06-12 15:00:07.814,46.0898148,11.1155528,250.56729322954476,-0.46,-159.77,0.72,null
STON,2023-06-12 15:00:07.814,46.089805705,11.115529426666667,198.212,0.633681,95.776886,1.272439,2
SMAR,2023-06-12 15:00:07.831,46.0898148,11.1155528,250.56729322954476,-0.47,-161.26,0.7,null
SMAR,2023-06-12 15:00:07.879,46.0898148,11.1155528,250.56729322954476,-0.48,-162.6,0.69,null
SMAR,2023-06-12 15:00:07.913,46.0898148,11.1155528,250.56729322954476,-0.46,-163.86,0.68,null
STON,2023-06-12 15:00:07.913,46.08980571666667,11.115529375,198.216,0.633681,95.776886,1.272439,2
SMAR,2023-06-12 15:00:07.949,46.0898148,11.1155528,250.56729322954476,-0.47,-165.11,0.7,null
SMAR,2023-06-12 15:00:07.968,46.0898148,11.1155528,250.56729322954476,-0.47,-166.49,0.71,null
SMAR,2023-06-12 15:00:08.013,46.0898148,11.1155528,250.56729322954476,-0.41,-168.05,0.74,null
SMAR,2023-06-12 15:00:08.047,46.0898148,11.1155528,250.56729322954476,-0.37,-169.57,0.78,null
SMAR,2023-06-12 15:00:08.081,46.0898148,11.1155528,250.56729322954476,-0.35,-170.88,0.83,null
SMAR,2023-06-12 15:00:08.113,46.0898148,11.1155528,250.56729322954476,-0.35,-172.0,0.88,null
SMAR,2023-06-12 15:00:08.149,46.0898148,11.1155528,250.56729322954476,-0.32,-172.95,0.93,null
STON,2023-06-12 15:00:08.149,46.08980564,11.11552937,198.215,0.633681,95.776886,1.272439,2
SMAR,2023-06-12 15:00:08.179,46.0898148,11.1155528,250.56729322954476,-0.33,-173.74,1.01,null
SMAR,2023-06-12 15:00:08.212,46.0898148,11.1155528,250.56729322954476,-0.37,-174.47,1.09,null
STON,2023-06-12 15:00:08.212,46.08980564,11.11552937,198.215,0.719984,79.855003,1.4282,2
SMAR,2023-06-12 15:00:08.246,46.0898148,11.1155528,250.56729322954476,-0.39,-175.28,1.15,null
SMAR,2023-06-12 15:00:08.28,46.0898148,11.1155528,250.56729322954476,-0.41,-176.43,1.2,null
SMAR,2023-06-12 15:00:08.314,46.0898148,11.1155528,250.56729322954476,-0.41,-177.92,1.25,null
SMAR,2023-06-12 15:00:08.348,46.0898148,11.1155528,250.56729322954476,-0.37,-179.53,1.3,null
SMAR,2023-06-12 15:00:08.383,46.0898142,11.1155526,250.5815111405134,-0.36,178.89,1.33,null
SMAR,2023-06-12 15:00:08.416,46.0898142,11.1155526,250.5815111405134,-0.33,177.56,1.36,null
STON,2023-06-12 15:00:08.416,46.08980554,11.115529248333333,198.217,0.719984,79.855003,1.4282,2
SMAR,2023-06-12 15:00:08.446,46.0898142,11.1155526,250.5815111405134,-0.29,176.51,1.36,null
STON,2023-06-12 15:00:08.446,46.08980554,11.115529248333333,198.217,0.650322,73.555611,1.815024,2
SMAR,2023-06-12 15:00:08.479,46.0898142,11.1155526,250.5815111405134,-0.29,175.71,1.37,null
SMAR,2023-06-12 15:00:08.513,46.0898142,11.1155526,250.5815111405134,-0.27,175.02,1.38,null
STON,2023-06-12 15:00:08.513,46.08980549666666,11.115529233333334,198.217,0.650322,73.555611,1.815024,2
SMAR,2023-06-12 15:00:08.549,46.0898142,11.1155526,250.5815111405134,-0.27,174.31,1.37,null
SMAR,2023-06-12 15:00:08.564,46.0898142,11.1155526,250.5815111405134,-0.27,173.56,1.36,null
SMAR,2023-06-12 15:00:08.615,46.0898142,11.1155526,250.5815111405134,-0.26,172.76,1.32,null
STON,2023-06-12 15:00:08.615,46.08980549666666,11.115529233333334,198.217,0.7488,67.364998,1.9065,2
SMAR,2023-06-12 15:00:08.649,46.0898142,11.1155526,250.5815111405134,-0.27,171.86,1.3,null
SMAR,2023-06-12 15:00:08.678,46.0898142,11.1155526,250.5815111405134,-0.3,170.91,1.27,null
SMAR,2023-06-12 15:00:08.714,46.0898142,11.1155526,250.5815111405134,-0.3,169.84,1.24,null
STON,2023-06-12 15:00:08.714,46.089805525,11.11552921,198.215,0.7488,67.364998,1.9065,2
SMAR,2023-06-12 15:00:08.753,46.0898142,11.1155526,250.5815111405134,-0.31,168.65,1.2,null
SMAR,2023-06-12 15:00:08.773,46.0898142,11.1155526,250.5815111405134,-0.33,167.48,1.17,null
STON,2023-06-12 15:00:08.773,46.089805525,11.11552921,198.215,0.72097,61.941631,1.751431,2
SMAR,2023-06-12 15:00:08.816,46.0898142,11.1155526,250.5815111405134,-0.35,166.42,1.12,null
SMAR,2023-06-12 15:00:08.834,46.0898142,11.1155526,250.5815111405134,-0.36,165.49,1.07,null
SMAR,2023-06-12 15:00:08.881,46.0898142,11.1155526,250.5815111405134,-0.4,164.71,1.02,null
SMAR,2023-06-12 15:00:08.914,46.0898142,11.1155526,250.5815111405134,-0.4,164.1,1.01,null
SMAR,2023-06-12 15:00:08.947,46.0898142,11.1155526,250.5815111405134,-0.41,163.0,0.98,null
STON,2023-06-12 15:00:08.947,46.089805616666666,11.115529186666667,198.217,0.72097,61.941631,1.751431,2
SMAR,2023-06-12 15:00:08.982,46.0898142,11.1155526,250.5815111405134,-0.39,161.84,0.94,null
SMAR,2023-06-12 15:00:09.001,46.0898142,11.1155526,250.5815111405134,-0.42,160.82,0.93,null
STON,2023-06-12 15:00:09.001,46.089805616666666,11.115529186666667,198.217,0.589492,56.172436,1.4959,2
SMAR,2023-06-12 15:00:09.041,46.0898142,11.1155526,250.5815111405134,-0.4,160.12,0.94,null
SMAR,2023-06-12 15:00:09.083,46.0898142,11.1155526,250.5815111405134,-0.46,159.38,0.94,null
SMAR,2023-06-12 15:00:09.115,46.0898142,11.1155526,250.5815111405134,-0.49,158.63,0.96,null
SMAR,2023-06-12 15:00:09.134,46.0898142,11.1155526,250.5815111405134,-0.53,157.68,0.97,null
SMAR,2023-06-12 15:00:09.167,46.0898142,11.1155526,250.5815111405134,-0.57,156.55,1.01,null
STON,2023-06-12 15:00:09.167,46.08980567,11.115529088333334,198.221,0.589492,56.172436,1.4959,2
SMAR,2023-06-12 15:00:09.215,46.0898142,11.1155526,250.5815111405134,-0.57,155.35,1.03,null
STON,2023-06-12 15:00:09.215,46.08980567,11.115529088333334,198.221,0.423129,50.786846,1.456014,2
SMAR,2023-06-12 15:00:09.231,46.0898142,11.1155526,250.5815111405134,-0.58,154.13,1.07,null
SMAR,2023-06-12 15:00:09.264,46.0898142,11.1155526,250.5815111405134,-0.6,153.08,1.11,null
SMAR,2023-06-12 15:00:09.317,46.0898142,11.1155526,250.5815111405134,-0.59,152.42,1.14,null
SMAR,2023-06-12 15:00:09.35,46.0898142,11.1155526,250.5815111405134,-0.64,152.01,1.16,null
SMAR,2023-06-12 15:00:09.382,46.089814,11.1155506,250.5961263717176,-0.68,151.62,1.17,null
SMAR,2023-06-12 15:00:09.414,46.089814,11.1155506,250.5961263717176,-0.68,150.99,1.15,null
STON,2023-06-12 15:00:09.414,46.089805668333334,11.115528958333334,198.225,0.423129,50.786846,1.456014,2
SMAR,2023-06-12 15:00:09.462,46.089814,11.1155506,250.5961263717176,-0.69,149.01,1.12,null
STON,2023-06-12 15:00:09.462,46.089805668333334,11.115528958333334,198.225,0.286968,45.07391,1.661149,2
SMAR,2023-06-12 15:00:09.487,46.089814,11.1155506,250.5961263717176,-0.71,147.92,1.08,null
SMAR,2023-06-12 15:00:09.52,46.089814,11.1155506,250.5961263717176,-0.71,146.9,1.03,null
SMAR,2023-06-12 15:00:09.566,46.089814,11.1155506,250.5961263717176,-0.75,145.89,0.98,null
SMAR,2023-06-12 15:00:09.586,46.089814,11.1155506,250.5961263717176,-0.78,144.85,0.93,null
STON,2023-06-12 15:00:09.586,46.08980571666667,11.11552893,198.23,0.286968,45.07391,1.661149,2
SMAR,2023-06-12 15:00:09.623,46.089814,11.1155506,250.5961263717176,-0.79,143.75,0.86,null
STON,2023-06-12 15:00:09.623,46.08980571666667,11.11552893,198.23,0.202955,40.164394,1.559276,2
SMAR,2023-06-12 15:00:09.652,46.089814,11.1155506,250.5961263717176,-0.82,142.54,0.79,null
SMAR,2023-06-12 15:00:09.694,46.089814,11.1155506,250.5961263717176,-0.81,141.26,0.7,null
SMAR,2023-06-12 15:00:09.727,46.089814,11.1155506,250.5961263717176,-0.84,139.9,0.64,null
SMAR,2023-06-12 15:00:09.751,46.089814,11.1155506,250.5961263717176,-0.86,138.49,0.57,null
STON,2023-06-12 15:00:09.751,46.089805823333336,11.11552901,198.229,0.202955,40.164394,1.559276,2
SMAR,2023-06-12 15:00:09.791,46.089814,11.1155506,250.5961263717176,-0.88,137.0,0.52,null
SMAR,2023-06-12 15:00:09.823,46.089814,11.1155506,250.5961263717176,-0.86,135.51,0.48,null
STON,2023-06-12 15:00:09.823,46.089805823333336,11.11552901,198.229,0.075465,33.332207,1.181415,2
SMAR,2023-06-12 15:00:09.867,46.089814,11.1155506,250.5961263717176,-0.86,133.99,0.44,null
SMAR,2023-06-12 15:00:09.89,46.089814,11.1155506,250.5961263717176,-0.84,132.62,0.43,null
SMAR,2023-06-12 15:00:09.936,46.089814,11.1155506,250.5961263717176,-0.84,131.41,0.42,null
SMAR,2023-06-12 15:00:09.955,46.089814,11.1155506,250.5961263717176,-0.86,130.29,0.43,null
STON,2023-06-12 15:00:09.955,46.089805875,11.115529086666667,198.227,0.075465,33.332207,1.181415,2
SMAR,2023-06-12 15:00:09.988,46.089814,11.1155506,250.5961263717176,-0.87,129.03,0.43,null
SMAR,2023-06-12 15:00:10.029,46.089814,11.1155506,250.5961263717176,-0.85,127.69,0.45,null
SMAR,2023-06-12 15:00:10.067,46.089814,11.1155506,250.5961263717176,-0.87,126.27,0.48,null
STON,2023-06-12 15:00:10.067,46.089805875,11.115529086666667,198.227,0.060478,24.929707,0.961855,2
SMAR,2023-06-12 15:00:10.117,46.089814,11.1155506,250.5961263717176,-0.86,124.79,0.5,null
SMAR,2023-06-12 15:00:10.139,46.089814,11.1155506,250.5961263717176,-0.85,123.42,0.55,null
STON,2023-06-12 15:00:10.139,46.08980587666667,11.115529023333334,198.229,0.060478,24.929707,0.961855,2
SMAR,2023-06-12 15:00:10.166,46.089814,11.1155506,250.5961263717176,-0.88,122.31,0.59,null
SMAR,2023-06-12 15:00:10.2,46.089814,11.1155506,250.5961263717176,-0.88,121.47,0.65,null
SMAR,2023-06-12 15:00:10.232,46.089814,11.1155506,250.5961263717176,-0.86,120.81,0.69,null
STON,2023-06-12 15:00:10.232,46.08980587666667,11.115529023333334,198.229,0.037609,17.072433,1.114718,2
SMAR,2023-06-12 15:00:10.266,46.089814,11.1155506,250.5961263717176,-0.87,120.2,0.74,null
SMAR,2023-06-12 15:00:10.299,46.089814,11.1155506,250.5961263717176,-0.86,119.55,0.79,null
SMAR,2023-06-12 15:00:10.334,46.089814,11.1155506,250.5961263717176,-0.86,118.73,0.83,null
SMAR,2023-06-12 15:00:10.366,46.089814,11.1155506,250.5961263717176,-0.87,117.78,0.89,null
SMAR,2023-06-12 15:00:10.398,46.0898141,11.1155479,250.57213411821297,-0.88,116.73,0.92,null
SMAR,2023-06-12 15:00:10.435,46.0898141,11.1155479,250.57213411821297,-0.92,115.66,0.96,null
SMAR,2023-06-12 15:00:10.467,46.0898141,11.1155479,250.57213411821297,-0.95,114.59,0.99,null
STON,2023-06-12 15:00:10.467,46.089805858333335,11.115528883333333,198.231,0.037609,17.072433,1.114718,2
SMAR,2023-06-12 15:00:10.5,46.0898141,11.1155479,250.57213411821297,-0.99,113.64,1.01,null
SMAR,2023-06-12 15:00:10.532,46.0898141,11.1155479,250.57213411821297,-1.05,112.81,1.03,null
SMAR,2023-06-12 15:00:10.566,46.0898141,11.1155479,250.57213411821297,-1.14,111.88,1.05,null
SMAR,2023-06-12 15:00:10.604,46.0898141,11.1155479,250.57213411821297,-1.2,110.82,1.08,null
STON,2023-06-12 15:00:10.604,46.089805858333335,11.115528883333333,198.231,0.022672,12.342779,1.402976,2
SMAR,2023-06-12 15:00:10.636,46.0898141,11.1155479,250.57213411821297,-1.28,109.58,1.11,null
STON,2023-06-12 15:00:10.636,46.089805928333334,11.11552879,198.235,0.022672,12.342779,1.402976,2
SMAR,2023-06-12 15:00:10.67,46.0898141,11.1155479,250.57213411821297,-1.36,108.29,1.14,null
SMAR,2023-06-12 15:00:10.7,46.0898141,11.1155479,250.57213411821297,-1.41,107.15,1.18,null
SMAR,2023-06-12 15:00:10.732,46.0898141,11.1155479,250.57213411821297,-1.54,106.16,1.2,null
SMAR,2023-06-12 15:00:10.766,46.0898141,11.1155479,250.57213411821297,-1.67,105.24,1.22,null
SMAR,2023-06-12 15:00:10.804,46.0898141,11.1155479,250.57213411821297,-1.75,104.22,1.24,null
STON,2023-06-12 15:00:10.804,46.089805928333334,11.11552879,198.235,-0.116472,6.470558,1.615744,2
SMAR,2023-06-12 15:00:10.834,46.0898141,11.1155479,250.57213411821297,-1.88,103.0,1.26,null
SMAR,2023-06-12 15:00:10.865,46.0898141,11.1155479,250.57213411821297,-1.97,101.63,1.29,null
SMAR,2023-06-12 15:00:10.905,46.0898141,11.1155479,250.57213411821297,-2.04,100.22,1.31,null
STON,2023-06-12 15:00:10.905,46.08980608833333,11.11552874,198.237,-0.116472,6.470558,1.615744,2
SMAR,2023-06-12 15:00:10.934,46.0898141,11.1155479,250.57213411821297,-2.16,98.79,1.35,null
SMAR,2023-06-12 15:00:10.965,46.0898141,11.1155479,250.57213411821297,-2.25,97.36,1.38,null
SMAR,2023-06-12 15:00:11.0,46.0898141,11.1155479,250.57213411821297,-2.32,96.01,1.42,null
SMAR,2023-06-12 15:00:11.035,46.0898141,11.1155479,250.57213411821297,-2.43,94.74,1.44,null
SMAR,2023-06-12 15:00:11.069,46.0898141,11.1155479,250.57213411821297,-2.51,93.56,1.46,null
SMAR,2023-06-12 15:00:11.099,46.0898141,11.1155479,250.57213411821297,-2.58,92.58,1.46,null
SMAR,2023-06-12 15:00:11.139,46.0898141,11.1155479,250.57213411821297,-2.68,91.74,1.46,null
SMAR,2023-06-12 15:00:11.166,46.0898141,11.1155479,250.57213411821297,-2.76,90.85,1.45,null
STON,2023-06-12 15:00:11.166,46.08980608833333,11.11552874,198.237,-0.582519,-0.079734,1.756454,2
STON,2023-06-12 15:00:11.166,46.08980630166667,11.115528778333333,198.231,-0.582519,-0.079734,1.756454,2
SMAR,2023-06-12 15:00:11.206,46.0898141,11.1155479,250.57213411821297,-2.65,89.57,1.45,null
SMAR,2023-06-12 15:00:11.234,46.0898141,11.1155479,250.57213411821297,-2.69,88.29,1.46,null
STON,2023-06-12 15:00:11.234,46.08980630166667,11.115528778333333,198.231,-1.216144,-7.269085,1.899975,2
STON,2023-06-12 15:00:11.234,46.089806483333334,11.115528888333333,198.229,-1.216144,-7.269085,1.899975,2
SMAR,2023-06-12 15:00:11.267,46.0898141,11.1155479,250.57213411821297,-2.7,86.99,1.44,null
STON,2023-06-12 15:00:11.267,46.089806483333334,11.115528888333333,198.229,-1.72345,-14.380943,1.999411,2
SMAR,2023-06-12 15:00:11.299,46.0898141,11.1155479,250.57213411821297,-2.64,85.74,1.44,null
SMAR,2023-06-12 15:00:11.333,46.0898141,11.1155479,250.57213411821297,-2.65,84.58,1.42,null
SMAR,2023-06-12 15:00:11.367,46.0898141,11.1155479,250.57213411821297,-2.63,83.36,1.4,null
SMAR,2023-06-12 15:00:11.4,46.0898143,11.1155465,250.6368588574212,-2.59,82.1,1.39,null
STON,2023-06-12 15:00:11.4,46.089806538333335,11.115529026666668,198.228,-1.72345,-14.380943,1.999411,2
SMAR,2023-06-12 15:00:11.433,46.0898143,11.1155465,250.6368588574212,-2.53,80.82,1.36,null
SMAR,2023-06-12 15:00:11.474,46.0898143,11.1155465,250.6368588574212,-2.48,79.65,1.35,null
SMAR,2023-06-12 15:00:11.51,46.0898143,11.1155465,250.6368588574212,-2.39,78.43,1.31,null
STON,2023-06-12 15:00:11.51,46.089806538333335,11.115529026666668,198.228,-1.898122,-21.182404,1.95797,2
SMAR,2023-06-12 15:00:11.535,46.0898143,11.1155465,250.6368588574212,-2.33,77.16,1.31,null
SMAR,2023-06-12 15:00:11.575,46.0898143,11.1155465,250.6368588574212,-2.25,75.79,1.3,null
STON,2023-06-12 15:00:11.575,46.089806455,11.11552908,198.228,-1.898122,-21.182404,1.95797,2
SMAR,2023-06-12 15:00:11.599,46.0898143,11.1155465,250.6368588574212,-2.16,74.37,1.32,null
SMAR,2023-06-12 15:00:11.633,46.0898143,11.1155465,250.6368588574212,-2.02,72.88,1.34,null
SMAR,2023-06-12 15:00:11.668,46.0898143,11.1155465,250.6368588574212,-1.9,71.36,1.36,null
STON,2023-06-12 15:00:11.668,46.089806455,11.11552908,198.228,-1.594879,-28.393951,1.883043,2
SMAR,2023-06-12 15:00:11.699,46.0898143,11.1155465,250.6368588574212,-1.73,69.92,1.39,null
SMAR,2023-06-12 15:00:11.734,46.0898143,11.1155465,250.6368588574212,-1.62,68.58,1.43,null
STON,2023-06-12 15:00:11.734,46.08980633833333,11.115528958333334,198.23,-1.594879,-28.393951,1.883043,2
SMAR,2023-06-12 15:00:11.766,46.0898143,11.1155465,250.6368588574212,-1.51,67.38,1.49,null
SMAR,2023-06-12 15:00:11.802,46.0898143,11.1155465,250.6368588574212,-1.41,66.15,1.53,null
SMAR,2023-06-12 15:00:11.835,46.0898143,11.1155465,250.6368588574212,-1.3,64.77,1.54,null
STON,2023-06-12 15:00:11.835,46.08980633833333,11.115528958333334,198.23,-0.900467,-36.822517,2.072102,2
SMAR,2023-06-12 15:00:11.869,46.0898143,11.1155465,250.6368588574212,-1.18,63.19,1.6,null
SMAR,2023-06-12 15:00:11.904,46.0898143,11.1155465,250.6368588574212,-1.04,61.55,1.61,null
SMAR,2023-06-12 15:00:11.937,46.0898143,11.1155465,250.6368588574212,-0.95,59.88,1.65,null
SMAR,2023-06-12 15:00:11.973,46.0898143,11.1155465,250.6368588574212,-0.87,58.35,1.67,null
STON,2023-06-12 15:00:11.973,46.08980627333333,11.115528768333334,198.236,-0.900467,-36.822517,2.072102,2
SMAR,2023-06-12 15:00:12.0,46.0898143,11.1155465,250.6368588574212,-0.77,57.03,1.68,null
STON,2023-06-12 15:00:12.0,46.08980627333333,11.115528768333334,198.236,-0.216469,-45.391708,2.405813,2
SMAR,2023-06-12 15:00:12.035,46.0898143,11.1155465,250.6368588574212,-0.74,55.88,1.68,null
SMAR,2023-06-12 15:00:12.071,46.0898143,11.1155465,250.6368588574212,-0.7,54.8,1.68,null
SMAR,2023-06-12 15:00:12.102,46.0898143,11.1155465,250.6368588574212,-0.67,53.76,1.68,null
SMAR,2023-06-12 15:00:12.138,46.0898143,11.1155465,250.6368588574212,-0.63,52.76,1.67,null
STON,2023-06-12 15:00:12.138,46.08980626333334,11.115528751666666,198.234,-0.216469,-45.391708,2.405813,2
SMAR,2023-06-12 15:00:12.174,46.0898143,11.1155465,250.6368588574212,-0.61,51.64,1.66,null
SMAR,2023-06-12 15:00:12.212,46.0898143,11.1155465,250.6368588574212,-0.56,50.45,1.67,null
SMAR,2023-06-12 15:00:12.237,46.0898143,11.1155465,250.6368588574212,-0.55,49.28,1.67,null
SMAR,2023-06-12 15:00:12.27,46.0898143,11.1155465,250.6368588574212,-0.55,48.21,1.67,null
SMAR,2023-06-12 15:00:12.301,46.0898143,11.1155465,250.6368588574212,-0.52,47.16,1.69,null
SMAR,2023-06-12 15:00:12.334,46.0898143,11.1155465,250.6368588574212,-0.56,46.0,1.69,null
SMAR,2023-06-12 15:00:12.369,46.0898146,11.1155451,250.6472983778994,-0.58,44.76,1.69,null
STON,2023-06-12 15:00:12.369,46.089806275,11.115528808333334,198.235,-0.216469,-45.391708,2.405813,2
SMAR,2023-06-12 15:00:12.408,46.0898146,11.1155451,250.6472983778994,-0.62,43.51,1.68,null
STON,2023-06-12 15:00:12.408,46.089806275,11.115528808333334,198.235,0.215303,-59.273773,2.501651,2
SMAR,2023-06-12 15:00:12.433,46.0898146,11.1155451,250.6472983778994,-0.65,42.41,1.68,null
SMAR,2023-06-12 15:00:12.467,46.0898146,11.1155451,250.6472983778994,-0.71,41.4,1.67,null
SMAR,2023-06-12 15:00:12.502,46.0898146,11.1155451,250.6472983778994,-0.75,40.41,1.65,null
SMAR,2023-06-12 15:00:12.538,46.0898146,11.1155451,250.6472983778994,-0.82,39.33,1.64,null
STON,2023-06-12 15:00:12.538,46.08980632,11.115528991666666,198.233,0.215303,-59.273773,2.501651,2
SMAR,2023-06-12 15:00:12.568,46.0898146,11.1155451,250.6472983778994,-0.87,38.35,1.62,null
SMAR,2023-06-12 15:00:12.602,46.0898146,11.1155451,250.6472983778994,-0.95,37.51,1.61,null
SMAR,2023-06-12 15:00:12.634,46.0898146,11.1155451,250.6472983778994,-1.01,36.87,1.6,null
SMAR,2023-06-12 15:00:12.668,46.0898146,11.1155451,250.6472983778994,-1.12,36.22,1.59,null
SMAR,2023-06-12 15:00:12.702,46.0898146,11.1155451,250.6472983778994,-1.21,35.31,1.57,null
STON,2023-06-12 15:00:12.702,46.08980632,11.115528991666666,198.233,-0.007,-65.95089,2.465608,2
SMAR,2023-06-12 15:00:12.736,46.0898146,11.1155451,250.6472983778994,-1.25,33.94,1.56,null
SMAR,2023-06-12 15:00:12.773,46.0898146,11.1155451,250.6472983778994,-1.29,32.17,1.56,null
SMAR,2023-06-12 15:00:12.806,46.0898146,11.1155451,250.6472983778994,-1.29,30.21,1.57,null
SMAR,2023-06-12 15:00:12.835,46.0898146,11.1155451,250.6472983778994,-1.3,28.26,1.58,null
SMAR,2023-06-12 15:00:12.869,46.0898146,11.1155451,250.6472983778994,-1.35,26.56,1.59,null
SMAR,2023-06-12 15:00:12.901,46.0898146,11.1155451,250.6472983778994,-1.37,25.23,1.59,null
SMAR,2023-06-12 15:00:12.936,46.0898146,11.1155451,250.6472983778994,-1.42,24.08,1.58,null
SMAR,2023-06-12 15:00:12.977,46.0898146,11.1155451,250.6472983778994,-1.45,23.05,1.56,null
STON,2023-06-12 15:00:12.977,46.089806323333335,11.115529196666667,198.234,-0.007,-65.95089,2.465608,2
SMAR,2023-06-12 15:00:13.002,46.0898146,11.1155451,250.6472983778994,-1.49,22.07,1.53,null
STON,2023-06-12 15:00:13.002,46.089806323333335,11.115529196666667,198.234,-0.405852,-71.274216,2.386711,2
SMAR,2023-06-12 15:00:13.042,46.0898146,11.1155451,250.6472983778994,-1.52,20.92,1.51,null
STON,2023-06-12 15:00:13.042,46.089806323333335,11.115529335,198.237,-0.405852,-71.274216,2.386711,2
SMAR,2023-06-12 15:00:13.068,46.0898146,11.1155451,250.6472983778994,-1.55,19.46,1.48,null
SMAR,2023-06-12 15:00:13.101,46.0898146,11.1155451,250.6472983778994,-1.52,17.89,1.46,null
SMAR,2023-06-12 15:00:13.137,46.0898146,11.1155451,250.6472983778994,-1.54,16.36,1.43,null
SMAR,2023-06-12 15:00:13.169,46.0898146,11.1155451,250.6472983778994,-1.54,14.96,1.4,null
STON,2023-06-12 15:00:13.169,46.08980626666666,11.115529435,198.239,-0.405852,-71.274216,2.386711,2
SMAR,2023-06-12 15:00:13.2,46.0898146,11.1155451,250.6472983778994,-1.52,13.84,1.38,null
SMAR,2023-06-12 15:00:13.234,46.0898146,11.1155451,250.6472983778994,-1.55,12.91,1.34,null
STON,2023-06-12 15:00:13.234,46.08980626666666,11.115529435,198.239,-0.583178,-88.711418,2.2979,2
SMAR,2023-06-12 15:00:13.269,46.0898146,11.1155451,250.6472983778994,-1.57,12.06,1.3,null
SMAR,2023-06-12 15:00:13.301,46.0898146,11.1155451,250.6472983778994,-1.56,11.12,1.25,null
SMAR,2023-06-12 15:00:13.335,46.0898146,11.1155451,250.6472983778994,-1.58,9.96,1.21,null
SMAR,2023-06-12 15:00:13.368,46.0898146,11.1155451,250.6472983778994,-1.57,8.46,1.17,null
SMAR,2023-06-12 15:00:13.405,46.0898149,11.1155445,250.82232856011038,-1.53,6.79,1.12,null
STON,2023-06-12 15:00:13.405,46.08980619333333,11.115529501666666,198.24,-0.583178,-88.711418,2.2979,2
SMAR,2023-06-12 15:00:13.435,46.0898149,11.1155445,250.82232856011038,-1.49,5.15,1.08,null
SMAR,2023-06-12 15:00:13.469,46.0898149,11.1155445,250.82232856011038,-1.5,3.71,1.04,null
SMAR,2023-06-12 15:00:13.503,46.0898149,11.1155445,250.82232856011038,-1.46,2.47,1.01,null
SMAR,2023-06-12 15:00:13.537,46.0898149,11.1155445,250.82232856011038,-1.46,1.2,0.96,null
STON,2023-06-12 15:00:13.537,46.08980610166667,11.115529498333334,198.238,-0.583178,-88.711418,2.2979,2
SMAR,2023-06-12 15:00:13.573,46.0898149,11.1155445,250.82232856011038,-1.43,-0.08,0.93,null
SMAR,2023-06-12 15:00:13.601,46.0898149,11.1155445,250.82232856011038,-1.45,-1.38,0.91,null
SMAR,2023-06-12 15:00:13.638,46.0898149,11.1155445,250.82232856011038,-1.44,-2.7,0.89,null
SMAR,2023-06-12 15:00:13.676,46.0898149,11.1155445,250.82232856011038,-1.43,-4.18,0.88,null
SMAR,2023-06-12 15:00:13.703,46.0898149,11.1155445,250.82232856011038,-1.42,-5.75,0.86,null
SMAR,2023-06-12 15:00:13.736,46.0898149,11.1155445,250.82232856011038,-1.39,-7.2,0.86,null
SMAR,2023-06-12 15:00:13.77,46.0898149,11.1155445,250.82232856011038,-1.38,-8.47,0.85,null
STON,2023-06-12 15:00:13.77,46.089806045,11.115529501666666,198.235,-0.583178,-88.711418,2.2979,2
SMAR,2023-06-12 15:00:13.81,46.0898149,11.1155445,250.82232856011038,-1.37,-9.58,0.85,null
SMAR,2023-06-12 15:00:13.836,46.0898149,11.1155445,250.82232856011038,-1.41,-10.65,0.85,null
STON,2023-06-12 15:00:13.836,46.089806045,11.115529501666666,198.235,-0.301898,-112.174614,1.726681,2
SMAR,2023-06-12 15:00:13.87,46.0898149,11.1155445,250.82232856011038,-1.45,-11.73,0.87,null
SMAR,2023-06-12 15:00:13.922,46.0898149,11.1155445,250.82232856011038,-1.47,-12.82,0.86,null
SMAR,2023-06-12 15:00:13.937,46.0898149,11.1155445,250.82232856011038,-1.52,-13.94,0.87,null
SMAR,2023-06-12 15:00:13.968,46.0898149,11.1155445,250.82232856011038,-1.57,-15.09,0.87,null
STON,2023-06-12 15:00:13.968,46.089806005,11.11552957,198.238,-0.301898,-112.174614,1.726681,2
SMAR,2023-06-12 15:00:14.008,46.0898149,11.1155445,250.82232856011038,-1.6,-16.25,0.86,null
SMAR,2023-06-12 15:00:14.036,46.0898149,11.1155445,250.82232856011038,-1.66,-17.35,0.85,null
STON,2023-06-12 15:00:14.036,46.089806005,11.11552957,198.238,-0.406594,-118.952866,1.740272,2
SMAR,2023-06-12 15:00:14.069,46.0898149,11.1155445,250.82232856011038,-1.74,-18.37,0.84,null
SMAR,2023-06-12 15:00:14.106,46.0898149,11.1155445,250.82232856011038,-1.81,-19.39,0.82,null
SMAR,2023-06-12 15:00:14.136,46.0898149,11.1155445,250.82232856011038,-1.89,-20.47,0.79,null
SMAR,2023-06-12 15:00:14.171,46.0898149,11.1155445,250.82232856011038,-1.98,-21.61,0.77,null
STON,2023-06-12 15:00:14.171,46.0898059,11.115529673333333,198.24,-0.406594,-118.952866,1.740272,2
SMAR,2023-06-12 15:00:14.202,46.0898149,11.1155445,250.82232856011038,-2.08,-22.87,0.75,null
STON,2023-06-12 15:00:14.202,46.0898059,11.115529673333333,198.24,-0.738341,-125.479057,1.664872,2
SMAR,2023-06-12 15:00:14.237,46.0898149,11.1155445,250.82232856011038,-2.13,-24.12,0.72,null
SMAR,2023-06-12 15:00:14.269,46.0898149,11.1155445,250.82232856011038,-2.21,-25.27,0.68,null
SMAR,2023-06-12 15:00:14.302,46.0898149,11.1155445,250.82232856011038,-2.29,-26.33,0.64,null
SMAR,2023-06-12 15:00:14.337,46.0898149,11.1155445,250.82232856011038,-2.37,-27.42,0.59,null
SMAR,2023-06-12 15:00:14.372,46.0898147,11.1155446,250.8452957434173,-2.45,-28.57,0.55,null
SMAR,2023-06-12 15:00:14.406,46.0898147,11.1155446,250.8452957434173,-2.51,-29.72,0.52,null
STON,2023-06-12 15:00:14.406,46.08980573,11.115529748333334,198.242,-0.738341,-125.479057,1.664872,2
SMAR,2023-06-12 15:00:14.436,46.0898147,11.1155446,250.8452957434173,-2.58,-30.85,0.5,null
STON,2023-06-12 15:00:14.436,46.08980573,11.115529748333334,198.242,-1.160091,-132.38446,1.441588,2
SMAR,2023-06-12 15:00:14.475,46.0898147,11.1155446,250.8452957434173,-2.65,-31.87,0.5,null
SMAR,2023-06-12 15:00:14.502,46.0898147,11.1155446,250.8452957434173,-2.73,-32.8,0.5,null
SMAR,2023-06-12 15:00:14.539,46.0898147,11.1155446,250.8452957434173,-2.81,-33.77,0.51,null
SMAR,2023-06-12 15:00:14.571,46.0898147,11.1155446,250.8452957434173,-2.87,-34.93,0.53,null
STON,2023-06-12 15:00:14.571,46.08980556833333,11.115529805,198.241,-1.160091,-132.38446,1.441588,2
SMAR,2023-06-12 15:00:14.604,46.0898147,11.1155446,250.8452957434173,-2.95,-36.24,0.57,null
SMAR,2023-06-12 15:00:14.636,46.0898147,11.1155446,250.8452957434173,-2.99,-37.69,0.63,null
STON,2023-06-12 15:00:14.636,46.08980556833333,11.115529805,198.241,-1.566891,-138.717926,1.30443,2
SMAR,2023-06-12 15:00:14.67,46.0898147,11.1155446,250.8452957434173,-3.05,-39.24,0.68,null
SMAR,2023-06-12 15:00:14.706,46.0898147,11.1155446,250.8452957434173,-3.12,-40.67,0.75,null
SMAR,2023-06-12 15:00:14.739,46.0898147,11.1155446,250.8452957434173,-3.16,-41.9,0.84,null
SMAR,2023-06-12 15:00:14.771,46.0898147,11.1155446,250.8452957434173,-3.21,-42.88,0.9,null
STON,2023-06-12 15:00:14.771,46.08980545666667,11.11552991,198.242,-1.566891,-138.717926,1.30443,2
SMAR,2023-06-12 15:00:14.808,46.0898147,11.1155446,250.8452957434173,-3.25,-40.42,0.95,null
STON,2023-06-12 15:00:14.808,46.08980545666667,11.11552991,198.242,-1.907747,-146.76886,1.569779,2
SMAR,2023-06-12 15:00:14.836,46.0898147,11.1155446,250.8452957434173,-3.33,-41.05,1.0,null
SMAR,2023-06-12 15:00:14.869,46.0898147,11.1155446,250.8452957434173,-3.38,-41.78,1.06,null
SMAR,2023-06-12 15:00:14.903,46.0898147,11.1155446,250.8452957434173,-3.38,-42.86,1.13,null
SMAR,2023-06-12 15:00:14.938,46.0898147,11.1155446,250.8452957434173,-3.39,-44.12,1.2,null
STON,2023-06-12 15:00:14.938,46.089805385,11.115530026666667,198.245,-1.907747,-146.76886,1.569779,2
SMAR,2023-06-12 15:00:14.971,46.0898147,11.1155446,250.8452957434173,-3.36,-45.54,1.28,null
SMAR,2023-06-12 15:00:15.003,46.0898147,11.1155446,250.8452957434173,-3.3,-46.75,1.35,null
STON,2023-06-12 15:00:15.003,46.089805385,11.115530026666667,198.245,-2.149414,-152.088058,1.916907,2
SMAR,2023-06-12 15:00:15.036,46.0898147,11.1155446,250.8452957434173,-3.25,-48.09,1.42,null
SMAR,2023-06-12 15:00:15.071,46.0898147,11.1155446,250.8452957434173,-3.22,-49.34,1.48,null
SMAR,2023-06-12 15:00:15.105,46.0898147,11.1155446,250.8452957434173,-3.12,-51.03,1.51,null
SMAR,2023-06-12 15:00:15.139,46.0898147,11.1155446,250.8452957434173,-3.03,-52.38,1.56,null
STON,2023-06-12 15:00:15.139,46.089805435,11.115530016666666,198.247,-2.149414,-152.088058,1.916907,2
SMAR,2023-06-12 15:00:15.17,46.0898147,11.1155446,250.8452957434173,-2.95,-53.84,1.61,null
SMAR,2023-06-12 15:00:15.203,46.0898147,11.1155446,250.8452957434173,-2.8,-55.4,1.66,null
STON,2023-06-12 15:00:15.203,46.089805435,11.115530016666666,198.247,-1.810888,-160.134811,2.274539,2
SMAR,2023-06-12 15:00:15.237,46.0898147,11.1155446,250.8452957434173,-2.69,-57.02,1.7,null
SMAR,2023-06-12 15:00:15.27,46.0898147,11.1155446,250.8452957434173,-2.58,-58.65,1.74,null
SMAR,2023-06-12 15:00:15.306,46.0898147,11.1155446,250.8452957434173,-2.45,-60.29,1.76,null
SMAR,2023-06-12 15:00:15.339,46.0898147,11.1155446,250.8452957434173,-2.27,-61.89,1.77,null
SMAR,2023-06-12 15:00:15.372,46.0898147,11.1155446,250.8452957434173,-2.13,-63.52,1.77,null
SMAR,2023-06-12 15:00:15.403,46.089814,11.1155456,250.83485610690443,-1.96,-65.08,1.74,null
STON,2023-06-12 15:00:15.403,46.08980557833333,11.115529923333334,198.246,-1.810888,-160.134811,2.274539,2
STON,2023-06-12 15:00:15.403,46.08980557833333,11.115529923333334,198.246,-1.055511,-169.517258,2.466269,2
SMAR,2023-06-12 15:00:15.438,46.089814,11.1155456,250.83485610690443,-1.85,-66.64,1.73,null
SMAR,2023-06-12 15:00:15.476,46.089814,11.1155456,250.83485610690443,-1.73,-68.23,1.7,null
SMAR,2023-06-12 15:00:15.503,46.089814,11.1155456,250.83485610690443,-1.57,-69.86,1.68,null
SMAR,2023-06-12 15:00:15.539,46.089814,11.1155456,250.83485610690443,-1.44,-71.36,1.65,null
STON,2023-06-12 15:00:15.539,46.089805756666664,11.115529815,198.246,-1.055511,-169.517258,2.466269,2
SMAR,2023-06-12 15:00:15.572,46.089814,11.1155456,250.83485610690443,-1.33,-72.7,1.61,null
SMAR,2023-06-12 15:00:15.604,46.089814,11.1155456,250.83485610690443,-1.18,-73.97,1.57,null
STON,2023-06-12 15:00:15.604,46.089805756666664,11.115529815,198.246,-0.198729,-178.903107,2.336963,2
SMAR,2023-06-12 15:00:15.638,46.089814,11.1155456,250.83485610690443,-1.06,-75.26,1.54,null
SMAR,2023-06-12 15:00:15.671,46.089814,11.1155456,250.83485610690443,-0.95,-76.62,1.51,null
SMAR,2023-06-12 15:00:15.706,46.089814,11.1155456,250.83485610690443,-0.84,-78.06,1.51,null
SMAR,2023-06-12 15:00:15.739,46.089814,11.1155456,250.83485610690443,-0.69,-79.47,1.52,null
STON,2023-06-12 15:00:15.739,46.089805895,11.115529773333334,198.249,-0.198729,-178.903107,2.336963,2
SMAR,2023-06-12 15:00:15.777,46.089814,11.1155456,250.83485610690443,-0.57,-80.72,1.51,null
SMAR,2023-06-12 15:00:15.805,46.089814,11.1155456,250.83485610690443,-0.42,-81.83,1.51,null
STON,2023-06-12 15:00:15.805,46.089805895,11.115529773333334,198.249,0.542879,173.057785,2.170568,2
SMAR,2023-06-12 15:00:15.842,46.089814,11.1155456,250.83485610690443,-0.32,-82.68,1.5,null
SMAR,2023-06-12 15:00:15.873,46.089814,11.1155456,250.83485610690443,-0.24,-83.24,1.48,null
SMAR,2023-06-12 15:00:15.905,46.089814,11.1155456,250.83485610690443,-0.18,-83.65,1.45,null
STON,2023-06-12 15:00:15.905,46.089806071666665,11.11552984,198.226,0.542879,173.057785,2.170568,2
SMAR,2023-06-12 15:00:15.946,46.089814,11.1155456,250.83485610690443,-0.13,-84.06,1.42,null
SMAR,2023-06-12 15:00:15.971,46.089814,11.1155456,250.83485610690443,-0.1,-84.51,1.37,null
SMAR,2023-06-12 15:00:16.005,46.089814,11.1155456,250.83485610690443,-0.1,-84.99,1.32,null
SMAR,2023-06-12 15:00:16.04,46.089814,11.1155456,250.83485610690443,-0.12,-85.57,1.25,null
STON,2023-06-12 15:00:16.04,46.089806071666665,11.11552984,198.226,1.070118,168.265228,2.065183,2
SMAR,2023-06-12 15:00:16.075,46.089814,11.1155456,250.83485610690443,-0.17,-86.26,1.19,null
SMAR,2023-06-12 15:00:16.106,46.089814,11.1155456,250.83485610690443,-0.23,-87.04,1.12,null
SMAR,2023-06-12 15:00:16.141,46.089814,11.1155456,250.83485610690443,-0.28,-87.92,1.06,null
STON,2023-06-12 15:00:16.141,46.089806065,11.115529693333333,198.216,1.070118,168.265228,2.065183,2
SMAR,2023-06-12 15:00:16.171,46.089814,11.1155456,250.83485610690443,-0.36,-88.72,1.0,null
SMAR,2023-06-12 15:00:16.206,46.089814,11.1155456,250.83485610690443,-0.42,-89.55,0.96,null
SMAR,2023-06-12 15:00:16.238,46.089814,11.1155456,250.83485610690443,-0.51,-90.41,0.91,null
STON,2023-06-12 15:00:16.238,46.089806065,11.115529693333333,198.216,0.963445,164.446732,1.689785,2
SMAR,2023-06-12 15:00:16.272,46.089814,11.1155456,250.83485610690443,-0.58,-91.22,0.86,null
SMAR,2023-06-12 15:00:16.305,46.089814,11.1155456,250.83485610690443,-0.65,-91.93,0.84,null
SMAR,2023-06-12 15:00:16.344,46.089814,11.1155456,250.83485610690443,-0.74,-92.54,0.81,null
SMAR,2023-06-12 15:00:16.374,46.0898133,11.1155464,250.98677756869938,-0.83,-93.15,0.78,null
SMAR,2023-06-12 15:00:16.405,46.0898133,11.1155464,250.98677756869938,-0.88,-93.76,0.78,null
STON,2023-06-12 15:00:16.405,46.08980593333333,11.115529523333333,198.212,0.963445,164.446732,1.689785,2
SMAR,2023-06-12 15:00:16.439,46.0898133,11.1155464,250.98677756869938,-0.94,-94.3,0.77,null
SMAR,2023-06-12 15:00:16.473,46.0898133,11.1155464,250.98677756869938,-1.0,-94.74,0.78,null
STON,2023-06-12 15:00:16.473,46.08980593333333,11.115529523333333,198.212,0.457688,159.801895,1.378298,2
SMAR,2023-06-12 15:00:16.505,46.0898133,11.1155464,250.98677756869938,-1.04,-95.02,0.79,null
STON,2023-06-12 15:00:16.505,46.089805831666666,11.115529453333334,198.217,0.457688,159.801895,1.378298,2
SMAR,2023-06-12 15:00:16.544,46.0898133,11.1155464,250.98677756869938,-1.09,-95.25,0.8,null
SMAR,2023-06-12 15:00:16.573,46.0898133,11.1155464,250.98677756869938,-1.15,-95.6,0.83,null
