Input,Time,Latitude,Longitude,Altitude,Pitch,Yaw,Roll,Stonex_status
SMAR,2023-06-12 14:59:40.623,46.0898097,11.1155356,250.54249341693006,-4.64,102.99,2.04,null
SMAR,2023-06-12 14:59:40.656,46.0898097,11.1155356,250.54249341693006,-4.62,102.38,2.07,null
STON,2023-06-12 14:59:40.656,46.08980695,11.115528488333334,198.204,-3.634022,-2.851758,2.740711,2
SMAR,2023-06-12 14:59:40.686,46.0898097,11.1155356,250.54249341693006,-4.68,102.11,2.06,null
STON,2023-06-12 14:59:40.686,46.089806975,11.115528491666666,198.209,-3.634022,-2.851758,2.740711,2
SMAR,2023-06-12 14:59:40.722,46.0898097,11.1155356,250.54249341693006,-4.73,102.27,2.03,null
SMAR,2023-06-12 14:59:40.753,46.0898097,11.1155356,250.54249341693006,-4.8,102.49,1.97,null
STON,2023-06-12 14:59:40.753,46.08980704166667,11.115528531666667,198.203,-3.634022,-2.851758,2.740711,2
SMAR,2023-06-12 14:59:40.789,46.0898097,11.1155356,250.54249341693006,-4.88,102.54,1.97,null
SMAR,2023-06-12 14:59:40.824,46.0898097,11.1155356,250.54249341693006,-4.92,102.37,1.95,null
SMAR,2023-06-12 14:59:40.855,46.0898097,11.1155356,250.54249341693006,-4.97,102.05,1.95,null
SMAR,2023-06-12 14:59:40.89,46.0898097,11.1155356,250.54249341693006,-5.02,101.7,1.96,null
STON,2023-06-12 14:59:40.89,46.08980704166667,11.115528531666667,198.203,-3.837966,-4.446333,2.712558,2
SMAR,2023-06-12 14:59:40.917,46.0898097,11.1155356,250.54249341693006,-5.06,101.34,1.95,null
SMAR,2023-06-12 14:59:40.954,46.0898097,11.1155356,250.54249341693006,-5.09,100.84,1.96,null
SMAR,2023-06-12 14:59:40.987,46.0898097,11.1155356,250.54249341693006,-5.09,100.16,1.96,null
STON,2023-06-12 14:59:40.987,46.08980714333333,11.115528618333334,198.202,-3.837966,-4.446333,2.712558,2
SMAR,2023-06-12 14:59:41.022,46.0898097,11.1155356,250.54249341693006,-5.09,99.37,1.98,null
SMAR,2023-06-12 14:59:41.052,46.0898097,11.1155356,250.54249341693006,-5.1,98.47,2.0,null
STON,2023-06-12 14:59:41.052,46.08980714333333,11.115528618333334,198.202,-4.180817,-5.173751,2.603614,2
SMAR,2023-06-12 14:59:41.089,46.0898097,11.1155356,250.54249341693006,-5.1,97.55,2.03,null
SMAR,2023-06-12 14:59:41.126,46.0898097,11.1155356,250.54249341693006,-5.09,96.59,2.06,null
SMAR,2023-06-12 14:59:41.159,46.0898097,11.1155356,250.54249341693006,-5.09,95.74,2.07,null
SMAR,2023-06-12 14:59:41.192,46.0898097,11.1155356,250.54249341693006,-5.1,94.97,2.07,null
STON,2023-06-12 14:59:41.192,46.08980716,11.115528738333333,198.209,-4.180817,-5.173751,2.603614,2
SMAR,2023-06-12 14:59:41.222,46.0898097,11.1155356,250.54249341693006,-5.09,94.23,2.05,null
SMAR,2023-06-12 14:59:41.254,46.0898097,11.1155356,250.54249341693006,-5.11,93.45,2.02,null
SMAR,2023-06-12 14:59:41.285,46.0898097,11.1155356,250.54249341693006,-5.1,92.44,1.98,null
STON,2023-06-12 14:59:41.285,46.08980716,11.115528738333333,198.209,-4.215042,-9.663187,2.711172,2
SMAR,2023-06-12 14:59:41.325,46.0898097,11.1155356,250.54249341693006,-5.09,91.23,1.94,null
SMAR,2023-06-12 14:59:41.363,46.0898097,11.1155356,250.54249341693006,-5.12,89.79,1.92,null
SMAR,2023-06-12 14:59:41.393,46.0898097,11.1155356,250.54249341693006,-5.15,88.02,1.89,null
SMAR,2023-06-12 14:59:41.425,46.0898101,11.1155354,250.3754671330153,-5.12,85.76,1.86,null
STON,2023-06-12 14:59:41.425,46.08980717666667,11.115528958333334,198.209,-4.215042,-9.663187,2.711172,2
SMAR,2023-06-12 14:59:41.461,46.0898101,11.1155354,250.3754671330153,-5.15,83.13,1.84,null
SMAR,2023-06-12 14:59:41.512,46.0898101,11.1155354,250.3754671330153,-5.14,80.41,1.8,null
STON,2023-06-12 14:59:41.512,46.08980717666667,11.115528958333334,198.209,-4.217041,-14.866733,2.621562,2
SMAR,2023-06-12 14:59:41.539,46.0898101,11.1155354,250.3754671330153,-5.16,77.77,1.79,null
SMAR,2023-06-12 14:59:41.562,46.0898101,11.1155354,250.3754671330153,-5.21,75.46,1.73,null
STON,2023-06-12 14:59:41.562,46.08980715,11.11552942,198.214,-4.217041,-14.866733,2.621562,2
SMAR,2023-06-12 14:59:41.6,46.0898101,11.1155354,250.3754671330153,-5.33,73.52,1.68,null
SMAR,2023-06-12 14:59:41.629,46.0898101,11.1155354,250.3754671330153,-5.38,71.74,1.59,null
STON,2023-06-12 14:59:41.629,46.08980715,11.11552942,198.214,-4.210806,-27.757435,2.497086,2
SMAR,2023-06-12 14:59:41.658,46.0898101,11.1155354,250.3754671330153,-5.49,69.82,1.51,null
SMAR,2023-06-12 14:59:41.69,46.0898101,11.1155354,250.3754671330153,-5.62,67.57,1.47,null
SMAR,2023-06-12 14:59:41.741,46.0898101,11.1155354,250.3754671330153,-5.66,65.14,1.46,null
SMAR,2023-06-12 14:59:41.765,46.0898101,11.1155354,250.3754671330153,-5.78,62.67,1.48,null
SMAR,2023-06-12 14:59:41.798,46.0898101,11.1155354,250.3754671330153,-5.92,60.24,1.52,null
STON,2023-06-12 14:59:41.798,46.08980709,11.115530048333333,198.218,-4.210806,-27.757435,2.497086,2
SMAR,2023-06-12 14:59:41.824,46.0898101,11.1155354,250.3754671330153,-5.95,57.81,1.56,null
SMAR,2023-06-12 14:59:41.861,46.0898101,11.1155354,250.3754671330153,-6.01,55.35,1.58,null
STON,2023-06-12 14:59:41.861,46.08980709,11.115530048333333,198.218,-4.643147,-40.416248,2.161825,2
SMAR,2023-06-12 14:59:41.894,46.0898101,11.1155354,250.3754671330153,-6.12,52.87,1.63,null
SMAR,2023-06-12 14:59:41.932,46.0898101,11.1155354,250.3754671330153,-6.11,50.44,1.65,null
SMAR,2023-06-12 14:59:41.969,46.0898101,11.1155354,250.3754671330153,-6.16,48.0,1.66,null
STON,2023-06-12 14:59:41.969,46.089807001666664,11.115530575,198.212,-4.643147,-40.416248,2.161825,2
SMAR,2023-06-12 14:59:42.007,46.0898101,11.1155354,250.3754671330153,-6.24,45.48,1.69,null
SMAR,2023-06-12 14:59:42.041,46.0898101,11.1155354,250.3754671330153,-6.2,42.95,1.72,null
STON,2023-06-12 14:59:42.041,46.089807001666664,11.115530575,198.212,-5.059924,-55.061661,2.31461,2
SMAR,2023-06-12 14:59:42.057,46.0898101,11.1155354,250.3754671330153,-6.21,40.35,1.75,null
SMAR,2023-06-12 14:59:42.094,46.0898101,11.1155354,250.3754671330153,-6.23,37.71,1.79,null
SMAR,2023-06-12 14:59:42.152,46.0898101,11.1155354,250.3754671330153,-6.15,35.12,1.87,null
SMAR,2023-06-12 14:59:42.171,46.0898101,11.1155354,250.3754671330153,-6.14,32.36,1.93,null
SMAR,2023-06-12 14:59:42.204,46.0898101,11.1155354,250.3754671330153,-6.09,29.44,2.01,null
SMAR,2023-06-12 14:59:42.236,46.0898101,11.1155354,250.3754671330153,-5.98,26.54,2.11,null
STON,2023-06-12 14:59:42.236,46.08980673666667,11.115530928333333,198.195,-5.059924,-55.061661,2.31461,2
SMAR,2023-06-12 14:59:42.269,46.0898101,11.1155354,250.3754671330153,-5.92,23.87,2.17,null
STON,2023-06-12 14:59:42.269,46.08980673666667,11.115530928333333,198.195,-5.099789,-70.377472,2.428849,2
SMAR,2023-06-12 14:59:42.294,46.0898101,11.1155354,250.3754671330153,-5.91,21.54,2.21,null
SMAR,2023-06-12 14:59:42.326,46.0898101,11.1155354,250.3754671330153,-5.82,19.19,2.24,null
SMAR,2023-06-12 14:59:42.362,46.0898101,11.1155354,250.3754671330153,-5.74,16.28,2.33,null
SMAR,2023-06-12 14:59:42.392,46.0898101,11.1155354,250.3754671330153,-5.64,12.97,2.43,null
SMAR,2023-06-12 14:59:42.444,46.0898103,11.1155352,250.3754671330153,-5.48,9.54,2.59,null
SMAR,2023-06-12 14:59:42.467,46.0898103,11.1155352,250.3754671330153,-5.38,6.11,2.7,null
STON,2023-06-12 14:59:42.467,46.08980644166667,11.11553107,198.191,-5.099789,-70.377472,2.428849,2
SMAR,2023-06-12 14:59:42.509,46.0898103,11.1155352,250.3754671330153,-5.3,2.81,2.85,null
STON,2023-06-12 14:59:42.509,46.08980644166667,11.11553107,198.191,-4.773614,-86.334007,2.74068,2
SMAR,2023-06-12 14:59:42.537,46.0898103,11.1155352,250.3754671330153,-5.16,-0.52,2.93,null
STON,2023-06-12 14:59:42.537,46.08980618,11.11553108,198.19,-4.773614,-86.334007,2.74068,2
SMAR,2023-06-12 14:59:42.569,46.0898103,11.1155352,250.3754671330153,-5.06,-3.91,3.09,null
SMAR,2023-06-12 14:59:42.606,46.0898103,11.1155352,250.3754671330153,-4.9,-7.05,3.22,null
STON,2023-06-12 14:59:42.606,46.08980618,11.11553108,198.19,-4.151183,-105.601082,3.373482,2
SMAR,2023-06-12 14:59:42.638,46.0898103,11.1155352,250.3754671330153,-4.87,-9.8,3.34,null
SMAR,2023-06-12 14:59:42.669,46.0898103,11.1155352,250.3754671330153,-4.86,-12.15,3.44,null
SMAR,2023-06-12 14:59:42.708,46.0898103,11.1155352,250.3754671330153,-4.9,-14.36,3.52,null
SMAR,2023-06-12 14:59:42.739,46.0898103,11.1155352,250.3754671330153,-4.84,-16.73,3.66,null
STON,2023-06-12 14:59:42.739,46.089805991666665,11.115531183333333,198.188,-4.151183,-105.601082,3.373482,2
SMAR,2023-06-12 14:59:42.769,46.0898103,11.1155352,250.3754671330153,-4.82,-19.39,3.79,null
STON,2023-06-12 14:59:42.769,46.089805991666665,11.115531183333333,198.188,-3.873801,-121.93644,4.054883,2
SMAR,2023-06-12 14:59:42.808,46.0898103,11.1155352,250.3754671330153,-4.76,-21.99,3.94,null
SMAR,2023-06-12 14:59:42.85,46.0898103,11.1155352,250.3754671330153,-4.81,-24.67,4.07,null
SMAR,2023-06-12 14:59:42.871,46.0898103,11.1155352,250.3754671330153,-4.79,-27.6,4.22,null
SMAR,2023-06-12 14:59:42.912,46.0898103,11.1155352,250.3754671330153,-4.68,-30.54,4.34,null
SMAR,2023-06-12 14:59:42.939,46.0898103,11.1155352,250.3754671330153,-4.67,-33.3,4.45,null
STON,2023-06-12 14:59:42.939,46.089805745,11.11553136,198.188,-3.873801,-121.93644,4.054883,2
SMAR,2023-06-12 14:59:42.977,46.0898103,11.1155352,250.3754671330153,-4.66,-35.65,4.54,null
SMAR,2023-06-12 14:59:43.003,46.0898103,11.1155352,250.3754671330153,-4.71,-37.7,4.6,null
SMAR,2023-06-12 14:59:43.05,46.0898103,11.1155352,250.3754671330153,-4.72,-39.75,4.66,null
STON,2023-06-12 14:59:43.05,46.089805745,11.11553136,198.188,-3.755788,-138.266998,4.862813,2
SMAR,2023-06-12 14:59:43.071,46.0898103,11.1155352,250.3754671330153,-4.66,-41.92,4.72,null
SMAR,2023-06-12 14:59:43.104,46.0898103,11.1155352,250.3754671330153,-4.65,-43.89,4.78,null
SMAR,2023-06-12 14:59:43.14,46.0898103,11.1155352,250.3754671330153,-4.66,-45.4,4.77,null
STON,2023-06-12 14:59:43.14,46.08980546833333,11.115531403333334,198.192,-3.755788,-138.266998,4.862813,2
SMAR,2023-06-12 14:59:43.171,46.0898103,11.1155352,250.3754671330153,-4.74,-46.77,4.79,null
SMAR,2023-06-12 14:59:43.204,46.0898103,11.1155352,250.3754671330153,-4.77,-48.5,4.82,null
SMAR,2023-06-12 14:59:43.238,46.0898103,11.1155352,250.3754671330153,-4.76,-50.7,4.9,null
SMAR,2023-06-12 14:59:43.272,46.0898103,11.1155352,250.3754671330153,-4.69,-53.32,5.0,null
SMAR,2023-06-12 14:59:43.309,46.0898103,11.1155352,250.3754671330153,-4.61,-56.08,5.11,null
SMAR,2023-06-12 14:59:43.337,46.0898103,11.1155352,250.3754671330153,-4.52,-58.45,5.16,null
SMAR,2023-06-12 14:59:43.381,46.0898103,11.1155352,250.3754671330153,-4.54,-60.54,5.16,null
SMAR,2023-06-12 14:59:43.404,46.0898103,11.1155353,250.60348653501083,-4.5,-62.81,5.18,null
STON,2023-06-12 14:59:43.404,46.08980519,11.11553136,198.189,-3.755788,-138.266998,4.862813,2
SMAR,2023-06-12 14:59:43.436,46.0898103,11.1155353,250.60348653501083,-4.37,-65.61,5.19,null
STON,2023-06-12 14:59:43.436,46.08980519,11.11553136,198.189,-3.650186,-163.229645,5.617865,2
SMAR,2023-06-12 14:59:43.475,46.0898103,11.1155353,250.60348653501083,-4.22,-68.94,5.25,null
SMAR,2023-06-12 14:59:43.506,46.0898103,11.1155353,250.60348653501083,-3.96,-72.34,5.31,null
SMAR,2023-06-12 14:59:43.537,46.0898103,11.1155353,250.60348653501083,-3.83,-75.46,5.3,null
SMAR,2023-06-12 14:59:43.573,46.0898103,11.1155353,250.60348653501083,-3.76,-78.19,5.29,null
STON,2023-06-12 14:59:43.573,46.08980493333333,11.1155311,198.195,-3.650186,-163.229645,5.617865,2
SMAR,2023-06-12 14:59:43.609,46.0898103,11.1155353,250.60348653501083,-3.62,-80.85,5.25,null
SMAR,2023-06-12 14:59:43.648,46.0898103,11.1155353,250.60348653501083,-3.51,-83.97,5.23,null
STON,2023-06-12 14:59:43.648,46.08980493333333,11.1155311,198.195,-3.002871,-179.784836,5.77753,2
SMAR,2023-06-12 14:59:43.669,46.0898103,11.1155353,250.60348653501083,-3.3,-87.67,5.24,null
SMAR,2023-06-12 14:59:43.704,46.0898103,11.1155353,250.60348653501083,-3.01,-91.53,5.28,null
SMAR,2023-06-12 14:59:43.737,46.0898103,11.1155353,250.60348653501083,-2.84,-95.2,5.28,null
STON,2023-06-12 14:59:43.737,46.08980479,11.1155307,198.198,-3.002871,-179.784836,5.77753,2
SMAR,2023-06-12 14:59:43.77,46.0898103,11.1155353,250.60348653501083,-2.66,-98.4,5.23,null
SMAR,2023-06-12 14:59:43.804,46.0898103,11.1155353,250.60348653501083,-2.46,-101.2,5.18,null
STON,2023-06-12 14:59:43.804,46.08980479,11.1155307,198.198,-2.066373,160.92894,5.776945,2
SMAR,2023-06-12 14:59:43.847,46.0898103,11.1155353,250.60348653501083,-2.4,-103.88,5.12,null
SMAR,2023-06-12 14:59:43.864,46.0898103,11.1155353,250.60348653501083,-2.28,-106.59,5.08,null
SMAR,2023-06-12 14:59:43.908,46.0898103,11.1155353,250.60348653501083,-2.17,-109.33,5.05,null
STON,2023-06-12 14:59:43.908,46.08980474,11.11553031,198.195,-2.066373,160.92894,5.776945,2
SMAR,2023-06-12 14:59:43.938,46.0898103,11.1155353,250.60348653501083,-2.12,-111.85,5.0,null
SMAR,2023-06-12 14:59:43.973,46.0898103,11.1155353,250.60348653501083,-2.07,-114.28,4.95,null
SMAR,2023-06-12 14:59:44.011,46.0898103,11.1155353,250.60348653501083,-2.04,-116.7,4.91,null
SMAR,2023-06-12 14:59:44.041,46.0898103,11.1155353,250.60348653501083,-2.06,-119.14,4.88,null
STON,2023-06-12 14:59:44.041,46.08980474,11.11553031,198.195,-1.339595,144.147186,5.547719,2
SMAR,2023-06-12 14:59:44.071,46.0898103,11.1155353,250.60348653501083,-2.07,-121.66,4.85,null
SMAR,2023-06-12 14:59:44.106,46.0898103,11.1155353,250.60348653501083,-2.08,-124.03,4.84,null
SMAR,2023-06-12 14:59:44.141,46.0898103,11.1155353,250.60348653501083,-2.19,-126.19,4.81,null
STON,2023-06-12 14:59:44.141,46.089804615,11.11552984,198.203,-1.339595,144.147186,5.547719,2
SMAR,2023-06-12 14:59:44.172,46.0898103,11.1155353,250.60348653501083,-2.3,-128.28,4.79,null
SMAR,2023-06-12 14:59:44.204,46.0898103,11.1155353,250.60348653501083,-2.33,-130.28,4.79,null
STON,2023-06-12 14:59:44.204,46.089804615,11.11552984,198.203,-1.359569,129.796616,5.382847,2
SMAR,2023-06-12 14:59:44.244,46.0898103,11.1155353,250.60348653501083,-2.46,-132.22,4.77,null
SMAR,2023-06-12 14:59:44.271,46.0898103,11.1155353,250.60348653501083,-2.56,-134.29,4.77,null
SMAR,2023-06-12 14:59:44.311,46.0898103,11.1155353,250.60348653501083,-2.55,-136.54,4.76,null
SMAR,2023-06-12 14:59:44.338,46.0898103,11.1155353,250.60348653501083,-2.62,-138.86,4.76,null
SMAR,2023-06-12 14:59:44.375,46.0898103,11.1155353,250.54135628628913,-2.68,-141.19,4.75,null
SMAR,2023-06-12 14:59:44.404,46.0898103,11.1155353,250.54135628628913,-2.65,-143.47,4.77,null
STON,2023-06-12 14:59:44.404,46.089804496666666,11.115529216666667,198.213,-1.359569,129.796616,5.382847,2
SMAR,2023-06-12 14:59:44.448,46.0898103,11.1155353,250.54135628628913,-2.71,-145.76,4.76,null
SMAR,2023-06-12 14:59:44.471,46.0898103,11.1155353,250.54135628628913,-2.72,-148.04,4.73,null
STON,2023-06-12 14:59:44.471,46.089804496666666,11.115529216666667,198.213,-1.840233,117.254417,5.294801,2
SMAR,2023-06-12 14:59:44.505,46.0898103,11.1155353,250.54135628628913,-2.71,-150.18,4.71,null
SMAR,2023-06-12 14:59:44.538,46.0898103,11.1155353,250.54135628628913,-2.81,-152.11,4.65,null
STON,2023-06-12 14:59:44.538,46.089804545,11.115528693333333,198.207,-1.840233,117.254417,5.294801,2
SMAR,2023-06-12 14:59:44.571,46.0898103,11.1155353,250.54135628628913,-2.88,-153.93,4.58,null
SMAR,2023-06-12 14:59:44.606,46.0898103,11.1155353,250.54135628628913,-2.92,-155.98,4.52,null
SMAR,2023-06-12 14:59:44.64,46.0898103,11.1155353,250.54135628628913,-2.95,-158.43,4.47,null
STON,2023-06-12 14:59:44.64,46.089804545,11.115528693333333,198.207,-2.040373,103.931953,5.221329,2
SMAR,2023-06-12 14:59:44.672,46.0898103,11.1155353,250.54135628628913,-2.94,-161.16,4.42,null
SMAR,2023-06-12 14:59:44.705,46.0898103,11.1155353,250.54135628628913,-2.89,-164.0,4.41,null
SMAR,2023-06-12 14:59:44.739,46.0898103,11.1155353,250.54135628628913,-2.88,-166.75,4.37,null
SMAR,2023-06-12 14:59:44.773,46.0898103,11.1155353,250.54135628628913,-2.89,-169.27,4.32,null
STON,2023-06-12 14:59:44.773,46.08980474,11.115528211666666,198.197,-2.040373,103.931953,5.221329,2
SMAR,2023-06-12 14:59:44.813,46.0898103,11.1155353,250.54135628628913,-2.85,-171.74,4.27,null
SMAR,2023-06-12 14:59:44.835,46.0898103,11.1155353,250.54135628628913,-2.84,-174.37,4.19,null
STON,2023-06-12 14:59:44.835,46.08980474,11.115528211666666,198.197,-2.105325,89.636391,4.948952,2
SMAR,2023-06-12 14:59:44.875,46.0898103,11.1155353,250.54135628628913,-2.8,-177.24,4.11,null
SMAR,2023-06-12 14:59:44.906,46.0898103,11.1155353,250.54135628628913,-2.73,179.62,4.0,null
SMAR,2023-06-12 14:59:44.939,46.0898103,11.1155353,250.54135628628913,-2.67,176.44,3.9,null
STON,2023-06-12 14:59:44.939,46.089805075,11.115527938333333,198.202,-2.105325,89.636391,4.948952,2
SMAR,2023-06-12 14:59:44.973,46.0898103,11.1155353,250.54135628628913,-2.65,173.43,3.79,null
SMAR,2023-06-12 14:59:45.01,46.0898103,11.1155353,250.54135628628913,-2.61,170.61,3.64,null
STON,2023-06-12 14:59:45.01,46.089805075,11.115527938333333,198.202,-1.852882,73.07196,4.533655,2
SMAR,2023-06-12 14:59:45.039,46.0898103,11.1155353,250.54135628628913,-2.64,167.98,3.5,null
SMAR,2023-06-12 14:59:45.071,46.0898103,11.1155353,250.54135628628913,-2.72,165.31,3.36,null
SMAR,2023-06-12 14:59:45.11,46.0898103,11.1155353,250.54135628628913,-2.75,162.69,3.25,null
SMAR,2023-06-12 14:59:45.145,46.0898103,11.1155353,250.54135628628913,-2.89,160.27,3.11,null
SMAR,2023-06-12 14:59:45.173,46.0898103,11.1155353,250.54135628628913,-3.07,157.89,2.97,null
SMAR,2023-06-12 14:59:45.218,46.0898103,11.1155353,250.54135628628913,-3.23,155.32,2.85,null
STON,2023-06-12 14:59:45.218,46.08980553833333,11.115527715,198.2,-1.852882,73.07196,4.533655,2
SMAR,2023-06-12 14:59:45.245,46.0898103,11.1155353,250.54135628628913,-3.45,152.28,2.76,null
STON,2023-06-12 14:59:45.245,46.08980553833333,11.115527715,198.2,-1.992512,56.858284,3.794955,2
SMAR,2023-06-12 14:59:45.277,46.0898103,11.1155353,250.54135628628913,-3.66,149.0,2.72,null
SMAR,2023-06-12 14:59:45.305,46.0898103,11.1155353,250.54135628628913,-3.87,145.73,2.68,null
SMAR,2023-06-12 14:59:45.339,46.0898103,11.1155353,250.54135628628913,-4.13,142.88,2.66,null
SMAR,2023-06-12 14:59:45.372,46.0898109,11.1155366,250.64992543557221,-4.43,140.56,2.6,null
SMAR,2023-06-12 14:59:45.406,46.0898109,11.1155366,250.64992543557221,-4.75,138.43,2.54,null
SMAR,2023-06-12 14:59:45.44,46.0898109,11.1155366,250.64992543557221,-5.09,135.91,2.53,null
STON,2023-06-12 14:59:45.44,46.089806175,11.115527521666667,198.205,-1.992512,56.858284,3.794955,2
STON,2023-06-12 14:59:45.44,46.089806175,11.115527521666667,198.205,-3.114435,39.614937,3.295358,2
SMAR,2023-06-12 14:59:45.473,46.0898109,11.1155366,250.64992543557221,-5.34,132.86,2.58,null
SMAR,2023-06-12 14:59:45.507,46.0898109,11.1155366,250.64992543557221,-5.5,129.71,2.67,null
SMAR,2023-06-12 14:59:45.54,46.0898109,11.1155366,250.64992543557221,-5.71,126.73,2.74,null
SMAR,2023-06-12 14:59:45.573,46.0898109,11.1155366,250.64992543557221,-5.93,124.15,2.79,null
SMAR,2023-06-12 14:59:45.612,46.0898109,11.1155366,250.64992543557221,-6.06,121.76,2.84,null
STON,2023-06-12 14:59:45.612,46.089806865,11.115527445,198.205,-3.114435,39.614937,3.295358,2
SMAR,2023-06-12 14:59:45.641,46.0898109,11.1155366,250.64992543557221,-6.23,119.38,2.9,null
SMAR,2023-06-12 14:59:45.676,46.0898109,11.1155366,250.64992543557221,-6.36,116.93,2.95,null
SMAR,2023-06-12 14:59:45.707,46.0898109,11.1155366,250.64992543557221,-6.39,114.35,2.98,null
SMAR,2023-06-12 14:59:45.74,46.0898109,11.1155366,250.64992543557221,-6.44,111.77,3.0,null
STON,2023-06-12 14:59:45.74,46.089807345,11.115527726666667,198.204,-3.114435,39.614937,3.295358,2
SMAR,2023-06-12 14:59:45.772,46.0898109,11.1155366,250.64992543557221,-6.49,109.24,2.96,null
SMAR,2023-06-12 14:59:45.808,46.0898109,11.1155366,250.64992543557221,-6.5,106.59,2.94,null
SMAR,2023-06-12 14:59:45.841,46.0898109,11.1155366,250.64992543557221,-6.5,103.74,2.92,null
SMAR,2023-06-12 14:59:45.873,46.0898109,11.1155366,250.64992543557221,-6.48,100.65,2.89,null
SMAR,2023-06-12 14:59:45.906,46.0898109,11.1155366,250.64992543557221,-6.37,97.39,2.87,null
SMAR,2023-06-12 14:59:45.941,46.0898109,11.1155366,250.64992543557221,-6.31,94.11,2.83,null
SMAR,2023-06-12 14:59:45.973,46.0898109,11.1155366,250.64992543557221,-6.26,90.88,2.76,null
SMAR,2023-06-12 14:59:46.018,46.0898109,11.1155366,250.64992543557221,-6.08,87.54,2.69,null
SMAR,2023-06-12 14:59:46.045,46.0898109,11.1155366,250.64992543557221,-5.9,84.23,2.62,null
STON,2023-06-12 14:59:46.045,46.089807345,11.115527726666667,198.204,-5.453982,8.537391,3.586571,2
SMAR,2023-06-12 14:59:46.074,46.0898109,11.1155366,250.64992543557221,-5.81,80.93,2.53,null
SMAR,2023-06-12 14:59:46.114,46.0898109,11.1155366,250.64992543557221,-5.52,77.72,2.43,null
SMAR,2023-06-12 14:59:46.14,46.0898109,11.1155366,250.64992543557221,-5.31,74.41,2.3,null
STON,2023-06-12 14:59:46.14,46.08980751166666,11.115528485,198.196,-5.453982,8.537391,3.586571,2
SMAR,2023-06-12 14:59:46.175,46.0898109,11.1155366,250.64992543557221,-5.19,70.94,2.21,null
STON,2023-06-12 14:59:46.175,46.089807298333334,11.115529328333333,198.218,-5.453982,8.537391,3.586571,2
SMAR,2023-06-12 14:59:46.206,46.0898109,11.1155366,250.64992543557221,-4.88,70.87,2.07,null
STON,2023-06-12 14:59:46.206,46.089807298333334,11.115529328333333,198.218,-4.283628,-28.17256,2.856909,2
SMAR,2023-06-12 14:59:46.24,46.0898109,11.1155366,250.64992543557221,-4.66,67.01,1.95,null
SMAR,2023-06-12 14:59:46.275,46.0898109,11.1155366,250.64992543557221,-4.54,63.31,1.82,null
SMAR,2023-06-12 14:59:46.307,46.0898109,11.1155366,250.64992543557221,-4.32,59.78,1.62,null
SMAR,2023-06-12 14:59:46.34,46.0898109,11.1155366,250.64992543557221,-4.25,57.02,1.4,null
SMAR,2023-06-12 14:59:46.375,46.0898118,11.1155392,250.73135321261452,-4.22,54.46,1.13,null
SMAR,2023-06-12 14:59:46.408,46.0898118,11.1155392,250.73135321261452,-4.07,51.65,0.9,null
STON,2023-06-12 14:59:46.408,46.089806763333335,11.115529903333334,198.223,-4.283628,-28.17256,2.856909,2
SMAR,2023-06-12 14:59:46.446,46.0898118,11.1155392,250.73135321261452,-4.04,48.25,0.71,null
SMAR,2023-06-12 14:59:46.473,46.0898118,11.1155392,250.73135321261452,-4.0,44.41,0.58,null
STON,2023-06-12 14:59:46.473,46.089806763333335,11.115529903333334,198.223,-3.170924,-48.563755,1.963881,2
SMAR,2023-06-12 14:59:46.507,46.0898118,11.1155392,250.73135321261452,-3.9,40.55,0.45,null
SMAR,2023-06-12 14:59:46.54,46.0898118,11.1155392,250.73135321261452,-3.95,36.99,0.32,null
STON,2023-06-12 14:59:46.54,46.08980623,11.115530283333333,198.226,-3.170924,-48.563755,1.963881,2
SMAR,2023-06-12 14:59:46.575,46.0898118,11.1155392,250.73135321261452,-4.0,33.88,0.21,null
SMAR,2023-06-12 14:59:46.607,46.0898118,11.1155392,250.73135321261452,-4.0,31.14,0.09,null
SMAR,2023-06-12 14:59:46.641,46.0898118,11.1155392,250.73135321261452,-4.06,28.71,-0.02,null
SMAR,2023-06-12 14:59:46.677,46.0898118,11.1155392,250.73135321261452,-4.13,26.26,-0.11,null
SMAR,2023-06-12 14:59:46.708,46.0898118,11.1155392,250.73135321261452,-4.06,23.75,-0.17,null
SMAR,2023-06-12 14:59:46.741,46.0898118,11.1155392,250.73135321261452,-4.03,21.12,-0.22,null
SMAR,2023-06-12 14:59:46.779,46.0898118,11.1155392,250.73135321261452,-4.01,18.47,-0.25,null
STON,2023-06-12 14:59:46.779,46.08980587333333,11.115530466666666,198.224,-3.170924,-48.563755,1.963881,2
SMAR,2023-06-12 14:59:46.807,46.0898118,11.1155392,250.73135321261452,-3.9,15.8,-0.27,null
SMAR,2023-06-12 14:59:46.841,46.0898118,11.1155392,250.73135321261452,-3.91,12.97,-0.25,null
STON,2023-06-12 14:59:46.841,46.08980587333333,11.115530466666666,198.224,-2.952769,-83.924835,0.262743,2
SMAR,2023-06-12 14:59:46.875,46.0898118,11.1155392,250.73135321261452,-3.88,10.06,-0.22,null
SMAR,2023-06-12 14:59:46.915,46.0898118,11.1155392,250.73135321261452,-3.75,7.28,-0.26,null
STON,2023-06-12 14:59:46.915,46.089805651666666,11.115530298333333,198.222,-2.952769,-83.924835,0.262743,2
SMAR,2023-06-12 14:59:46.946,46.0898118,11.1155392,250.73135321261452,-3.74,4.65,-0.24,null
SMAR,2023-06-12 14:59:46.97,46.0898118,11.1155392,250.73135321261452,-3.7,2.25,-0.25,null
SMAR,2023-06-12 14:59:47.008,46.0898118,11.1155392,250.73135321261452,-3.6,-0.02,-0.29,null
SMAR,2023-06-12 14:59:47.043,46.0898118,11.1155392,250.73135321261452,-3.57,-2.49,-0.25,null
STON,2023-06-12 14:59:47.043,46.089805651666666,11.115530298333333,198.222,-2.692532,-100.251167,0.2667,2
SMAR,2023-06-12 14:59:47.081,46.0898118,11.1155392,250.73135321261452,-3.51,-5.31,-0.22,null
SMAR,2023-06-12 14:59:47.134,46.0898118,11.1155392,250.73135321261452,-3.35,-8.59,-0.15,null
SMAR,2023-06-12 14:59:47.146,46.0898118,11.1155392,250.73135321261452,-3.28,-12.13,-0.05,null
STON,2023-06-12 14:59:47.146,46.08980552,11.115530021666666,198.206,-2.692532,-100.251167,0.2667,2
SMAR,2023-06-12 14:59:47.176,46.0898118,11.1155392,250.73135321261452,-3.2,-15.63,0.03,null
SMAR,2023-06-12 14:59:47.207,46.0898118,11.1155392,250.73135321261452,-3.03,-18.98,0.06,null
STON,2023-06-12 14:59:47.207,46.08980552,11.115530021666666,198.206,-2.268846,-116.681488,0.464522,2
SMAR,2023-06-12 14:59:47.235,46.0898118,11.1155392,250.73135321261452,-2.93,-22.03,0.08,null
SMAR,2023-06-12 14:59:47.274,46.0898118,11.1155392,250.73135321261452,-2.86,-24.95,0.06,null
SMAR,2023-06-12 14:59:47.308,46.0898118,11.1155392,250.73135321261452,-2.68,-28.13,0.03,null
SMAR,2023-06-12 14:59:47.343,46.0898118,11.1155392,250.73135321261452,-2.51,-31.55,-0.01,null
SMAR,2023-06-12 14:59:47.374,46.0898132,11.1155439,250.60008024647033,-2.38,-34.96,-0.06,null
SMAR,2023-06-12 14:59:47.415,46.0898132,11.1155439,250.60008024647033,-2.19,-38.02,-0.12,null
STON,2023-06-12 14:59:47.415,46.089805528333336,11.11552964,198.204,-2.268846,-116.681488,0.464522,2
STON,2023-06-12 14:59:47.415,46.089805528333336,11.11552964,198.204,-1.565475,-135.878265,0.580202,2
SMAR,2023-06-12 14:59:47.433,46.0898132,11.1155439,250.60008024647033,-2.05,-40.5,-0.23,null
SMAR,2023-06-12 14:59:47.474,46.0898132,11.1155439,250.60008024647033,-1.96,-42.53,-0.38,null
SMAR,2023-06-12 14:59:47.509,46.0898132,11.1155439,250.60008024647033,-1.79,-44.42,-0.53,null
SMAR,2023-06-12 14:59:47.544,46.0898132,11.1155439,250.60008024647033,-1.67,-46.58,-0.69,null
STON,2023-06-12 14:59:47.544,46.089805575,11.115529083333334,198.214,-1.565475,-135.878265,0.580202,2
SMAR,2023-06-12 14:59:47.575,46.0898132,11.1155439,250.60008024647033,-1.6,-49.07,-0.82,null
SMAR,2023-06-12 14:59:47.609,46.0898132,11.1155439,250.60008024647033,-1.48,-51.63,-0.95,null
STON,2023-06-12 14:59:47.609,46.089805575,11.115529083333334,198.214,-0.723776,-151.108963,-0.038588,2
SMAR,2023-06-12 14:59:47.641,46.0898132,11.1155439,250.60008024647033,-1.43,-54.09,-1.08,null
SMAR,2023-06-12 14:59:47.675,46.0898132,11.1155439,250.60008024647033,-1.41,-56.46,-1.22,null
SMAR,2023-06-12 14:59:47.711,46.0898132,11.1155439,250.60008024647033,-1.38,-58.86,-1.35,null
SMAR,2023-06-12 14:59:47.742,46.0898132,11.1155439,250.60008024647033,-1.35,-61.37,-1.47,null
STON,2023-06-12 14:59:47.742,46.089805668333334,11.115528601666666,198.224,-0.723776,-151.108963,-0.038588,2
SMAR,2023-06-12 14:59:47.775,46.0898132,11.1155439,250.60008024647033,-1.38,-63.98,-1.57,null
SMAR,2023-06-12 14:59:47.81,46.0898132,11.1155439,250.60008024647033,-1.38,-66.59,-1.68,null
STON,2023-06-12 14:59:47.81,46.089805668333334,11.115528601666666,198.224,-0.314495,-165.67186,-0.803596,2
SMAR,2023-06-12 14:59:47.842,46.0898132,11.1155439,250.60008024647033,-1.32,-68.9,-1.77,null
SMAR,2023-06-12 14:59:47.876,46.0898132,11.1155439,250.60008024647033,-1.38,-70.78,-1.87,null
SMAR,2023-06-12 14:59:47.91,46.0898132,11.1155439,250.60008024647033,-1.41,-72.53,-1.95,null
SMAR,2023-06-12 14:59:47.942,46.0898132,11.1155439,250.60008024647033,-1.46,-74.6,-2.03,null
STON,2023-06-12 14:59:47.942,46.08980574666667,11.1155283,198.215,-0.314495,-165.67186,-0.803596,2
SMAR,2023-06-12 14:59:47.976,46.0898132,11.1155439,250.60008024647033,-1.5,-77.08,-2.11,null
SMAR,2023-06-12 14:59:48.01,46.0898132,11.1155439,250.60008024647033,-1.5,-79.59,-2.13,null
STON,2023-06-12 14:59:48.01,46.08980574666667,11.1155283,198.215,-0.403083,-178.86499,-1.382493,2
SMAR,2023-06-12 14:59:48.042,46.0898132,11.1155439,250.60008024647033,-1.53,-81.77,-2.17,null
SMAR,2023-06-12 14:59:48.076,46.0898132,11.1155439,250.60008024647033,-1.53,-83.45,-2.19,null
SMAR,2023-06-12 14:59:48.109,46.0898132,11.1155439,250.60008024647033,-1.53,-84.79,-2.2,null
STON,2023-06-12 14:59:48.109,46.08980586333333,11.115528141666667,198.218,-0.403083,-178.86499,-1.382493,2
SMAR,2023-06-12 14:59:48.143,46.0898132,11.1155439,250.60008024647033,-1.57,-86.24,-2.19,null
SMAR,2023-06-12 14:59:48.175,46.0898132,11.1155439,250.60008024647033,-1.58,-88.2,-2.2,null
SMAR,2023-06-12 14:59:48.21,46.0898132,11.1155439,250.60008024647033,-1.59,-90.77,-2.19,null
SMAR,2023-06-12 14:59:48.243,46.0898132,11.1155439,250.60008024647033,-1.6,-93.36,-2.17,null
STON,2023-06-12 14:59:48.243,46.08980586333333,11.115528141666667,198.218,-0.509614,169.391006,-1.566343,2
SMAR,2023-06-12 14:59:48.275,46.0898132,11.1155439,250.60008024647033,-1.64,-95.66,-2.17,null
SMAR,2023-06-12 14:59:48.311,46.0898132,11.1155439,250.60008024647033,-1.59,-97.5,-2.18,null
SMAR,2023-06-12 14:59:48.342,46.0898132,11.1155439,250.60008024647033,-1.63,-99.27,-2.21,null
SMAR,2023-06-12 14:59:48.377,46.0898132,11.1155439,250.60008024647033,-1.62,-101.26,-2.22,null
SMAR,2023-06-12 14:59:48.412,46.0898136,11.1155449,250.5666742388724,-1.58,-103.66,-2.26,null
STON,2023-06-12 14:59:48.412,46.08980598,11.115528166666667,198.218,-0.509614,169.391006,-1.566343,2
SMAR,2023-06-12 14:59:48.444,46.0898136,11.1155449,250.5666742388724,-1.59,-106.4,-2.28,null
SMAR,2023-06-12 14:59:48.476,46.0898136,11.1155449,250.5666742388724,-1.59,-109.12,-2.28,null
SMAR,2023-06-12 14:59:48.51,46.0898136,11.1155449,250.5666742388724,-1.56,-111.62,-2.29,null
SMAR,2023-06-12 14:59:48.542,46.0898136,11.1155449,250.5666742388724,-1.54,-113.83,-2.3,null
SMAR,2023-06-12 14:59:48.578,46.0898136,11.1155449,250.5666742388724,-1.5,-115.7,-2.33,null
STON,2023-06-12 14:59:48.578,46.08980613,11.115528238333333,198.219,-0.509614,169.391006,-1.566343,2
SMAR,2023-06-12 14:59:48.609,46.0898136,11.1155449,250.5666742388724,-1.43,-117.36,-2.33,null
SMAR,2023-06-12 14:59:48.644,46.0898136,11.1155449,250.5666742388724,-1.41,-119.18,-2.3,null
STON,2023-06-12 14:59:48.644,46.08980613,11.115528238333333,198.219,-0.448876,142.258942,-1.675938,2
SMAR,2023-06-12 14:59:48.676,46.0898136,11.1155449,250.5666742388724,-1.32,-121.09,-2.28,null
SMAR,2023-06-12 14:59:48.709,46.0898136,11.1155449,250.5666742388724,-1.26,-122.8,-2.23,null
SMAR,2023-06-12 14:59:48.743,46.0898136,11.1155449,250.5666742388724,-1.17,-124.0,-2.2,null
SMAR,2023-06-12 14:59:48.776,46.0898136,11.1155449,250.5666742388724,-1.08,-124.9,-2.17,null
STON,2023-06-12 14:59:48.776,46.089806285,11.115528433333333,198.218,-0.448876,142.258942,-1.675938,2
SMAR,2023-06-12 14:59:48.81,46.0898136,11.1155449,250.5666742388724,-1.03,-125.8,-2.14,null
STON,2023-06-12 14:59:48.81,46.089806285,11.115528433333333,198.218,-0.097712,131.90303,-1.566391,2
SMAR,2023-06-12 14:59:48.836,46.0898136,11.1155449,250.5666742388724,-0.97,-126.82,-2.11,null
SMAR,2023-06-12 14:59:48.876,46.0898136,11.1155449,250.5666742388724,-0.92,-127.82,-2.09,null
SMAR,2023-06-12 14:59:48.91,46.0898136,11.1155449,250.5666742388724,-0.91,-128.63,-2.06,null
SMAR,2023-06-12 14:59:48.946,46.0898136,11.1155449,250.5666742388724,-0.91,-129.07,-2.04,null
SMAR,2023-06-12 14:59:48.978,46.0898136,11.1155449,250.5666742388724,-0.91,-129.33,-2.04,null
STON,2023-06-12 14:59:48.978,46.08980634666667,11.115528638333334,198.218,-0.097712,131.90303,-1.566391,2
SMAR,2023-06-12 14:59:48.998,46.0898136,11.1155449,250.5666742388724,-0.92,-129.58,-2.05,null
STON,2023-06-12 14:59:48.998,46.08980634666667,11.115528638333334,198.218,0.197035,126.624664,-1.394935,2
SMAR,2023-06-12 14:59:49.043,46.0898136,11.1155449,250.5666742388724,-0.94,-129.94,-2.06,null
SMAR,2023-06-12 14:59:49.079,46.0898136,11.1155449,250.5666742388724,-0.98,-130.32,-2.08,null
SMAR,2023-06-12 14:59:49.11,46.0898136,11.1155449,250.5666742388724,-1.01,-130.69,-2.11,null
SMAR,2023-06-12 14:59:49.143,46.0898136,11.1155449,250.5666742388724,-1.06,-131.06,-2.16,null
STON,2023-06-12 14:59:49.143,46.089806376666665,11.115528648333333,198.227,0.197035,126.624664,-1.394935,2
SMAR,2023-06-12 14:59:49.176,46.0898136,11.1155449,250.5666742388724,-1.11,-131.42,-2.21,null
SMAR,2023-06-12 14:59:49.21,46.0898136,11.1155449,250.5666742388724,-1.17,-131.73,-2.25,null
STON,2023-06-12 14:59:49.21,46.089806376666665,11.115528648333333,198.227,0.064174,124.604446,-1.489338,2
SMAR,2023-06-12 14:59:49.253,46.0898136,11.1155449,250.5666742388724,-1.23,-131.86,-2.29,null
SMAR,2023-06-12 14:59:49.269,46.0898136,11.1155449,250.5666742388724,-1.26,-131.89,-2.34,null
SMAR,2023-06-12 14:59:49.312,46.0898136,11.1155449,250.5666742388724,-1.3,-131.95,-2.38,null
SMAR,2023-06-12 14:59:49.345,46.0898136,11.1155449,250.5666742388724,-1.33,-131.98,-2.42,null
SMAR,2023-06-12 14:59:49.383,46.0898136,11.1155449,250.5666742388724,-1.34,-132.04,-2.46,null
SMAR,2023-06-12 14:59:49.414,46.0898136,11.1155467,250.54997128457774,-1.37,-132.09,-2.48,null
STON,2023-06-12 14:59:49.414,46.08980641,11.115528528333334,198.229,0.064174,124.604446,-1.489338,2
SMAR,2023-06-12 14:59:49.443,46.0898136,11.1155467,250.54997128457774,-1.38,-132.03,-2.5,null
STON,2023-06-12 14:59:49.443,46.08980641,11.115528528333334,198.229,-0.175441,123.687279,-1.772591,2
