Input,Time,Latitude,Longitude,Pitch,Yaw,Roll,Stonex_status
SMAR,2023-05-02 13:07:51.536,46.0898365,11.1155302,-3.04,152.63,2.01,null
SMAR,2023-05-02 13:07:51.573,46.0898366,11.1155301,-3.07,152.7,1.99,null
SMAR,2023-05-02 13:07:51.604,46.0898366,11.1155301,-3.09,152.78,1.98,null
SMAR,2023-05-02 13:07:51.638,46.0898366,11.1155301,-3.11,152.74,1.97,null
SMAR,2023-05-02 13:07:51.672,46.0898366,11.1155301,-3.13,152.67,1.96,null
STON,2023-05-02 13:07:51.672,46.08983241166667,11.11556156,-2.709858,-11.557719,1.080926,2
SMAR,2023-05-02 13:07:51.706,46.0898366,11.1155301,-3.14,152.67,1.95,null
STON,2023-05-02 13:07:51.706,46.08983241166667,11.11556156,-2.851246,-11.500414,1.039174,2
STON,2023-05-02 13:07:51.706,46.08983245333334,11.115561555,-2.851246,-11.500414,1.039174,2
SMAR,2023-05-02 13:07:51.737,46.0898366,11.1155301,-3.16,152.74,1.94,null
SMAR,2023-05-02 13:07:51.771,46.0898366,11.1155301,-3.18,152.76,1.93,null
SMAR,2023-05-02 13:07:51.804,46.0898366,11.1155301,-3.2,152.73,1.92,null
STON,2023-05-02 13:07:51.804,46.08983245333334,11.115561555,-2.964828,-11.40234,0.981329,2
SMAR,2023-05-02 13:07:51.837,46.0898366,11.1155301,-3.23,152.73,1.91,null
SMAR,2023-05-02 13:07:51.87,46.0898366,11.1155301,-3.26,152.77,1.89,null
SMAR,2023-05-02 13:07:51.901,46.0898366,11.1155301,-3.28,152.84,1.88,null
SMAR,2023-05-02 13:07:51.936,46.0898366,11.1155301,-3.3,152.9,1.86,null
SMAR,2023-05-02 13:07:51.97,46.0898366,11.1155301,-3.33,152.94,1.85,null
STON,2023-05-02 13:07:51.97,46.089832478333335,11.115561505,-2.964828,-11.40234,0.981329,2
SMAR,2023-05-02 13:07:52.001,46.0898366,11.1155301,-3.36,152.99,1.83,null
SMAR,2023-05-02 13:07:52.036,46.0898366,11.1155301,-3.39,153.1,1.83,null
STON,2023-05-02 13:07:52.036,46.089832478333335,11.115561505,-3.124347,-11.249872,0.910187,2
SMAR,2023-05-02 13:07:52.069,46.0898366,11.1155301,-3.41,153.28,1.82,null
SMAR,2023-05-02 13:07:52.101,46.0898366,11.1155301,-3.44,153.52,1.8,null
STON,2023-05-02 13:07:52.101,46.08983251833333,11.115561503333334,-3.124347,-11.249872,0.910187,2
SMAR,2023-05-02 13:07:52.137,46.0898366,11.1155301,-3.48,153.8,1.78,null
SMAR,2023-05-02 13:07:52.168,46.0898366,11.1155301,-3.54,154.2,1.75,null
SMAR,2023-05-02 13:07:52.202,46.0898366,11.1155301,-3.59,154.71,1.72,null
STON,2023-05-02 13:07:52.202,46.08983251833333,11.115561503333334,-3.309786,-10.313082,0.834848,2
SMAR,2023-05-02 13:07:52.233,46.0898366,11.1155301,-3.63,155.35,1.68,null
SMAR,2023-05-02 13:07:52.269,46.0898366,11.1155301,-3.68,155.96,1.67,null
SMAR,2023-05-02 13:07:52.301,46.0898366,11.1155301,-3.76,156.47,1.67,null
SMAR,2023-05-02 13:07:52.333,46.0898366,11.1155301,-3.8,156.67,1.66,null
STON,2023-05-02 13:07:52.333,46.089832595,11.115561508333334,-3.309786,-10.313082,0.834848,2
SMAR,2023-05-02 13:07:52.366,46.0898366,11.1155301,-3.89,156.56,1.7,null
STON,2023-05-02 13:07:52.366,46.089832595,11.115561508333334,-3.662992,-7.605076,0.731638,2
SMAR,2023-05-02 13:07:52.415,46.0898366,11.1155301,-3.96,156.3,1.76,null
SMAR,2023-05-02 13:07:52.448,46.0898366,11.1155301,-4.04,156.12,1.81,null
SMAR,2023-05-02 13:07:52.483,46.0898366,11.1155301,-4.12,156.06,1.85,null
SMAR,2023-05-02 13:07:52.515,46.0898366,11.1155301,-4.2,156.09,1.88,null
SMAR,2023-05-02 13:07:52.548,46.0898367,11.11553,-4.32,156.27,1.89,null
SMAR,2023-05-02 13:07:52.581,46.0898367,11.11553,-4.42,156.6,1.87,null
STON,2023-05-02 13:07:52.581,46.089832773333335,11.115561573333334,-3.662992,-7.605076,0.731638,2
SMAR,2023-05-02 13:07:52.614,46.0898367,11.11553,-4.56,157.16,1.83,null
SMAR,2023-05-02 13:07:52.647,46.0898367,11.11553,-4.69,157.96,1.74,null
STON,2023-05-02 13:07:52.647,46.089832773333335,11.115561573333334,-4.196668,-7.955153,0.950361,2
SMAR,2023-05-02 13:07:52.68,46.0898367,11.11553,-4.82,159.21,1.68,null
SMAR,2023-05-02 13:07:52.713,46.0898367,11.11553,-4.9,160.77,1.56,null
SMAR,2023-05-02 13:07:52.746,46.0898367,11.11553,-5.04,162.57,1.36,null
STON,2023-05-02 13:07:52.746,46.089832933333334,11.11556153,-4.196668,-7.955153,0.950361,2
SMAR,2023-05-02 13:07:52.779,46.0898367,11.11553,-5.16,164.55,1.18,null
SMAR,2023-05-02 13:07:52.812,46.0898367,11.11553,-5.28,166.86,0.94,null
SMAR,2023-05-02 13:07:52.846,46.0898367,11.11553,-5.35,169.25,0.75,null
STON,2023-05-02 13:07:52.846,46.089832933333334,11.11556153,-4.9402,-1.29225,0.353404,2
SMAR,2023-05-02 13:07:52.878,46.0898367,11.11553,-5.46,171.41,0.55,null
SMAR,2023-05-02 13:07:52.911,46.0898367,11.11553,-5.63,173.0,0.4,null
STON,2023-05-02 13:07:52.911,46.089833125,11.115561488333332,-4.9402,-1.29225,0.353404,2
SMAR,2023-05-02 13:07:52.945,46.0898367,11.11553,-5.83,174.05,0.28,null
SMAR,2023-05-02 13:07:52.978,46.0898367,11.11553,-6.03,174.66,0.22,null
SMAR,2023-05-02 13:07:53.014,46.0898367,11.11553,-6.26,174.89,0.22,null
SMAR,2023-05-02 13:07:53.046,46.0898367,11.11553,-6.52,174.69,0.28,null
STON,2023-05-02 13:07:53.046,46.089833125,11.115561488333332,-5.75677,9.993649,-0.787226,2
SMAR,2023-05-02 13:07:53.079,46.0898367,11.11553,-6.82,174.33,0.37,null
SMAR,2023-05-02 13:07:53.111,46.0898367,11.11553,-7.08,173.77,0.5,null
SMAR,2023-05-02 13:07:53.144,46.0898367,11.11553,-7.44,173.25,0.65,null
STON,2023-05-02 13:07:53.144,46.08983352,11.115561736666667,-5.75677,9.993649,-0.787226,2
SMAR,2023-05-02 13:07:53.177,46.0898367,11.11553,-7.74,172.81,0.8,null
SMAR,2023-05-02 13:07:53.212,46.0898367,11.11553,-8.04,172.62,0.95,null
SMAR,2023-05-02 13:07:53.245,46.0898367,11.11553,-8.36,172.72,1.08,null
SMAR,2023-05-02 13:07:53.278,46.0898367,11.11553,-8.64,172.94,1.18,null
STON,2023-05-02 13:07:53.278,46.08983352,11.115561736666667,-7.358115,8.898911,-0.384118,2
SMAR,2023-05-02 13:07:53.308,46.0898367,11.11553,-8.97,173.22,1.37,null
SMAR,2023-05-02 13:07:53.343,46.0898367,11.11553,-9.25,173.27,1.54,null
STON,2023-05-02 13:07:53.343,46.089834045,11.115562241666666,-7.358115,8.898911,-0.384118,2
SMAR,2023-05-02 13:07:53.375,46.0898367,11.11553,-9.57,173.04,1.83,null
SMAR,2023-05-02 13:07:53.408,46.0898367,11.11553,-9.85,172.6,2.2,null
STON,2023-05-02 13:07:53.408,46.089834045,11.115562241666666,-9.121406,8.820015,0.531687,2
SMAR,2023-05-02 13:07:53.442,46.0898367,11.11553,-10.15,172.07,2.57,null
SMAR,2023-05-02 13:07:53.478,46.0898367,11.11553,-10.49,171.91,2.94,null
SMAR,2023-05-02 13:07:53.508,46.0898367,11.11553,-10.83,172.19,3.17,null
SMAR,2023-05-02 13:07:53.541,46.0898367,11.11553,-11.13,173.03,3.26,null
SMAR,2023-05-02 13:07:53.574,46.0898367,11.11553,-11.39,174.14,3.22,null
SMAR,2023-05-02 13:07:53.607,46.0898367,11.11553,-11.62,175.12,3.15,null
STON,2023-05-02 13:07:53.607,46.089834515,11.115563013333333,-9.121406,8.820015,0.531687,2
SMAR,2023-05-02 13:07:53.64,46.0898367,11.11553,-11.76,175.97,3.05,null
SMAR,2023-05-02 13:07:53.673,46.0898367,11.11553,-11.86,176.88,2.91,null
SMAR,2023-05-02 13:07:53.707,46.0898367,11.11553,-11.92,177.96,2.69,null
STON,2023-05-02 13:07:53.707,46.089834515,11.115563013333333,-10.944149,8.511534,2.273087,2
SMAR,2023-05-02 13:07:53.74,46.0898367,11.11553,-11.97,179.37,2.39,null
SMAR,2023-05-02 13:07:53.773,46.0898367,11.11553,-11.97,-178.99,2.0,null
STON,2023-05-02 13:07:53.773,46.089835095,11.115563921666666,-10.944149,8.511534,2.273087,2
SMAR,2023-05-02 13:07:53.805,46.0898367,11.11553,-11.94,-177.31,1.57,null
STON,2023-05-02 13:07:53.805,46.089835095,11.115563921666666,-11.704198,15.090372,1.308556,2
SMAR,2023-05-02 13:07:53.839,46.0898367,11.11553,-11.9,-175.73,1.12,null
SMAR,2023-05-02 13:07:53.874,46.0898367,11.11553,-11.8,-174.25,0.64,null
SMAR,2023-05-02 13:07:53.904,46.0898367,11.11553,-11.68,-172.62,0.1,null
SMAR,2023-05-02 13:07:53.938,46.0898367,11.11553,-11.53,-170.71,-0.55,null
SMAR,2023-05-02 13:07:53.974,46.0898367,11.11553,-11.32,-168.53,-1.27,null
SMAR,2023-05-02 13:07:54.006,46.0898367,11.11553,-11.06,-165.98,-2.09,null
STON,2023-05-02 13:07:54.006,46.08983589,11.115564596666667,-11.704198,15.090372,1.308556,2
STON,2023-05-02 13:07:54.006,46.08983589,11.115564596666667,-11.195271,25.766659,-1.795513,2
SMAR,2023-05-02 13:07:54.039,46.0898367,11.11553,-10.75,-163.27,-2.95,null
SMAR,2023-05-02 13:07:54.071,46.0898367,11.11553,-10.42,-160.89,-3.78,null
SMAR,2023-05-02 13:07:54.105,46.0898367,11.11553,-10.09,-158.88,-4.53,null
SMAR,2023-05-02 13:07:54.137,46.0898367,11.11553,-9.77,-157.0,-5.27,null
STON,2023-05-02 13:07:54.137,46.08983677333333,11.115565061666667,-11.195271,25.766659,-1.795513,2
SMAR,2023-05-02 13:07:54.177,46.0898367,11.11553,-9.4,-155.02,-5.95,null
SMAR,2023-05-02 13:07:54.22,46.0898367,11.11553,-9.04,-153.12,-6.56,null
STON,2023-05-02 13:07:54.22,46.08983677333333,11.115565061666667,-9.32655,40.217186,-6.581276,2
SMAR,2023-05-02 13:07:54.249,46.0898367,11.11553,-8.7,-151.5,-7.11,null
SMAR,2023-05-02 13:07:54.269,46.0898367,11.11553,-8.41,-150.33,-7.57,null
SMAR,2023-05-02 13:07:54.303,46.0898367,11.11553,-8.14,-149.4,-7.96,null
SMAR,2023-05-02 13:07:54.337,46.0898367,11.11553,-7.82,-148.32,-8.37,null
STON,2023-05-02 13:07:54.337,46.08983766,11.115565481666666,-9.32655,40.217186,-6.581276,2
SMAR,2023-05-02 13:07:54.371,46.0898367,11.11553,-7.5,-147.23,-8.72,null
SMAR,2023-05-02 13:07:54.402,46.0898367,11.11553,-7.23,-146.42,-8.99,null
SMAR,2023-05-02 13:07:54.435,46.0898367,11.11553,-7.04,-146.1,-9.18,null
SMAR,2023-05-02 13:07:54.468,46.0898367,11.11553,-6.98,-146.36,-9.26,null
STON,2023-05-02 13:07:54.468,46.08983766,11.115565481666666,-7.326539,48.97163,-9.61447,2
SMAR,2023-05-02 13:07:54.501,46.0898367,11.11553,-7.01,-147.01,-9.28,null
SMAR,2023-05-02 13:07:54.534,46.0898367,11.11553,-7.08,-147.62,-9.26,null
SMAR,2023-05-02 13:07:54.567,46.0898367,11.11553,-7.1,-147.85,-9.29,null
SMAR,2023-05-02 13:07:54.6,46.0898367,11.11553,-7.08,-147.72,-9.32,null
SMAR,2023-05-02 13:07:54.633,46.0898367,11.11553,-7.1,-147.62,-9.33,null
STON,2023-05-02 13:07:54.633,46.08983889,11.115566235,-7.326539,48.97163,-9.61447,2
STON,2023-05-02 13:07:54.633,46.08983889,11.115566235,-6.606215,49.492847,-10.478586,2
SMAR,2023-05-02 13:07:54.666,46.0898367,11.11553,-7.21,-147.92,-9.29,null
SMAR,2023-05-02 13:07:54.7,46.0898367,11.11553,-7.39,-148.65,-9.18,null
SMAR,2023-05-02 13:07:54.732,46.0898367,11.11553,-7.63,-149.57,-9.05,null
STON,2023-05-02 13:07:54.732,46.089840448333334,11.115567211666667,-6.606215,49.492847,-10.478586,2
SMAR,2023-05-02 13:07:54.767,46.0898367,11.11553,-7.84,-150.23,-8.93,null
SMAR,2023-05-02 13:07:54.799,46.0898367,11.11553,-8.06,-150.78,-8.8,null
SMAR,2023-05-02 13:07:54.835,46.0898367,11.11553,-8.42,-151.91,-8.58,null
STON,2023-05-02 13:07:54.835,46.089840448333334,11.115567211666667,-7.189256,47.585018,-10.258669,2
SMAR,2023-05-02 13:07:54.884,46.0898367,11.11553,-8.9,-153.72,-8.23,null
SMAR,2023-05-02 13:07:54.9,46.0898367,11.11553,-9.39,-155.65,-7.82,null
STON,2023-05-02 13:07:54.9,46.08984219166667,11.115567978333333,-7.189256,47.585018,-10.258669,2
SMAR,2023-05-02 13:07:54.949,46.0898367,11.11553,-9.78,-157.03,-7.46,null
SMAR,2023-05-02 13:07:54.968,46.0898367,11.11553,-10.07,-157.72,-7.18,null
SMAR,2023-05-02 13:07:55.015,46.0898367,11.11553,-10.32,-158.39,-6.89,null
SMAR,2023-05-02 13:07:55.05,46.0898367,11.11553,-10.6,-159.47,-6.52,null
STON,2023-05-02 13:07:55.05,46.08984219166667,11.115567978333333,-9.380688,40.238865,-8.645342,2
SMAR,2023-05-02 13:07:55.082,46.0898367,11.11553,-10.84,-160.85,-6.08,null
SMAR,2023-05-02 13:07:55.114,46.0898367,11.11553,-11.02,-162.26,-5.62,null
STON,2023-05-02 13:07:55.114,46.08984383,11.115568443333334,-9.380688,40.238865,-8.645342,2
SMAR,2023-05-02 13:07:55.138,46.0898367,11.11553,-11.09,-163.39,-5.2,null
SMAR,2023-05-02 13:07:55.181,46.0898367,11.11553,-11.04,-164.08,-4.86,null
SMAR,2023-05-02 13:07:55.214,46.0898367,11.11553,-10.89,-164.35,-4.59,null
STON,2023-05-02 13:07:55.214,46.08984383,11.115568443333334,-10.698801,33.684807,-6.356104,2
SMAR,2023-05-02 13:07:55.248,46.0898367,11.11553,-10.63,-164.22,-4.41,null
SMAR,2023-05-02 13:07:55.279,46.0898367,11.11553,-10.3,-163.8,-4.29,null
SMAR,2023-05-02 13:07:55.312,46.0898367,11.11553,-9.94,-163.36,-4.2,null
STON,2023-05-02 13:07:55.312,46.08984533666667,11.115568748333333,-10.698801,33.684807,-6.356104,2
SMAR,2023-05-02 13:07:55.344,46.0898367,11.11553,-9.58,-163.15,-4.1,null
SMAR,2023-05-02 13:07:55.379,46.0898367,11.11553,-9.24,-163.22,-4.01,null
SMAR,2023-05-02 13:07:55.411,46.0898367,11.11553,-8.91,-163.35,-3.94,null
SMAR,2023-05-02 13:07:55.444,46.0898367,11.11553,-8.56,-163.19,-3.93,null
STON,2023-05-02 13:07:55.444,46.08984533666667,11.115568748333333,-9.196754,33.648815,-5.26054,2
SMAR,2023-05-02 13:07:55.479,46.0898367,11.11553,-8.17,-162.45,-4.04,null
SMAR,2023-05-02 13:07:55.511,46.0898367,11.11553,-7.76,-161.3,-4.21,null
SMAR,2023-05-02 13:07:55.545,46.0898367,11.11553,-7.43,-160.3,-4.36,null
SMAR,2023-05-02 13:07:55.577,46.0898417,11.11553,-7.21,-159.67,-4.47,null
STON,2023-05-02 13:07:55.577,46.08984668666667,11.115569251666667,-9.196754,33.648815,-5.26054,2
SMAR,2023-05-02 13:07:55.618,46.0898417,11.11553,-7.05,-159.07,-4.57,null
STON,2023-05-02 13:07:55.618,46.08984668666667,11.115569251666667,-7.022332,36.440483,-5.532093,2
SMAR,2023-05-02 13:07:55.642,46.0898417,11.11553,-6.94,-158.4,-4.67,null
SMAR,2023-05-02 13:07:55.675,46.0898417,11.11553,-6.86,-157.75,-4.76,null
SMAR,2023-05-02 13:07:55.709,46.0898417,11.11553,-6.79,-156.98,-4.88,null
SMAR,2023-05-02 13:07:55.742,46.0898417,11.11553,-6.71,-155.99,-5.03,null
SMAR,2023-05-02 13:07:55.779,46.0898417,11.11553,-6.64,-154.81,-5.25,null
SMAR,2023-05-02 13:07:55.809,46.0898417,11.11553,-6.59,-153.43,-5.52,null
SMAR,2023-05-02 13:07:55.841,46.0898417,11.11553,-6.6,-152.24,-5.8,null
SMAR,2023-05-02 13:07:55.874,46.0898417,11.11553,-6.72,-151.57,-6.07,null
SMAR,2023-05-02 13:07:55.91,46.0898417,11.11553,-6.98,-151.55,-6.29,null
SMAR,2023-05-02 13:07:55.944,46.0898422,11.1155301,-7.34,-151.9,-6.48,null
SMAR,2023-05-02 13:07:55.973,46.0898422,11.1155301,-7.72,-152.16,-6.71,null
SMAR,2023-05-02 13:07:56.008,46.0898422,11.1155301,-8.09,-152.32,-6.95,null
SMAR,2023-05-02 13:07:56.039,46.0898422,11.1155301,-8.46,-152.47,-7.19,null
SMAR,2023-05-02 13:07:56.074,46.0898422,11.1155301,-8.8,-152.53,-7.41,null
SMAR,2023-05-02 13:07:56.107,46.0898422,11.1155301,-9.09,-152.22,-7.72,null
SMAR,2023-05-02 13:07:56.14,46.0898422,11.1155301,-9.26,-151.24,-8.12,null
STON,2023-05-02 13:07:56.14,46.08984777,11.115570368333334,-7.022332,36.440483,-5.532093,2
STON,2023-05-02 13:07:56.14,46.08984777,11.115570368333334,-6.291721,40.778015,-6.212137,2
SMAR,2023-05-02 13:07:56.173,46.0898422,11.1155301,-9.44,-150.28,-8.56,null
STON,2023-05-02 13:07:56.173,46.089849175,11.115571673333333,-6.291721,40.778015,-6.212137,2
SMAR,2023-05-02 13:07:56.207,46.0898422,11.1155301,-9.77,-150.16,-8.85,null
STON,2023-05-02 13:07:56.207,46.089849175,11.115571673333333,-6.897978,45.099564,-7.696238,2
STON,2023-05-02 13:07:56.207,46.08985093333333,11.115572943333333,-6.897978,45.099564,-7.696238,2
STON,2023-05-02 13:07:56.207,46.08985093333333,11.115572943333333,-8.808816,46.213505,-9.369866,2
SMAR,2023-05-02 13:07:56.24,46.0898422,11.1155301,-10.26,-150.83,-8.98,null
SMAR,2023-05-02 13:07:56.273,46.0898422,11.1155301,-10.77,-151.63,-9.05,null
SMAR,2023-05-02 13:07:56.306,46.0898422,11.1155301,-11.19,-152.02,-9.12,null
SMAR,2023-05-02 13:07:56.34,46.0898422,11.1155301,-11.59,-152.27,-9.13,null
STON,2023-05-02 13:07:56.34,46.089852758333336,11.115574106666667,-8.808816,46.213505,-9.369866,2
SMAR,2023-05-02 13:07:56.373,46.0898422,11.1155301,-11.99,-152.78,-9.02,null
SMAR,2023-05-02 13:07:56.407,46.0898422,11.1155301,-12.39,-153.5,-8.82,null
SMAR,2023-05-02 13:07:56.44,46.0898422,11.1155301,-12.72,-154.2,-8.59,null
STON,2023-05-02 13:07:56.44,46.089852758333336,11.115574106666667,-11.089145,45.732796,-10.467235,2
SMAR,2023-05-02 13:07:56.471,46.0898422,11.1155301,-12.98,-154.79,-8.34,null
SMAR,2023-05-02 13:07:56.505,46.0898422,11.1155301,-13.17,-155.33,-8.09,null
SMAR,2023-05-02 13:07:56.539,46.0898422,11.1155301,-13.32,-155.94,-7.85,null
SMAR,2023-05-02 13:07:56.571,46.0898495,11.1155315,-13.39,-156.53,-7.63,null
SMAR,2023-05-02 13:07:56.604,46.0898495,11.1155315,-13.36,-156.84,-7.54,null
SMAR,2023-05-02 13:07:56.636,46.0898495,11.1155315,-13.24,-156.92,-7.54,null
STON,2023-05-02 13:07:56.636,46.08985454333333,11.115575161666667,-11.089145,45.732796,-10.467235,2
STON,2023-05-02 13:07:56.636,46.08985454333333,11.115575161666667,-12.856708,42.059891,-9.185887,2
SMAR,2023-05-02 13:07:56.668,46.0898495,11.1155315,-13.06,-157.05,-7.6,null
SMAR,2023-05-02 13:07:56.705,46.0898495,11.1155315,-12.83,-157.21,-7.72,null
STON,2023-05-02 13:07:56.705,46.08985646,11.115575723333333,-12.856708,42.059891,-9.185887,2
SMAR,2023-05-02 13:07:56.736,46.0898495,11.1155315,-12.55,-157.2,-7.93,null
SMAR,2023-05-02 13:07:56.771,46.0898495,11.1155315,-12.18,-156.91,-8.22,null
SMAR,2023-05-02 13:07:56.803,46.0898495,11.1155315,-11.76,-156.42,-8.56,null
STON,2023-05-02 13:07:56.803,46.08985646,11.115575723333333,-12.126232,40.648506,-9.234175,2
SMAR,2023-05-02 13:07:56.84,46.0898495,11.1155315,-11.33,-155.93,-8.9,null
SMAR,2023-05-02 13:07:56.872,46.0898495,11.1155315,-10.87,-155.47,-9.19,null
SMAR,2023-05-02 13:07:56.904,46.0898495,11.1155315,-10.43,-155.28,-9.4,null
STON,2023-05-02 13:07:56.904,46.08985826166667,11.115575705,-12.126232,40.648506,-9.234175,2
SMAR,2023-05-02 13:07:56.934,46.0898495,11.1155315,-10.1,-155.82,-9.45,null
SMAR,2023-05-02 13:07:56.968,46.0898495,11.1155315,-9.87,-157.08,-9.33,null
STON,2023-05-02 13:07:56.968,46.08985826166667,11.115575705,-9.642159,42.021351,-10.724313,2
SMAR,2023-05-02 13:07:57.005,46.0898495,11.1155315,-9.64,-158.63,-9.13,null
SMAR,2023-05-02 13:07:57.032,46.0898495,11.1155315,-9.31,-159.84,-8.94,null
SMAR,2023-05-02 13:07:57.068,46.0898495,11.1155315,-8.81,-160.25,-8.84,null
SMAR,2023-05-02 13:07:57.1,46.0898495,11.1155315,-8.21,-160.09,-8.8,null
SMAR,2023-05-02 13:07:57.137,46.0898495,11.1155315,-7.62,-160.11,-8.76,null
SMAR,2023-05-02 13:07:57.17,46.0898495,11.1155315,-7.17,-160.89,-8.66,null
SMAR,2023-05-02 13:07:57.204,46.0898495,11.1155315,-6.87,-162.47,-8.55,null
STON,2023-05-02 13:07:57.204,46.08985992666667,11.115575896666666,-9.642159,42.021351,-10.724313,2
STON,2023-05-02 13:07:57.204,46.08985992666667,11.115575896666666,-7.234652,37.222244,-9.969509,2
SMAR,2023-05-02 13:07:57.239,46.0898495,11.1155315,-6.63,-164.18,-8.5,null
SMAR,2023-05-02 13:07:57.282,46.0898495,11.1155315,-6.34,-165.27,-8.58,null
SMAR,2023-05-02 13:07:57.315,46.0898495,11.1155315,-6.02,-165.88,-8.74,null
SMAR,2023-05-02 13:07:57.348,46.0898495,11.1155315,-5.79,-166.66,-8.89,null
STON,2023-05-02 13:07:57.348,46.08986173833333,11.115576118333333,-7.234652,37.222244,-9.969509,2
SMAR,2023-05-02 13:07:57.37,46.0898495,11.1155315,-5.66,-167.93,-9.0,null
SMAR,2023-05-02 13:07:57.414,46.0898495,11.1155315,-5.61,-169.31,-9.07,null
SMAR,2023-05-02 13:07:57.45,46.0898495,11.1155315,-5.54,-170.18,-9.19,null
STON,2023-05-02 13:07:57.45,46.08986173833333,11.115576118333333,-5.401866,30.378387,-10.073215,2
SMAR,2023-05-02 13:07:57.482,46.0898495,11.1155315,-5.46,-170.53,-9.34,null
SMAR,2023-05-02 13:07:57.515,46.0898495,11.1155315,-5.49,-171.04,-9.48,null
SMAR,2023-05-02 13:07:57.546,46.0898495,11.1155315,-5.72,-172.16,-9.58,null
SMAR,2023-05-02 13:07:57.579,46.0898595,11.1155343,-6.09,-173.74,-9.62,null
SMAR,2023-05-02 13:07:57.612,46.0898595,11.1155343,-6.53,-175.39,-9.65,null
STON,2023-05-02 13:07:57.612,46.08986384833333,11.115576071666666,-5.401866,30.378387,-10.073215,2
STON,2023-05-02 13:07:57.612,46.08986384833333,11.115576071666666,-5.331264,24.977839,-10.781575,2
SMAR,2023-05-02 13:07:57.646,46.0898595,11.1155343,-7.0,-177.2,-9.64,null
SMAR,2023-05-02 13:07:57.679,46.0898595,11.1155343,-7.57,-179.42,-9.56,null
SMAR,2023-05-02 13:07:57.711,46.0898595,11.1155343,-8.15,178.21,-9.41,null
STON,2023-05-02 13:07:57.711,46.089865806666666,11.115575421666666,-5.331264,24.977839,-10.781575,2
SMAR,2023-05-02 13:07:57.748,46.0898595,11.1155343,-8.63,176.22,-9.29,null
SMAR,2023-05-02 13:07:57.779,46.0898595,11.1155343,-8.98,174.88,-9.22,null
SMAR,2023-05-02 13:07:57.811,46.0898595,11.1155343,-9.24,174.0,-9.21,null
SMAR,2023-05-02 13:07:57.844,46.0898595,11.1155343,-9.44,173.22,-9.22,null
STON,2023-05-02 13:07:57.844,46.089865806666666,11.115575421666666,-8.227679,13.918555,-10.517069,2
SMAR,2023-05-02 13:07:57.879,46.0898595,11.1155343,-9.61,172.38,-9.24,null
SMAR,2023-05-02 13:07:57.912,46.0898595,11.1155343,-9.75,171.42,-9.27,null
SMAR,2023-05-02 13:07:57.943,46.0898595,11.1155343,-9.84,170.44,-9.34,null
STON,2023-05-02 13:07:57.943,46.089867846666664,11.11557445,-8.227679,13.918555,-10.517069,2
SMAR,2023-05-02 13:07:57.982,46.0898595,11.1155343,-9.91,169.39,-9.45,null
SMAR,2023-05-02 13:07:58.02,46.0898595,11.1155343,-9.95,168.37,-9.61,null
SMAR,2023-05-02 13:07:58.047,46.0898595,11.1155343,-9.95,167.47,-9.85,null
STON,2023-05-02 13:07:58.047,46.089867846666664,11.11557445,-9.505218,8.228435,-10.53736,2
SMAR,2023-05-02 13:07:58.089,46.0898595,11.1155343,-9.86,166.91,-10.16,null
SMAR,2023-05-02 13:07:58.116,46.0898595,11.1155343,-9.6,167.03,-10.6,null
STON,2023-05-02 13:07:58.116,46.089869861666664,11.115572743333333,-9.505218,8.228435,-10.53736,2
SMAR,2023-05-02 13:07:58.142,46.0898595,11.1155343,-9.24,167.59,-11.12,null
SMAR,2023-05-02 13:07:58.178,46.0898595,11.1155343,-8.86,168.07,-11.61,null
SMAR,2023-05-02 13:07:58.21,46.0898595,11.1155343,-8.57,168.14,-12.03,null
STON,2023-05-02 13:07:58.21,46.089869861666664,11.115572743333333,-8.938929,5.538834,-12.247879,2
SMAR,2023-05-02 13:07:58.244,46.0898595,11.1155343,-8.36,167.78,-12.38,null
SMAR,2023-05-02 13:07:58.275,46.0898595,11.1155343,-8.25,167.1,-12.66,null
SMAR,2023-05-02 13:07:58.307,46.0898595,11.1155343,-8.27,165.98,-12.84,null
STON,2023-05-02 13:07:58.307,46.089871445,11.115571378333334,-8.938929,5.538834,-12.247879,2
SMAR,2023-05-02 13:07:58.345,46.0898595,11.1155343,-8.38,164.41,-12.93,null
SMAR,2023-05-02 13:07:58.374,46.0898595,11.1155343,-8.54,162.7,-12.94,null
SMAR,2023-05-02 13:07:58.409,46.0898595,11.1155343,-8.66,161.12,-12.92,null
STON,2023-05-02 13:07:58.409,46.089871445,11.115571378333334,-7.983163,2.908638,-14.125537,2
SMAR,2023-05-02 13:07:58.44,46.0898595,11.1155343,-8.72,159.67,-12.87,null
SMAR,2023-05-02 13:07:58.474,46.0898595,11.1155343,-8.78,158.22,-12.8,null
SMAR,2023-05-02 13:07:58.508,46.0898595,11.1155343,-8.8,156.87,-12.71,null
SMAR,2023-05-02 13:07:58.54,46.0898697,11.1155361,-8.74,155.9,-12.65,null
SMAR,2023-05-02 13:07:58.573,46.0898697,11.1155361,-8.55,155.5,-12.65,null
SMAR,2023-05-02 13:07:58.609,46.0898697,11.1155361,-8.38,155.07,-12.61,null
SMAR,2023-05-02 13:07:58.639,46.0898697,11.1155361,-8.41,153.92,-12.46,null
STON,2023-05-02 13:07:58.639,46.089871445,11.115571378333334,-8.418715,-5.626904,-13.856679,2
STON,2023-05-02 13:07:58.639,46.089873096666665,11.115569875,-8.418715,-5.626904,-13.856679,2
SMAR,2023-05-02 13:07:58.672,46.0898697,11.1155361,-8.51,152.23,-12.19,null
SMAR,2023-05-02 13:07:58.706,46.0898697,11.1155361,-8.62,150.54,-11.88,null
STON,2023-05-02 13:07:58.706,46.089874773333335,11.115568546666667,-8.418715,-5.626904,-13.856679,2
SMAR,2023-05-02 13:07:58.739,46.0898697,11.1155361,-8.63,149.52,-11.62,null
SMAR,2023-05-02 13:07:58.773,46.0898697,11.1155361,-8.51,148.98,-11.38,null
SMAR,2023-05-02 13:07:58.807,46.0898697,11.1155361,-8.44,148.3,-11.1,null
STON,2023-05-02 13:07:58.807,46.089874773333335,11.115568546666667,-8.310014,-12.178362,-12.829611,2
SMAR,2023-05-02 13:07:58.837,46.0898697,11.1155361,-8.46,147.36,-10.77,null
SMAR,2023-05-02 13:07:58.87,46.0898697,11.1155361,-8.52,146.36,-10.44,null
SMAR,2023-05-02 13:07:58.904,46.0898697,11.1155361,-8.59,145.45,-10.12,null
SMAR,2023-05-02 13:07:58.936,46.0898697,11.1155361,-8.72,144.34,-9.79,null
SMAR,2023-05-02 13:07:58.97,46.0898697,11.1155361,-8.89,142.89,-9.38,null
STON,2023-05-02 13:07:58.97,46.08987634166667,11.115567243333333,-8.310014,-12.178362,-12.829611,2
STON,2023-05-02 13:07:58.97,46.08987634166667,11.115567243333333,-8.36235,-17.500412,-10.990141,2
SMAR,2023-05-02 13:07:59.004,46.0898697,11.1155361,-9.01,141.52,-8.98,null
SMAR,2023-05-02 13:07:59.037,46.0898697,11.1155361,-9.02,140.4,-8.62,null
SMAR,2023-05-02 13:07:59.068,46.0898697,11.1155361,-8.97,139.54,-8.29,null
SMAR,2023-05-02 13:07:59.106,46.0898697,11.1155361,-8.84,138.96,-8.01,null
STON,2023-05-02 13:07:59.106,46.08987767166666,11.11556589,-8.36235,-17.500412,-10.990141,2
SMAR,2023-05-02 13:07:59.142,46.0898697,11.1155361,-8.63,138.59,-7.74,null
SMAR,2023-05-02 13:07:59.17,46.0898697,11.1155361,-8.32,138.59,-7.53,null
SMAR,2023-05-02 13:07:59.202,46.0898697,11.1155361,-7.9,139.09,-7.35,null
STON,2023-05-02 13:07:59.202,46.08987767166666,11.11556589,-8.41694,-23.82589,-8.861632,2
SMAR,2023-05-02 13:07:59.236,46.0898697,11.1155361,-7.45,139.73,-7.13,null
SMAR,2023-05-02 13:07:59.27,46.0898697,11.1155361,-7.0,140.03,-6.85,null
SMAR,2023-05-02 13:07:59.308,46.0898697,11.1155361,-6.58,139.88,-6.49,null
SMAR,2023-05-02 13:07:59.339,46.0898697,11.1155361,-6.21,139.41,-6.07,null
SMAR,2023-05-02 13:07:59.369,46.0898697,11.1155361,-5.78,138.9,-5.61,null
STON,2023-05-02 13:07:59.369,46.089879026666665,11.115564308333333,-8.41694,-23.82589,-8.861632,2
SMAR,2023-05-02 13:07:59.404,46.0898697,11.1155361,-5.29,138.95,-5.19,null
SMAR,2023-05-02 13:07:59.436,46.0898697,11.1155361,-4.74,139.7,-4.78,null
STON,2023-05-02 13:07:59.436,46.089879026666665,11.115564308333333,-6.025367,-23.402325,-7.214559,2
SMAR,2023-05-02 13:07:59.471,46.0898697,11.1155361,-4.21,140.79,-4.39,null
SMAR,2023-05-02 13:07:59.506,46.0898697,11.1155361,-3.75,141.52,-3.97,null
SMAR,2023-05-02 13:07:59.553,46.0898809,11.1155363,-3.41,141.34,-3.47,null
SMAR,2023-05-02 13:07:59.582,46.0898809,11.1155363,-3.13,140.48,-2.96,null
SMAR,2023-05-02 13:07:59.615,46.0898809,11.1155363,-2.83,139.42,-2.45,null
SMAR,2023-05-02 13:07:59.646,46.0898809,11.1155363,-2.48,138.67,-1.94,null
STON,2023-05-02 13:07:59.646,46.089880253333334,11.115563245,-6.025367,-23.402325,-7.214559,2
SMAR,2023-05-02 13:07:59.681,46.0898809,11.1155363,-2.06,138.58,-1.41,null
SMAR,2023-05-02 13:07:59.715,46.0898809,11.1155363,-1.62,139.07,-0.86,null
SMAR,2023-05-02 13:07:59.748,46.0898809,11.1155363,-1.17,139.66,-0.3,null
STON,2023-05-02 13:07:59.748,46.08988158333333,11.115562546666666,-6.025367,-23.402325,-7.214559,2
SMAR,2023-05-02 13:07:59.779,46.0898809,11.1155363,-0.73,139.9,0.27,null
SMAR,2023-05-02 13:07:59.812,46.0898809,11.1155363,-0.28,139.67,0.82,null
SMAR,2023-05-02 13:07:59.846,46.0898809,11.1155363,0.53,139.08,1.15,null
SMAR,2023-05-02 13:07:59.88,46.0898809,11.1155363,1.12,138.99,1.57,null
SMAR,2023-05-02 13:07:59.914,46.0898809,11.1155363,1.9,138.67,1.88,null
STON,2023-05-02 13:07:59.914,46.08988306166667,11.115562118333333,-6.025367,-23.402325,-7.214559,2
SMAR,2023-05-02 13:07:59.95,46.0898809,11.1155363,2.49,138.55,2.23,null
SMAR,2023-05-02 13:07:59.983,46.0898809,11.1155363,3.18,138.47,2.54,null
SMAR,2023-05-02 13:08:00.021,46.0898809,11.1155363,3.78,138.73,2.83,null
STON,2023-05-02 13:08:00.021,46.08988306166667,11.115562118333333,2.658682,-24.837736,1.160959,2
SMAR,2023-05-02 13:08:00.048,46.0898809,11.1155363,4.29,139.57,3.19,null
SMAR,2023-05-02 13:08:00.08,46.0898809,11.1155363,4.71,140.63,3.44,null
SMAR,2023-05-02 13:08:00.113,46.0898809,11.1155363,4.99,141.54,3.71,null
STON,2023-05-02 13:08:00.113,46.089884633333334,11.115562178333333,2.658682,-24.837736,1.160959,2
SMAR,2023-05-02 13:08:00.144,46.0898809,11.1155363,5.19,142.25,3.83,null
SMAR,2023-05-02 13:08:00.178,46.0898809,11.1155363,5.26,142.95,3.97,null
SMAR,2023-05-02 13:08:00.213,46.0898809,11.1155363,5.22,143.79,4.03,null
SMAR,2023-05-02 13:08:00.245,46.0898809,11.1155363,5.12,144.67,4.08,null
SMAR,2023-05-02 13:08:00.277,46.0898809,11.1155363,4.96,145.49,4.07,null
SMAR,2023-05-02 13:08:00.311,46.0898809,11.1155363,4.79,146.27,4.01,null
STON,2023-05-02 13:08:00.311,46.089884633333334,11.115562178333333,5.504646,-21.306063,2.810936,2
STON,2023-05-02 13:08:00.311,46.0898862,11.11556189,5.504646,-21.306063,2.810936,2
SMAR,2023-05-02 13:08:00.345,46.0898809,11.1155363,4.58,147.24,3.93,null
SMAR,2023-05-02 13:08:00.377,46.0898809,11.1155363,4.35,148.38,3.81,null
SMAR,2023-05-02 13:08:00.409,46.0898809,11.1155363,4.11,149.6,3.66,null
SMAR,2023-05-02 13:08:00.442,46.0898809,11.1155363,3.92,150.78,3.48,null
STON,2023-05-02 13:08:00.442,46.0898862,11.11556189,5.015851,-16.4793,2.977926,2
SMAR,2023-05-02 13:08:00.476,46.0898809,11.1155363,3.73,152.17,3.28,null
SMAR,2023-05-02 13:08:00.509,46.0898809,11.1155363,3.56,153.92,3.07,null
SMAR,2023-05-02 13:08:00.542,46.0898809,11.1155363,3.42,155.87,2.84,null
SMAR,2023-05-02 13:08:00.575,46.0898901,11.1155367,3.31,157.71,2.54,null
SMAR,2023-05-02 13:08:00.608,46.0898901,11.1155367,3.27,159.33,2.18,null
SMAR,2023-05-02 13:08:00.64,46.0898901,11.1155367,3.25,160.73,1.81,null
STON,2023-05-02 13:08:00.64,46.089887956666665,11.115561316666666,5.015851,-16.4793,2.977926,2
SMAR,2023-05-02 13:08:00.673,46.0898901,11.1155367,3.26,162.49,1.48,null
SMAR,2023-05-02 13:08:00.708,46.0898901,11.1155367,3.24,164.99,1.22,null
SMAR,2023-05-02 13:08:00.739,46.0898901,11.1155367,3.19,167.63,0.99,null
STON,2023-05-02 13:08:00.739,46.089889576666664,11.115560778333334,5.015851,-16.4793,2.977926,2
SMAR,2023-05-02 13:08:00.774,46.0898901,11.1155367,3.12,169.86,0.71,null
SMAR,2023-05-02 13:08:00.806,46.0898901,11.1155367,2.99,171.39,0.37,null
SMAR,2023-05-02 13:08:00.843,46.0898901,11.1155367,2.85,172.43,-0.01,null
STON,2023-05-02 13:08:00.843,46.089889576666664,11.115560778333334,3.516909,2.924557,0.009502,2
SMAR,2023-05-02 13:08:00.873,46.0898901,11.1155367,2.67,173.29,-0.42,null
SMAR,2023-05-02 13:08:00.906,46.0898901,11.1155367,2.5,174.09,-0.83,null
SMAR,2023-05-02 13:08:00.939,46.0898901,11.1155367,2.35,174.99,-1.22,null
SMAR,2023-05-02 13:08:00.977,46.0898901,11.1155367,2.23,176.02,-1.56,null
STON,2023-05-02 13:08:00.977,46.089891171666665,11.115560306666668,3.516909,2.924557,0.009502,2
STON,2023-05-02 13:08:00.977,46.089891171666665,11.115560306666668,2.686143,10.90014,-2.141296,2
SMAR,2023-05-02 13:08:01.006,46.0898901,11.1155367,2.12,177.03,-1.89,null
SMAR,2023-05-02 13:08:01.041,46.0898901,11.1155367,2.01,177.72,-2.22,null
SMAR,2023-05-02 13:08:01.078,46.0898901,11.1155367,1.9,178.07,-2.56,null
SMAR,2023-05-02 13:08:01.113,46.0898901,11.1155367,1.79,178.41,-2.88,null
SMAR,2023-05-02 13:08:01.146,46.0898901,11.1155367,1.7,179.0,-3.2,null
STON,2023-05-02 13:08:01.146,46.08989296,11.115559966666666,2.686143,10.90014,-2.141296,2
SMAR,2023-05-02 13:08:01.183,46.0898901,11.1155367,1.64,179.65,-3.5,null
SMAR,2023-05-02 13:08:01.22,46.0898901,11.1155367,1.55,179.89,-3.83,null
SMAR,2023-05-02 13:08:01.25,46.0898901,11.1155367,1.43,179.48,-4.17,null
SMAR,2023-05-02 13:08:01.286,46.0898901,11.1155367,1.28,178.86,-4.5,null
SMAR,2023-05-02 13:08:01.317,46.0898901,11.1155367,1.18,178.74,-4.83,null
SMAR,2023-05-02 13:08:01.349,46.0898901,11.1155367,1.14,179.32,-5.15,null
SMAR,2023-05-02 13:08:01.381,46.0898901,11.1155367,1.08,-179.93,-5.49,null
SMAR,2023-05-02 13:08:01.415,46.0898901,11.1155367,0.93,-179.4,-5.88,null
STON,2023-05-02 13:08:01.415,46.08989296,11.115559966666666,1.999057,14.96625,-4.143959,2
SMAR,2023-05-02 13:08:01.446,46.0898901,11.1155367,0.68,-179.2,-6.3,null
STON,2023-05-02 13:08:01.446,46.08989505,11.115559423333334,1.999057,14.96625,-4.143959,2
STON,2023-05-02 13:08:01.446,46.08989505,11.115559423333334,1.40648,15.186586,-6.102512,2
SMAR,2023-05-02 13:08:01.48,46.0898901,11.1155367,0.27,-179.59,-6.82,null
SMAR,2023-05-02 13:08:01.509,46.0898901,11.1155367,-0.29,179.24,-7.37,null
SMAR,2023-05-02 13:08:01.541,46.0898991,11.1155365,-0.99,177.48,-7.91,null
SMAR,2023-05-02 13:08:01.577,46.0898991,11.1155365,-1.67,175.83,-8.42,null
SMAR,2023-05-02 13:08:01.61,46.0898991,11.1155365,-2.21,174.91,-8.92,null
SMAR,2023-05-02 13:08:01.641,46.0898991,11.1155365,-2.58,174.74,-9.41,null
SMAR,2023-05-02 13:08:01.681,46.0898991,11.1155365,-2.82,174.94,-9.91,null
STON,2023-05-02 13:08:01.681,46.089897165,11.115558565,1.40648,15.186586,-6.102512,2
SMAR,2023-05-02 13:08:01.715,46.0898991,11.1155365,-3.0,175.11,-10.41,null
SMAR,2023-05-02 13:08:01.747,46.0898991,11.1155365,-3.12,175.31,-10.92,null
SMAR,2023-05-02 13:08:01.779,46.0898991,11.1155365,-3.15,175.66,-11.43,null
STON,2023-05-02 13:08:01.779,46.08989924,11.115557356666667,1.40648,15.186586,-6.102512,2
STON,2023-05-02 13:08:01.779,46.08989924,11.115557356666667,-2.820972,11.963827,-11.761336,2
SMAR,2023-05-02 13:08:01.811,46.0898991,11.1155365,-3.18,175.84,-11.95,null
SMAR,2023-05-02 13:08:01.845,46.0898991,11.1155365,-3.33,175.45,-12.45,null
SMAR,2023-05-02 13:08:01.878,46.0898991,11.1155365,-3.62,174.52,-12.93,null
SMAR,2023-05-02 13:08:01.918,46.0898991,11.1155365,-3.99,173.21,-13.38,null
SMAR,2023-05-02 13:08:01.948,46.0898991,11.1155365,-4.34,172.13,-13.81,null
SMAR,2023-05-02 13:08:01.982,46.0898991,11.1155365,-4.45,171.87,-14.29,null
STON,2023-05-02 13:08:01.982,46.089901285,11.115555846666666,-2.820972,11.963827,-11.761336,2
STON,2023-05-02 13:08:01.982,46.089901285,11.115555846666666,-3.911333,9.708957,-14.716287,2
SMAR,2023-05-02 13:08:02.015,46.0898991,11.1155365,-4.36,172.29,-14.81,null
SMAR,2023-05-02 13:08:02.051,46.0898991,11.1155365,-4.22,172.83,-15.29,null
SMAR,2023-05-02 13:08:02.082,46.0898991,11.1155365,-4.2,172.85,-15.73,null
SMAR,2023-05-02 13:08:02.122,46.0898991,11.1155365,-4.36,172.22,-16.08,null
STON,2023-05-02 13:08:02.122,46.089903158333335,11.115554108333333,-3.911333,9.708957,-14.716287,2
SMAR,2023-05-02 13:08:02.15,46.0898991,11.1155365,-4.64,171.03,-16.36,null
SMAR,2023-05-02 13:08:02.182,46.0898991,11.1155365,-5.01,169.6,-16.52,null
STON,2023-05-02 13:08:02.182,46.089903158333335,11.115554108333333,-4.174515,9.016796,-17.348532,2
SMAR,2023-05-02 13:08:02.213,46.0898991,11.1155365,-5.24,168.48,-16.6,null
SMAR,2023-05-02 13:08:02.248,46.0898991,11.1155365,-5.27,167.79,-16.64,null
SMAR,2023-05-02 13:08:02.285,46.0898991,11.1155365,-5.28,167.2,-16.62,null
SMAR,2023-05-02 13:08:02.312,46.0898991,11.1155365,-5.36,166.32,-16.56,null
STON,2023-05-02 13:08:02.312,46.08990498166666,11.115552523333333,-4.174515,9.016796,-17.348532,2
SMAR,2023-05-02 13:08:02.352,46.0898991,11.1155365,-5.54,165.12,-16.46,null
SMAR,2023-05-02 13:08:02.381,46.0898991,11.1155365,-5.71,163.94,-16.37,null
SMAR,2023-05-02 13:08:02.416,46.0898991,11.1155365,-5.77,163.19,-16.32,null
STON,2023-05-02 13:08:02.416,46.08990498166666,11.115552523333333,-5.140691,3.384698,-17.610989,2
SMAR,2023-05-02 13:08:02.454,46.0898991,11.1155365,-5.76,162.74,-16.3,null
SMAR,2023-05-02 13:08:02.488,46.0898991,11.1155365,-5.86,162.0,-16.32,null
SMAR,2023-05-02 13:08:02.522,46.0898991,11.1155365,-6.06,160.93,-16.33,null
SMAR,2023-05-02 13:08:02.551,46.0899109,11.1155354,-6.34,159.81,-16.37,null
SMAR,2023-05-02 13:08:02.583,46.0899109,11.1155354,-6.54,159.02,-16.46,null
STON,2023-05-02 13:08:02.583,46.0899069,11.1155508,-5.140691,3.384698,-17.610989,2
SMAR,2023-05-02 13:08:02.616,46.0899109,11.1155354,-6.77,158.26,-16.56,null
SMAR,2023-05-02 13:08:02.647,46.0899109,11.1155354,-7.3,156.81,-16.57,null
STON,2023-05-02 13:08:02.647,46.0899069,11.1155508,-5.852341,-1.837655,-17.446278,2
SMAR,2023-05-02 13:08:02.685,46.0899109,11.1155354,-7.99,154.83,-16.52,null
SMAR,2023-05-02 13:08:02.717,46.0899109,11.1155354,-8.6,153.19,-16.48,null
STON,2023-05-02 13:08:02.717,46.08990875166667,11.115548723333333,-5.852341,-1.837655,-17.446278,2
SMAR,2023-05-02 13:08:02.751,46.0899109,11.1155354,-9.06,152.06,-16.46,null
SMAR,2023-05-02 13:08:02.779,46.0899109,11.1155354,-9.54,150.85,-16.39,null
STON,2023-05-02 13:08:02.779,46.08990875166667,11.115548723333333,-8.340668,-8.850574,-17.627827,2
SMAR,2023-05-02 13:08:02.814,46.0899109,11.1155354,-10.13,149.19,-16.2,null
SMAR,2023-05-02 13:08:02.855,46.0899109,11.1155354,-10.73,147.21,-15.89,null
SMAR,2023-05-02 13:08:02.886,46.0899109,11.1155354,-11.26,145.31,-15.53,null
SMAR,2023-05-02 13:08:02.932,46.0899109,11.1155354,-11.61,143.68,-15.19,null
STON,2023-05-02 13:08:02.932,46.089910403333334,11.115546513333333,-8.340668,-8.850574,-17.627827,2
SMAR,2023-05-02 13:08:02.949,46.0899109,11.1155354,-11.81,142.36,-14.89,null
SMAR,2023-05-02 13:08:02.99,46.0899109,11.1155354,-11.79,141.47,-14.69,null
SMAR,2023-05-02 13:08:03.025,46.0899109,11.1155354,-11.54,141.21,-14.65,null
SMAR,2023-05-02 13:08:03.05,46.0899109,11.1155354,-11.13,141.43,-14.75,null
SMAR,2023-05-02 13:08:03.083,46.0899109,11.1155354,-10.69,141.6,-14.88,null
SMAR,2023-05-02 13:08:03.115,46.0899109,11.1155354,-10.31,141.55,-15.05,null
SMAR,2023-05-02 13:08:03.151,46.0899109,11.1155354,-9.96,141.31,-15.2,null
STON,2023-05-02 13:08:03.151,46.08991181,11.11554424,-8.340668,-8.850574,-17.627827,2
SMAR,2023-05-02 13:08:03.178,46.0899109,11.1155354,-9.61,141.03,-15.37,null
SMAR,2023-05-02 13:08:03.209,46.0899109,11.1155354,-9.19,140.96,-15.55,null
STON,2023-05-02 13:08:03.209,46.08991181,11.11554424,-9.718809,-19.941757,-16.254129,2
SMAR,2023-05-02 13:08:03.247,46.0899109,11.1155354,-8.7,141.18,-15.78,null
SMAR,2023-05-02 13:08:03.284,46.0899109,11.1155354,-8.18,141.53,-15.99,null
SMAR,2023-05-02 13:08:03.319,46.0899109,11.1155354,-7.75,141.66,-16.16,null
STON,2023-05-02 13:08:03.319,46.089912981666664,11.115541871666666,-9.718809,-19.941757,-16.254129,2
SMAR,2023-05-02 13:08:03.345,46.0899109,11.1155354,-7.49,141.26,-16.26,null
SMAR,2023-05-02 13:08:03.384,46.0899109,11.1155354,-7.44,140.25,-16.24,null
SMAR,2023-05-02 13:08:03.42,46.0899109,11.1155354,-7.46,138.94,-16.13,null
SMAR,2023-05-02 13:08:03.448,46.0899109,11.1155354,-7.36,137.94,-16.01,null
SMAR,2023-05-02 13:08:03.484,46.0899109,11.1155354,-7.11,137.46,-15.91,null
SMAR,2023-05-02 13:08:03.514,46.0899109,11.1155354,-6.78,137.31,-15.8,null
SMAR,2023-05-02 13:08:03.547,46.0899109,11.1155354,-6.43,137.11,-15.67,null
SMAR,2023-05-02 13:08:03.58,46.0899223,11.1155339,-6.22,136.62,-15.51,null
STON,2023-05-02 13:08:03.58,46.089914145,11.115539696666668,-9.718809,-19.941757,-16.254129,2
SMAR,2023-05-02 13:08:03.611,46.0899223,11.1155339,-6.06,136.13,-15.33,null
SMAR,2023-05-02 13:08:03.644,46.0899223,11.1155339,-5.82,136.09,-15.22,null
STON,2023-05-02 13:08:03.644,46.089914145,11.115539696666668,-6.31361,-25.095928,-16.736811,2
SMAR,2023-05-02 13:08:03.678,46.0899223,11.1155339,-5.55,136.28,-15.1,null
SMAR,2023-05-02 13:08:03.716,46.0899223,11.1155339,-5.45,136.08,-14.95,null
SMAR,2023-05-02 13:08:03.747,46.0899223,11.1155339,-5.58,135.27,-14.73,null
SMAR,2023-05-02 13:08:03.779,46.0899223,11.1155339,-5.81,134.24,-14.51,null
STON,2023-05-02 13:08:03.779,46.089915448333336,11.11553736,-6.31361,-25.095928,-16.736811,2
SMAR,2023-05-02 13:08:03.81,46.0899223,11.1155339,-5.96,133.55,-14.32,null
SMAR,2023-05-02 13:08:03.846,46.0899223,11.1155339,-6.22,132.95,-14.13,null
STON,2023-05-02 13:08:03.846,46.089915448333336,11.11553736,-5.231483,-26.947308,-15.797621,2
SMAR,2023-05-02 13:08:03.881,46.0899223,11.1155339,-6.56,131.98,-13.91,null
SMAR,2023-05-02 13:08:03.91,46.0899223,11.1155339,-6.93,131.14,-13.7,null
STON,2023-05-02 13:08:03.91,46.089916725,11.115534905,-5.231483,-26.947308,-15.797621,2
SMAR,2023-05-02 13:08:03.949,46.0899223,11.1155339,-7.15,130.88,-13.53,null
SMAR,2023-05-02 13:08:03.987,46.0899223,11.1155339,-7.35,130.86,-13.39,null
SMAR,2023-05-02 13:08:04.017,46.0899223,11.1155339,-7.61,130.5,-13.19,null
STON,2023-05-02 13:08:04.017,46.089916725,11.115534905,-6.703534,-31.652525,-14.562229,2
SMAR,2023-05-02 13:08:04.047,46.0899223,11.1155339,-7.97,129.64,-12.94,null
SMAR,2023-05-02 13:08:04.082,46.0899223,11.1155339,-8.31,128.58,-12.63,null
SMAR,2023-05-02 13:08:04.112,46.0899223,11.1155339,-8.57,127.72,-12.33,null
STON,2023-05-02 13:08:04.112,46.089917775,11.115532978333333,-6.703534,-31.652525,-14.562229,2
SMAR,2023-05-02 13:08:04.156,46.0899223,11.1155339,-8.68,127.28,-12.09,null
SMAR,2023-05-02 13:08:04.189,46.0899223,11.1155339,-8.66,127.27,-11.87,null
SMAR,2023-05-02 13:08:04.223,46.0899223,11.1155339,-8.5,127.71,-11.68,null
SMAR,2023-05-02 13:08:04.252,46.0899223,11.1155339,-8.27,128.5,-11.52,null
STON,2023-05-02 13:08:04.252,46.089917775,11.115532978333333,-8.287208,-35.09935,-13.14395,2
SMAR,2023-05-02 13:08:04.289,46.0899223,11.1155339,-8.03,129.1,-11.34,null
SMAR,2023-05-02 13:08:04.316,46.0899223,11.1155339,-7.93,129.18,-11.12,null
STON,2023-05-02 13:08:04.316,46.08991853,11.115530286666667,-8.287208,-35.09935,-13.14395,2
SMAR,2023-05-02 13:08:04.35,46.0899223,11.1155339,-7.86,129.07,-10.92,null
SMAR,2023-05-02 13:08:04.386,46.0899223,11.1155339,-7.73,129.32,-10.77,null
SMAR,2023-05-02 13:08:04.423,46.0899223,11.1155339,-7.44,130.22,-10.7,null
STON,2023-05-02 13:08:04.423,46.08991853,11.115530286666667,-7.611985,-33.893307,-11.91426,2
SMAR,2023-05-02 13:08:04.456,46.0899223,11.1155339,-7.13,131.33,-10.64,null
SMAR,2023-05-02 13:08:04.489,46.0899223,11.1155339,-6.91,132.04,-10.54,null
SMAR,2023-05-02 13:08:04.523,46.0899223,11.1155339,-6.83,132.06,-10.39,null
SMAR,2023-05-02 13:08:04.552,46.0899328,11.1155309,-6.89,131.46,-10.17,null
STON,2023-05-02 13:08:04.552,46.089919161666664,11.11552776,-7.611985,-33.893307,-11.91426,2
SMAR,2023-05-02 13:08:04.587,46.0899328,11.1155309,-6.98,130.66,-9.89,null
SMAR,2023-05-02 13:08:04.617,46.0899328,11.1155309,-7.02,130.02,-9.59,null
SMAR,2023-05-02 13:08:04.651,46.0899328,11.1155309,-6.96,129.71,-9.25,null
STON,2023-05-02 13:08:04.651,46.089919161666664,11.11552776,-6.552063,-31.483809,-11.176877,2
SMAR,2023-05-02 13:08:04.685,46.0899328,11.1155309,-6.8,129.86,-8.92,null
SMAR,2023-05-02 13:08:04.724,46.0899328,11.1155309,-6.59,130.27,-8.57,null
STON,2023-05-02 13:08:04.724,46.08991977,11.115525305,-6.552063,-31.483809,-11.176877,2
SMAR,2023-05-02 13:08:04.751,46.0899328,11.1155309,-6.36,130.59,-8.15,null
SMAR,2023-05-02 13:08:04.79,46.0899328,11.1155309,-6.16,130.7,-7.71,null
SMAR,2023-05-02 13:08:04.818,46.0899328,11.1155309,-5.97,130.58,-7.21,null
STON,2023-05-02 13:08:04.818,46.08991977,11.115525305,-6.263553,-33.321606,-9.273,2
SMAR,2023-05-02 13:08:04.852,46.0899328,11.1155309,-5.81,130.53,-6.71,null
SMAR,2023-05-02 13:08:04.894,46.0899328,11.1155309,-5.58,130.75,-6.24,null
SMAR,2023-05-02 13:08:04.918,46.0899328,11.1155309,-5.38,130.87,-5.75,null
STON,2023-05-02 13:08:04.918,46.08992049166667,11.115522605,-6.263553,-33.321606,-9.273,2
SMAR,2023-05-02 13:08:04.951,46.0899328,11.1155309,-5.25,130.54,-5.26,null
SMAR,2023-05-02 13:08:04.985,46.0899328,11.1155309,-5.11,129.9,-4.76,null
STON,2023-05-02 13:08:04.985,46.08992049166667,11.115522605,-5.080674,-33.349159,-6.414497,2
SMAR,2023-05-02 13:08:05.017,46.0899328,11.1155309,-4.98,129.37,-4.31,null
SMAR,2023-05-02 13:08:05.057,46.0899328,11.1155309,-4.81,129.47,-3.9,null
SMAR,2023-05-02 13:08:05.09,46.0899328,11.1155309,-4.64,130.1,-3.61,null
SMAR,2023-05-02 13:08:05.12,46.0899328,11.1155309,-4.52,130.71,-3.35,null
STON,2023-05-02 13:08:05.12,46.08992115833333,11.115519946666666,-5.080674,-33.349159,-6.414497,2
SMAR,2023-05-02 13:08:05.154,46.0899328,11.1155309,-4.49,131.12,-3.12,null
SMAR,2023-05-02 13:08:05.191,46.0899328,11.1155309,-4.51,131.21,-2.93,null
STON,2023-05-02 13:08:05.191,46.08992115833333,11.115519946666666,-4.246295,-33.589855,-4.099019,2
SMAR,2023-05-02 13:08:05.219,46.0899328,11.1155309,-4.59,130.78,-2.75,null
SMAR,2023-05-02 13:08:05.254,46.0899328,11.1155309,-4.67,129.79,-2.54,null
SMAR,2023-05-02 13:08:05.296,46.0899328,11.1155309,-4.75,128.8,-2.33,null
SMAR,2023-05-02 13:08:05.328,46.0899328,11.1155309,-4.76,128.3,-2.16,null
STON,2023-05-02 13:08:05.328,46.089921705,11.115517228333333,-4.246295,-33.589855,-4.099019,2
SMAR,2023-05-02 13:08:05.358,46.0899328,11.1155309,-4.71,128.46,-2.04,null
SMAR,2023-05-02 13:08:05.394,46.0899328,11.1155309,-4.62,129.08,-1.95,null
SMAR,2023-05-02 13:08:05.421,46.0899328,11.1155309,-4.49,129.85,-1.89,null
SMAR,2023-05-02 13:08:05.458,46.0899328,11.1155309,-4.31,130.69,-1.86,null
STON,2023-05-02 13:08:05.458,46.089921705,11.115517228333333,-4.494347,-36.19841,-2.931582,2
SMAR,2023-05-02 13:08:05.491,46.0899328,11.1155309,-4.11,131.65,-1.85,null
SMAR,2023-05-02 13:08:05.521,46.0899328,11.1155309,-3.89,132.56,-1.85,null
SMAR,2023-05-02 13:08:05.559,46.0899328,11.1155309,-3.71,133.19,-1.84,null
SMAR,2023-05-02 13:08:05.592,46.0899411,11.1155269,-3.54,133.64,-1.86,null
SMAR,2023-05-02 13:08:05.619,46.0899411,11.1155269,-3.39,134.18,-1.89,null
SMAR,2023-05-02 13:08:05.657,46.0899411,11.1155269,-3.28,135.06,-1.97,null
STON,2023-05-02 13:08:05.657,46.089922103333336,11.115514476666666,-4.494347,-36.19841,-2.931582,2
STON,2023-05-02 13:08:05.657,46.089922103333336,11.115514476666666,-3.598698,-31.769093,-2.675999,2
SMAR,2023-05-02 13:08:05.687,46.0899411,11.1155269,-3.15,136.21,-2.07,null
SMAR,2023-05-02 13:08:05.719,46.0899411,11.1155269,-3.06,137.3,-2.2,null
SMAR,2023-05-02 13:08:05.752,46.0899411,11.1155269,-3.01,138.16,-2.3,null
SMAR,2023-05-02 13:08:05.784,46.0899411,11.1155269,-2.98,138.72,-2.45,null
STON,2023-05-02 13:08:05.784,46.089922465,11.115511786666668,-3.598698,-31.769093,-2.675999,2
STON,2023-05-02 13:08:05.784,46.089922465,11.115511786666668,-2.794794,-27.04459,-3.077881,2
SMAR,2023-05-02 13:08:05.821,46.0899411,11.1155269,-2.99,138.82,-2.57,null
SMAR,2023-05-02 13:08:05.853,46.0899411,11.1155269,-3.02,138.5,-2.7,null
SMAR,2023-05-02 13:08:05.886,46.0899411,11.1155269,-3.05,138.13,-2.78,null
SMAR,2023-05-02 13:08:05.927,46.0899411,11.1155269,-3.05,138.13,-2.83,null
SMAR,2023-05-02 13:08:05.957,46.0899411,11.1155269,-2.97,138.66,-2.87,null
SMAR,2023-05-02 13:08:05.989,46.0899411,11.1155269,-2.9,139.39,-2.86,null
SMAR,2023-05-02 13:08:06.026,46.0899411,11.1155269,-2.85,139.79,-2.81,null
STON,2023-05-02 13:08:06.026,46.089922905,11.11550922,-2.794794,-27.04459,-3.077881,2
SMAR,2023-05-02 13:08:06.053,46.0899411,11.1155269,-2.85,139.74,-2.7,null
STON,2023-05-02 13:08:06.053,46.089922905,11.11550922,-2.774801,-26.274208,-3.705316,2
SMAR,2023-05-02 13:08:06.086,46.0899411,11.1155269,-2.9,139.4,-2.58,null
SMAR,2023-05-02 13:08:06.116,46.0899411,11.1155269,-2.98,139.06,-2.47,null
STON,2023-05-02 13:08:06.116,46.08992357166667,11.115506306666667,-2.774801,-26.274208,-3.705316,2
SMAR,2023-05-02 13:08:06.151,46.0899411,11.1155269,-3.1,138.51,-2.35,null
SMAR,2023-05-02 13:08:06.192,46.0899411,11.1155269,-3.24,137.63,-2.23,null
SMAR,2023-05-02 13:08:06.22,46.0899411,11.1155269,-3.34,136.95,-2.07,null
SMAR,2023-05-02 13:08:06.255,46.0899411,11.1155269,-3.43,137.17,-1.94,null
STON,2023-05-02 13:08:06.255,46.08992357166667,11.115506306666667,-2.74697,-25.531752,-3.323862,2
SMAR,2023-05-02 13:08:06.287,46.0899411,11.1155269,-3.45,138.58,-1.81,null
SMAR,2023-05-02 13:08:06.318,46.0899411,11.1155269,-3.51,140.3,-1.71,null
SMAR,2023-05-02 13:08:06.351,46.0899411,11.1155269,-3.64,141.29,-1.5,null
SMAR,2023-05-02 13:08:06.384,46.0899411,11.1155269,-3.89,141.56,-1.31,null
STON,2023-05-02 13:08:06.384,46.089924511666666,11.115503446666667,-2.74697,-25.531752,-3.323862,2
SMAR,2023-05-02 13:08:06.419,46.0899411,11.1155269,-4.16,141.39,-1.08,null
SMAR,2023-05-02 13:08:06.458,46.0899411,11.1155269,-4.46,140.8,-0.83,null
SMAR,2023-05-02 13:08:06.49,46.0899411,11.1155269,-4.75,139.89,-0.56,null
SMAR,2023-05-02 13:08:06.52,46.0899411,11.1155269,-5.02,139.0,-0.32,null
SMAR,2023-05-02 13:08:06.554,46.0899411,11.1155269,-5.21,138.33,-0.11,null
SMAR,2023-05-02 13:08:06.588,46.0899454,11.1155246,-5.35,137.96,0.04,null
SMAR,2023-05-02 13:08:06.624,46.0899454,11.1155246,-5.4,137.94,0.14,null
SMAR,2023-05-02 13:08:06.654,46.0899454,11.1155246,-5.38,138.46,0.17,null
SMAR,2023-05-02 13:08:06.691,46.0899454,11.1155246,-5.29,139.72,0.12,null
SMAR,2023-05-02 13:08:06.726,46.0899454,11.1155246,-5.18,141.52,-0.01,null
SMAR,2023-05-02 13:08:06.753,46.0899454,11.1155246,-5.06,143.42,-0.17,null
SMAR,2023-05-02 13:08:06.792,46.0899454,11.1155246,-4.97,145.21,-0.4,null
SMAR,2023-05-02 13:08:06.821,46.0899454,11.1155246,-4.9,146.85,-0.64,null
SMAR,2023-05-02 13:08:06.861,46.0899454,11.1155246,-4.88,148.62,-0.93,null
STON,2023-05-02 13:08:06.861,46.089924511666666,11.115503446666667,-3.268765,-23.970987,-2.556962,2
SMAR,2023-05-02 13:08:06.895,46.0899454,11.1155246,-4.85,150.52,-1.24,null
SMAR,2023-05-02 13:08:06.927,46.0899454,11.1155246,-4.87,152.28,-1.56,null
STON,2023-05-02 13:08:06.927,46.089925523333335,11.115500706666667,-3.268765,-23.970987,-2.556962,2
STON,2023-05-02 13:08:06.927,46.089925523333335,11.115500706666667,-4.806319,-25.684414,-1.173739,2
SMAR,2023-05-02 13:08:06.955,46.0899454,11.1155246,-4.94,153.72,-1.89,null
SMAR,2023-05-02 13:08:06.988,46.0899454,11.1155246,-5.08,154.76,-2.25,null
STON,2023-05-02 13:08:06.988,46.08992647,11.115498276666667,-4.806319,-25.684414,-1.173739,2
SMAR,2023-05-02 13:08:07.024,46.0899454,11.1155246,-5.28,155.49,-2.61,null
SMAR,2023-05-02 13:08:07.062,46.0899454,11.1155246,-5.5,155.98,-2.96,null
SMAR,2023-05-02 13:08:07.094,46.0899454,11.1155246,-5.74,156.33,-3.27,null
STON,2023-05-02 13:08:07.094,46.08992647,11.115498276666667,-4.942121,-22.758789,-0.939803,2
STON,2023-05-02 13:08:07.094,46.08992735166667,11.1154961,-4.942121,-22.758789,-0.939803,2
STON,2023-05-02 13:08:07.094,46.08992735166667,11.1154961,-4.663525,-11.919329,-2.58632,2
SMAR,2023-05-02 13:08:07.127,46.0899454,11.1155246,-5.95,156.73,-3.55,null
SMAR,2023-05-02 13:08:07.165,46.0899454,11.1155246,-6.14,157.17,-3.81,null
STON,2023-05-02 13:08:07.165,46.08992841333333,11.115494026666667,-4.663525,-11.919329,-2.58632,2
SMAR,2023-05-02 13:08:07.194,46.0899454,11.1155246,-6.28,157.59,-4.02,null
SMAR,2023-05-02 13:08:07.231,46.0899454,11.1155246,-6.42,157.84,-4.19,null
SMAR,2023-05-02 13:08:07.266,46.0899454,11.1155246,-6.58,157.81,-4.29,null
STON,2023-05-02 13:08:07.266,46.08992841333333,11.115494026666667,-5.765411,-7.388126,-4.58324,2
SMAR,2023-05-02 13:08:07.297,46.0899454,11.1155246,-6.72,157.83,-4.42,null
SMAR,2023-05-02 13:08:07.33,46.0899454,11.1155246,-6.82,157.95,-4.56,null
SMAR,2023-05-02 13:08:07.367,46.0899454,11.1155246,-7.0,157.77,-4.7,null
STON,2023-05-02 13:08:07.367,46.089929758333334,11.115491801666666,-5.765411,-7.388126,-4.58324,2
SMAR,2023-05-02 13:08:07.401,46.0899454,11.1155246,-7.13,157.23,-4.76,null
SMAR,2023-05-02 13:08:07.428,46.0899454,11.1155246,-7.26,156.63,-4.82,null
SMAR,2023-05-02 13:08:07.466,46.0899454,11.1155246,-7.31,156.63,-4.91,null
SMAR,2023-05-02 13:08:07.5,46.0899454,11.1155246,-7.31,157.21,-5.1,null
STON,2023-05-02 13:08:07.5,46.089929758333334,11.115491801666666,-6.617034,-6.055735,-5.61586,2
SMAR,2023-05-02 13:08:07.538,46.0899454,11.1155246,-7.32,157.72,-5.26,null
SMAR,2023-05-02 13:08:07.57,46.0899454,11.1155246,-7.37,158.11,-5.39,null
SMAR,2023-05-02 13:08:07.599,46.089957,11.1155181,-7.43,158.44,-5.52,null
SMAR,2023-05-02 13:08:07.628,46.089957,11.1155181,-7.53,158.53,-5.62,null
STON,2023-05-02 13:08:07.628,46.08993124333333,11.115489478333334,-6.617034,-6.055735,-5.61586,2
STON,2023-05-02 13:08:07.628,46.08993124333333,11.115489478333334,-7.080226,-6.132036,-6.322531,2
SMAR,2023-05-02 13:08:07.659,46.089957,11.1155181,-7.65,158.25,-5.62,null
SMAR,2023-05-02 13:08:07.691,46.089957,11.1155181,-7.78,157.9,-5.63,null
SMAR,2023-05-02 13:08:07.729,46.089957,11.1155181,-7.85,157.87,-5.67,null
STON,2023-05-02 13:08:07.729,46.089932616666665,11.115487261666667,-7.080226,-6.132036,-6.322531,2
SMAR,2023-05-02 13:08:07.758,46.089957,11.1155181,-7.86,158.12,-5.77,null
SMAR,2023-05-02 13:08:07.795,46.089957,11.1155181,-7.9,158.31,-5.87,null
SMAR,2023-05-02 13:08:07.834,46.089957,11.1155181,-7.98,158.21,-5.94,null
SMAR,2023-05-02 13:08:07.86,46.089957,11.1155181,-8.08,158.04,-5.98,null
STON,2023-05-02 13:08:07.86,46.089932616666665,11.115487261666667,-7.602345,-5.902061,-6.75551,2
SMAR,2023-05-02 13:08:07.9,46.089957,11.1155181,-8.17,158.14,-6.05,null
SMAR,2023-05-02 13:08:07.939,46.089957,11.1155181,-8.26,158.53,-6.14,null
SMAR,2023-05-02 13:08:07.971,46.089957,11.1155181,-8.41,158.89,-6.23,null
STON,2023-05-02 13:08:07.971,46.08993392833333,11.115484993333334,-7.602345,-5.902061,-6.75551,2
SMAR,2023-05-02 13:08:07.998,46.089957,11.1155181,-8.63,159.12,-6.32,null
SMAR,2023-05-02 13:08:08.036,46.089957,11.1155181,-8.9,159.51,-6.45,null
SMAR,2023-05-02 13:08:08.07,46.089957,11.1155181,-9.17,160.24,-6.67,null
STON,2023-05-02 13:08:08.07,46.08993392833333,11.115484993333334,-8.050698,-5.132854,-7.242381,2
SMAR,2023-05-02 13:08:08.099,46.089957,11.1155181,-9.44,160.99,-6.88,null
SMAR,2023-05-02 13:08:08.135,46.089957,11.1155181,-9.75,161.45,-7.05,null
SMAR,2023-05-02 13:08:08.171,46.089957,11.1155181,-10.08,161.69,-7.2,null
SMAR,2023-05-02 13:08:08.2,46.089957,11.1155181,-10.4,161.98,-7.31,null
STON,2023-05-02 13:08:08.2,46.08993537166667,11.115482863333334,-8.050698,-5.132854,-7.242381,2
SMAR,2023-05-02 13:08:08.25,46.089957,11.1155181,-10.64,162.59,-7.45,null
SMAR,2023-05-02 13:08:08.269,46.089957,11.1155181,-10.81,163.42,-7.58,null
STON,2023-05-02 13:08:08.269,46.08993537166667,11.115482863333334,-9.520849,-1.905362,-8.182418,2
SMAR,2023-05-02 13:08:08.317,46.089957,11.1155181,-10.91,164.27,-7.69,null
SMAR,2023-05-02 13:08:08.339,46.089957,11.1155181,-10.95,165.2,-7.73,null
SMAR,2023-05-02 13:08:08.368,46.089957,11.1155181,-10.93,166.2,-7.74,null
STON,2023-05-02 13:08:08.368,46.08993690166667,11.115481306666666,-9.520849,-1.905362,-8.182418,2
SMAR,2023-05-02 13:08:08.405,46.089957,11.1155181,-10.84,167.21,-7.74,null
SMAR,2023-05-02 13:08:08.437,46.089957,11.1155181,-10.79,168.05,-7.72,null
SMAR,2023-05-02 13:08:08.469,46.089957,11.1155181,-10.77,168.52,-7.67,null
STON,2023-05-02 13:08:08.469,46.08993690166667,11.115481306666666,-10.682484,2.204242,-8.843143,2
SMAR,2023-05-02 13:08:08.503,46.089957,11.1155181,-10.77,168.76,-7.61,null
SMAR,2023-05-02 13:08:08.533,46.089957,11.1155181,-10.72,168.99,-7.55,null
SMAR,2023-05-02 13:08:08.564,46.089957,11.1155181,-10.68,168.94,-7.44,null
SMAR,2023-05-02 13:08:08.59,46.0899612,11.1155158,-10.64,168.58,-7.3,null
SMAR,2023-05-02 13:08:08.631,46.0899612,11.1155158,-10.51,168.56,-7.22,null
STON,2023-05-02 13:08:08.631,46.089938673333336,11.11547978,-10.682484,2.204242,-8.843143,2
STON,2023-05-02 13:08:08.631,46.089938673333336,11.11547978,-10.49262,5.850306,-8.661892,2
SMAR,2023-05-02 13:08:08.66,46.0899612,11.1155158,-10.29,169.43,-7.33,null
SMAR,2023-05-02 13:08:08.695,46.0899612,11.1155158,-9.95,170.96,-7.54,null
SMAR,2023-05-02 13:08:08.726,46.0899612,11.1155158,-9.71,172.31,-7.75,null
SMAR,2023-05-02 13:08:08.758,46.0899612,11.1155158,-9.61,173.0,-7.81,null
SMAR,2023-05-02 13:08:08.799,46.0899612,11.1155158,-9.61,173.29,-7.9,null
SMAR,2023-05-02 13:08:08.839,46.0899612,11.1155158,-9.61,173.51,-8.0,null
STON,2023-05-02 13:08:08.839,46.08994059,11.115478281666666,-10.49262,5.850306,-8.661892,2
SMAR,2023-05-02 13:08:08.876,46.0899612,11.1155158,-9.62,173.49,-8.09,null
STON,2023-05-02 13:08:08.876,46.08994059,11.115478281666666,-9.444737,9.072484,-8.889627,2
SMAR,2023-05-02 13:08:08.903,46.0899612,11.1155158,-9.67,173.17,-8.14,null
SMAR,2023-05-02 13:08:08.936,46.0899612,11.1155158,-9.67,172.87,-8.22,null
SMAR,2023-05-02 13:08:08.973,46.0899612,11.1155158,-9.57,172.81,-8.4,null
SMAR,2023-05-02 13:08:09.0,46.0899612,11.1155158,-9.41,173.18,-8.65,null
STON,2023-05-02 13:08:09.0,46.08994235666667,11.115476656666667,-9.444737,9.072484,-8.889627,2
SMAR,2023-05-02 13:08:09.027,46.0899612,11.1155158,-9.16,173.87,-8.97,null
SMAR,2023-05-02 13:08:09.065,46.0899612,11.1155158,-8.85,174.76,-9.34,null
SMAR,2023-05-02 13:08:09.105,46.0899612,11.1155158,-8.5,175.9,-9.71,null
SMAR,2023-05-02 13:08:09.143,46.0899612,11.1155158,-8.14,177.18,-10.07,null
SMAR,2023-05-02 13:08:09.176,46.0899612,11.1155158,-7.88,178.06,-10.43,null
STON,2023-05-02 13:08:09.176,46.089944196666664,11.115474828333333,-9.444737,9.072484,-8.889627,2
SMAR,2023-05-02 13:08:09.222,46.0899612,11.1155158,-7.81,178.39,-10.73,null
SMAR,2023-05-02 13:08:09.253,46.0899612,11.1155158,-7.82,178.57,-11.06,null
STON,2023-05-02 13:08:09.253,46.089944196666664,11.115474828333333,-7.881725,14.116064,-11.216744,2
SMAR,2023-05-02 13:08:09.266,46.0899612,11.1155158,-7.83,179.02,-11.47,null
SMAR,2023-05-02 13:08:09.304,46.0899612,11.1155158,-7.81,179.8,-11.91,null
SMAR,2023-05-02 13:08:09.334,46.0899612,11.1155158,-7.84,-179.54,-12.39,null
SMAR,2023-05-02 13:08:09.365,46.0899612,11.1155158,-8.01,-179.26,-12.85,null
STON,2023-05-02 13:08:09.365,46.08994609166667,11.115473033333334,-7.881725,14.116064,-11.216744,2
SMAR,2023-05-02 13:08:09.399,46.0899612,11.1155158,-8.32,-179.49,-13.27,null
SMAR,2023-05-02 13:08:09.434,46.0899612,11.1155158,-8.73,179.84,-13.57,null
STON,2023-05-02 13:08:09.434,46.08994609166667,11.115473033333334,-7.538297,17.630514,-13.571759,2
SMAR,2023-05-02 13:08:09.464,46.0899612,11.1155158,-9.16,179.05,-13.82,null
SMAR,2023-05-02 13:08:09.506,46.0899612,11.1155158,-9.46,178.55,-14.0,null
SMAR,2023-05-02 13:08:09.543,46.0899612,11.1155158,-9.6,178.39,-14.13,null
SMAR,2023-05-02 13:08:09.568,46.0899612,11.1155158,-9.54,178.6,-14.25,null
SMAR,2023-05-02 13:08:09.598,46.0899612,11.1155158,-9.39,178.91,-14.35,null
SMAR,2023-05-02 13:08:09.628,46.0899686,11.1155118,-9.27,178.82,-14.39,null
SMAR,2023-05-02 13:08:09.661,46.0899686,11.1155118,-9.16,178.41,-14.4,null
STON,2023-05-02 13:08:09.661,46.08994801,11.11547156,-7.538297,17.630514,-13.571759,2
STON,2023-05-02 13:08:09.661,46.08994801,11.11547156,-9.163131,16.26133,-15.339815,2
SMAR,2023-05-02 13:08:09.703,46.0899686,11.1155118,-8.98,178.06,-14.45,null
SMAR,2023-05-02 13:08:09.739,46.0899686,11.1155118,-8.55,178.41,-14.6,null
SMAR,2023-05-02 13:08:09.768,46.0899686,11.1155118,-7.99,179.09,-14.79,null
STON,2023-05-02 13:08:09.768,46.089949911666665,11.11547009,-9.163131,16.26133,-15.339815,2
SMAR,2023-05-02 13:08:09.794,46.0899686,11.1155118,-7.56,179.28,-14.88,null
SMAR,2023-05-02 13:08:09.833,46.0899686,11.1155118,-7.28,178.79,-14.89,null
SMAR,2023-05-02 13:08:09.87,46.0899686,11.1155118,-7.14,177.95,-14.86,null
STON,2023-05-02 13:08:09.87,46.089949911666665,11.11547009,-8.182413,16.030472,-15.767243,2
SMAR,2023-05-02 13:08:09.904,46.0899686,11.1155118,-6.98,177.23,-14.84,null
SMAR,2023-05-02 13:08:09.936,46.0899686,11.1155118,-6.82,176.65,-14.85,null
STON,2023-05-02 13:08:09.936,46.08995190833333,11.115468528333333,-8.182413,16.030472,-15.767243,2
SMAR,2023-05-02 13:08:09.971,46.0899686,11.1155118,-6.69,176.17,-14.87,null
SMAR,2023-05-02 13:08:10.003,46.0899686,11.1155118,-6.57,175.81,-14.9,null
SMAR,2023-05-02 13:08:10.038,46.0899686,11.1155118,-6.59,175.09,-14.89,null
STON,2023-05-02 13:08:10.038,46.08995190833333,11.115468528333333,-6.484277,13.872022,-15.996239,2
SMAR,2023-05-02 13:08:10.063,46.0899686,11.1155118,-6.87,173.5,-14.76,null
SMAR,2023-05-02 13:08:10.099,46.0899686,11.1155118,-7.31,171.27,-14.53,null
SMAR,2023-05-02 13:08:10.135,46.0899686,11.1155118,-7.69,169.05,-14.25,null
SMAR,2023-05-02 13:08:10.178,46.0899686,11.1155118,-7.82,167.55,-14.06,null
SMAR,2023-05-02 13:08:10.207,46.0899686,11.1155118,-7.67,166.89,-13.91,null
STON,2023-05-02 13:08:10.207,46.089953773333335,11.115466783333334,-6.484277,13.872022,-15.996239,2
SMAR,2023-05-02 13:08:10.25,46.0899686,11.1155118,-7.22,167.14,-13.84,null
STON,2023-05-02 13:08:10.25,46.089953773333335,11.115466783333334,-7.281449,6.598433,-15.403008,2
SMAR,2023-05-02 13:08:10.272,46.0899686,11.1155118,-6.5,168.23,-13.81,null
SMAR,2023-05-02 13:08:10.308,46.0899686,11.1155118,-5.62,169.99,-13.79,null
SMAR,2023-05-02 13:08:10.338,46.0899686,11.1155118,-4.73,171.87,-13.72,null
SMAR,2023-05-02 13:08:10.373,46.0899686,11.1155118,-4.08,173.04,-13.58,null
STON,2023-05-02 13:08:10.373,46.08995568,11.115465265,-7.281449,6.598433,-15.403008,2
SMAR,2023-05-02 13:08:10.403,46.0899686,11.1155118,-3.73,173.2,-13.36,null
SMAR,2023-05-02 13:08:10.442,46.0899686,11.1155118,-3.59,172.88,-13.14,null
STON,2023-05-02 13:08:10.442,46.08995568,11.115465265,-4.560403,8.248834,-14.774844,2
SMAR,2023-05-02 13:08:10.477,46.0899686,11.1155118,-3.49,172.68,-12.94,null
SMAR,2023-05-02 13:08:10.528,46.0899686,11.1155118,-3.36,172.94,-12.79,null
SMAR,2023-05-02 13:08:10.553,46.0899686,11.1155118,-3.23,173.53,-12.69,null
SMAR,2023-05-02 13:08:10.575,46.0899686,11.1155118,-3.14,174.2,-12.61,null
SMAR,2023-05-02 13:08:10.609,46.0899798,11.1155054,-3.14,174.73,-12.56,null
