Input,Time,Latitude,Longitude,Pitch,Yaw,Roll,Stonex_status
SMAR,2023-05-02 16:50:07.186,46.0898,11.115505,-2.66,-41.68,1.65,null
STON,2023-05-02 16:50:07.186,46.089815396666665,11.115563346666667,-2.394336,-111.863098,-0.419321,2
STON,2023-05-02 16:50:07.186,46.089815396666665,11.115563346666667,-2.373485,-111.902199,-0.461676,2
SMAR,2023-05-02 16:50:07.23,46.0898,11.115505,-2.65,-41.66,1.65,null
SMAR,2023-05-02 16:50:07.254,46.0898,11.115505,-2.65,-41.66,1.65,null
SMAR,2023-05-02 16:50:07.299,46.0898,11.115505,-2.65,-41.68,1.66,null
SMAR,2023-05-02 16:50:07.328,46.0898,11.115505,-2.63,-41.71,1.67,null
SMAR,2023-05-02 16:50:07.351,46.0898,11.115505,-2.64,-41.74,1.67,null
STON,2023-05-02 16:50:07.351,46.089815405,11.11556336,-2.373485,-111.902199,-0.461676,2
SMAR,2023-05-02 16:50:07.388,46.0898,11.115505,-2.64,-41.73,1.67,null
SMAR,2023-05-02 16:50:07.417,46.0898,11.115505,-2.63,-41.68,1.67,null
SMAR,2023-05-02 16:50:07.448,46.0898,11.115505,-2.63,-41.65,1.66,null
STON,2023-05-02 16:50:07.448,46.089815405,11.11556336,-2.343211,-111.906616,-0.447938,2
SMAR,2023-05-02 16:50:07.48,46.0898,11.115505,-2.65,-41.68,1.66,null
SMAR,2023-05-02 16:50:07.514,46.0898,11.115505,-2.65,-41.73,1.67,null
SMAR,2023-05-02 16:50:07.553,46.0898,11.115505,-2.66,-41.71,1.68,null
SMAR,2023-05-02 16:50:07.579,46.0898,11.115505,-2.67,-41.67,1.67,null
STON,2023-05-02 16:50:07.579,46.089815388333335,11.11556334,-2.343211,-111.906616,-0.447938,2
STON,2023-05-02 16:50:07.579,46.089815388333335,11.11556334,-2.363354,-111.923805,-0.453803,2
SMAR,2023-05-02 16:50:07.613,46.0898,11.115505,-2.69,-41.62,1.66,null
SMAR,2023-05-02 16:50:07.646,46.0898,11.115505,-2.69,-41.6,1.65,null
SMAR,2023-05-02 16:50:07.677,46.0898,11.115505,-2.69,-41.59,1.64,null
SMAR,2023-05-02 16:50:07.711,46.0898,11.115505,-2.69,-41.59,1.64,null
SMAR,2023-05-02 16:50:07.742,46.0898,11.115505,-2.68,-41.59,1.62,null
STON,2023-05-02 16:50:07.742,46.08981535833333,11.115563326666667,-2.363354,-111.923805,-0.453803,2
SMAR,2023-05-02 16:50:07.778,46.0898,11.115505,-2.67,-41.59,1.61,null
STON,2023-05-02 16:50:07.778,46.08981535833333,11.115563326666667,-2.396116,-111.802361,-0.498404,2
SMAR,2023-05-02 16:50:07.812,46.0898,11.115505,-2.64,-41.63,1.59,null
SMAR,2023-05-02 16:50:07.848,46.0898,11.115505,-2.62,-41.7,1.59,null
SMAR,2023-05-02 16:50:07.889,46.0898,11.115505,-2.61,-41.74,1.57,null
SMAR,2023-05-02 16:50:07.925,46.0898,11.115505,-2.58,-41.74,1.55,null
SMAR,2023-05-02 16:50:07.953,46.0898,11.115505,-2.57,-41.71,1.54,null
STON,2023-05-02 16:50:07.953,46.08981536,11.11556338,-2.396116,-111.802361,-0.498404,2
SMAR,2023-05-02 16:50:07.991,46.0898,11.115505,-2.55,-41.73,1.54,null
SMAR,2023-05-02 16:50:08.022,46.0898,11.115505,-2.53,-41.79,1.53,null
STON,2023-05-02 16:50:08.022,46.08981536,11.11556338,-2.291511,-111.940407,-0.581343,2
SMAR,2023-05-02 16:50:08.055,46.0898,11.115505,-2.52,-41.93,1.53,null
SMAR,2023-05-02 16:50:08.083,46.0898,11.115505,-2.53,-42.13,1.54,null
SMAR,2023-05-02 16:50:08.115,46.0898,11.115505,-2.56,-42.3,1.56,null
SMAR,2023-05-02 16:50:08.145,46.0898,11.115505,-2.58,-42.34,1.59,null
SMAR,2023-05-02 16:50:08.177,46.0898,11.115505,-2.61,-42.21,1.61,null
SMAR,2023-05-02 16:50:08.208,46.0898,11.115505,-2.63,-41.93,1.63,null
STON,2023-05-02 16:50:08.208,46.08981533666667,11.115563371666667,-2.291511,-111.940407,-0.581343,2
SMAR,2023-05-02 16:50:08.243,46.0898,11.115505,-2.63,-41.58,1.65,null
SMAR,2023-05-02 16:50:08.278,46.0898,11.115505,-2.63,-41.33,1.67,null
SMAR,2023-05-02 16:50:08.31,46.0898,11.115505,-2.65,-41.21,1.69,null
STON,2023-05-02 16:50:08.31,46.08981533666667,11.115563371666667,-2.280303,-112.570724,-0.574073,2
SMAR,2023-05-02 16:50:08.346,46.0898,11.115505,-2.66,-41.18,1.71,null
STON,2023-05-02 16:50:08.346,46.089815395,11.115563346666667,-2.280303,-112.570724,-0.574073,2
SMAR,2023-05-02 16:50:08.377,46.0898,11.115505,-2.66,-41.21,1.75,null
SMAR,2023-05-02 16:50:08.407,46.0898,11.115505,-2.67,-41.26,1.79,null
SMAR,2023-05-02 16:50:08.443,46.0898,11.115505,-2.69,-41.29,1.83,null
SMAR,2023-05-02 16:50:08.479,46.0898,11.115505,-2.7,-41.25,1.87,null
STON,2023-05-02 16:50:08.479,46.089815395,11.115563346666667,-2.371751,-111.451317,-0.460114,2
SMAR,2023-05-02 16:50:08.53,46.0898,11.115505,-2.71,-41.12,1.9,null
SMAR,2023-05-02 16:50:08.546,46.0898,11.115505,-2.72,-40.94,1.91,null
SMAR,2023-05-02 16:50:08.578,46.0898,11.115505,-2.72,-40.76,1.9,null
SMAR,2023-05-02 16:50:08.609,46.0898,11.115505,-2.71,-40.6,1.89,null
STON,2023-05-02 16:50:08.609,46.08981543666667,11.115563296666666,-2.371751,-111.451317,-0.460114,2
SMAR,2023-05-02 16:50:08.651,46.0898,11.115505,-2.69,-40.51,1.87,null
SMAR,2023-05-02 16:50:08.679,46.0898,11.115505,-2.68,-40.48,1.85,null
SMAR,2023-05-02 16:50:08.714,46.0898,11.115505,-2.65,-40.48,1.84,null
SMAR,2023-05-02 16:50:08.747,46.0898,11.115505,-2.61,-40.52,1.81,null
STON,2023-05-02 16:50:08.747,46.08981542,11.115563333333334,-2.371751,-111.451317,-0.460114,2
SMAR,2023-05-02 16:50:08.779,46.0898,11.115505,-2.59,-40.58,1.79,null
SMAR,2023-05-02 16:50:08.81,46.0898,11.115505,-2.55,-40.66,1.77,null
STON,2023-05-02 16:50:08.81,46.08981542,11.115563333333334,-2.342147,-110.782761,-0.334352,2
SMAR,2023-05-02 16:50:08.844,46.0898,11.115505,-2.51,-40.76,1.75,null
SMAR,2023-05-02 16:50:08.877,46.0898,11.115505,-2.51,-40.83,1.74,null
SMAR,2023-05-02 16:50:08.914,46.0898,11.115505,-2.5,-40.81,1.71,null
SMAR,2023-05-02 16:50:08.946,46.0898,11.115505,-2.48,-40.68,1.7,null
STON,2023-05-02 16:50:08.946,46.08981540166667,11.115563398333334,-2.342147,-110.782761,-0.334352,2
SMAR,2023-05-02 16:50:08.977,46.0898,11.115505,-2.46,-40.56,1.68,null
SMAR,2023-05-02 16:50:09.011,46.0898,11.115505,-2.44,-40.51,1.66,null
SMAR,2023-05-02 16:50:09.047,46.0898,11.115505,-2.43,-40.57,1.65,null
STON,2023-05-02 16:50:09.047,46.08981540166667,11.115563398333334,-2.196556,-111.071747,-0.450365,2
SMAR,2023-05-02 16:50:09.103,46.0898,11.115505,-2.42,-40.66,1.64,null
SMAR,2023-05-02 16:50:09.121,46.0898,11.115505,-2.4,-40.75,1.62,null
SMAR,2023-05-02 16:50:09.153,46.0898,11.115505,-2.39,-40.83,1.6,null
STON,2023-05-02 16:50:09.153,46.089815378333334,11.115563451666667,-2.196556,-111.071747,-0.450365,2
SMAR,2023-05-02 16:50:09.185,46.0898,11.115505,-2.4,-40.87,1.59,null
SMAR,2023-05-02 16:50:09.213,46.0898,11.115505,-2.4,-40.83,1.56,null
SMAR,2023-05-02 16:50:09.247,46.0898,11.115505,-2.4,-40.71,1.54,null
STON,2023-05-02 16:50:09.247,46.089815378333334,11.115563451666667,-2.108373,-111.102158,-0.551684,2
SMAR,2023-05-02 16:50:09.282,46.0898,11.115505,-2.39,-40.56,1.52,null
SMAR,2023-05-02 16:50:09.311,46.0898,11.115505,-2.39,-40.45,1.49,null
SMAR,2023-05-02 16:50:09.351,46.0898,11.115505,-2.39,-40.4,1.45,null
SMAR,2023-05-02 16:50:09.383,46.0898,11.115505,-2.38,-40.35,1.42,null
STON,2023-05-02 16:50:09.383,46.08981537333333,11.11556347,-2.108373,-111.102158,-0.551684,2
SMAR,2023-05-02 16:50:09.417,46.0898,11.115505,-2.37,-40.28,1.39,null
STON,2023-05-02 16:50:09.417,46.08981537333333,11.11556347,-2.097201,-110.785095,-0.697278,2
SMAR,2023-05-02 16:50:09.445,46.0898,11.115505,-2.35,-40.21,1.35,null
SMAR,2023-05-02 16:50:09.482,46.0898,11.115505,-2.34,-40.09,1.31,null
SMAR,2023-05-02 16:50:09.523,46.0898,11.115505,-2.32,-39.87,1.26,null
SMAR,2023-05-02 16:50:09.547,46.0898,11.115505,-2.3,-39.61,1.2,null
SMAR,2023-05-02 16:50:09.579,46.0898,11.115505,-2.29,-39.34,1.14,null
STON,2023-05-02 16:50:09.579,46.08981533,11.115563538333333,-2.097201,-110.785095,-0.697278,2
SMAR,2023-05-02 16:50:09.616,46.0898,11.115505,-2.28,-39.08,1.07,null
STON,2023-05-02 16:50:09.616,46.08981533,11.115563538333333,-2.015274,-110.162186,-0.934821,2
SMAR,2023-05-02 16:50:09.65,46.0898,11.115505,-2.27,-38.75,1.0,null
SMAR,2023-05-02 16:50:09.687,46.0898,11.115505,-2.26,-38.26,0.95,null
SMAR,2023-05-02 16:50:09.731,46.0898,11.115505,-2.22,-37.58,0.87,null
SMAR,2023-05-02 16:50:09.757,46.0898,11.115505,-2.19,-36.79,0.78,null
STON,2023-05-02 16:50:09.757,46.089815243333334,11.115563593333333,-2.015274,-110.162186,-0.934821,2
SMAR,2023-05-02 16:50:09.798,46.0898,11.115505,-2.15,-35.94,0.7,null
SMAR,2023-05-02 16:50:09.819,46.0898,11.115505,-2.1,-35.13,0.61,null
STON,2023-05-02 16:50:09.819,46.089815243333334,11.115563593333333,-1.912475,-107.708786,-1.354898,2
SMAR,2023-05-02 16:50:09.851,46.0898,11.115505,-2.07,-34.4,0.52,null
SMAR,2023-05-02 16:50:09.883,46.0898,11.115505,-2.02,-33.71,0.44,null
SMAR,2023-05-02 16:50:09.922,46.0898,11.115505,-1.94,-33.02,0.36,null
SMAR,2023-05-02 16:50:09.952,46.0898,11.115505,-1.87,-32.39,0.3,null
SMAR,2023-05-02 16:50:09.987,46.0898,11.115505,-1.8,-31.84,0.23,null
SMAR,2023-05-02 16:50:10.023,46.0898,11.115505,-1.72,-31.38,0.18,null
STON,2023-05-02 16:50:10.023,46.08981514,11.115563718333334,-1.912475,-107.708786,-1.354898,2
STON,2023-05-02 16:50:10.023,46.08981514,11.115563718333334,-1.605825,-103.189285,-1.87955,2
SMAR,2023-05-02 16:50:10.051,46.0898,11.115505,-1.67,-30.98,0.15,null
SMAR,2023-05-02 16:50:10.083,46.0898,11.115505,-1.62,-30.59,0.1,null
SMAR,2023-05-02 16:50:10.117,46.0898,11.115505,-1.57,-30.15,0.06,null
SMAR,2023-05-02 16:50:10.158,46.0898,11.115505,-1.55,-29.59,0.02,null
STON,2023-05-02 16:50:10.158,46.08981509,11.11556387,-1.605825,-103.189285,-1.87955,2
SMAR,2023-05-02 16:50:10.198,46.0898,11.115505,-1.53,-28.94,-0.02,null
SMAR,2023-05-02 16:50:10.221,46.0898,11.115505,-1.54,-28.19,-0.06,null
STON,2023-05-02 16:50:10.221,46.08981509,11.11556387,-1.251481,-100.364792,-2.183345,2
SMAR,2023-05-02 16:50:10.256,46.0898,11.115505,-1.55,-27.33,-0.1,null
SMAR,2023-05-02 16:50:10.291,46.0898,11.115505,-1.57,-26.41,-0.14,null
SMAR,2023-05-02 16:50:10.324,46.0898,11.115505,-1.61,-25.49,-0.17,null
SMAR,2023-05-02 16:50:10.357,46.0898,11.115505,-1.66,-24.56,-0.18,null
SMAR,2023-05-02 16:50:10.39,46.0898,11.115505,-1.72,-23.65,-0.19,null
SMAR,2023-05-02 16:50:10.42,46.0898,11.115505,-1.8,-22.73,-0.19,null
SMAR,2023-05-02 16:50:10.461,46.0898,11.115505,-1.89,-21.67,-0.16,null
SMAR,2023-05-02 16:50:10.488,46.0898,11.115505,-1.92,-20.39,-0.15,null
SMAR,2023-05-02 16:50:10.527,46.0898,11.115505,-1.95,-19.05,-0.14,null
SMAR,2023-05-02 16:50:10.569,46.0898,11.115505,-2.0,-17.85,-0.12,null
SMAR,2023-05-02 16:50:10.592,46.0898,11.115505,-2.04,-16.76,-0.08,null
SMAR,2023-05-02 16:50:10.626,46.0898,11.115505,-2.06,-15.68,-0.06,null
STON,2023-05-02 16:50:10.626,46.08981504166667,11.115563811666666,-1.251481,-100.364792,-2.183345,2
STON,2023-05-02 16:50:10.626,46.08981504166667,11.115563811666666,-1.31524,-95.637444,-2.416805,2
STON,2023-05-02 16:50:10.626,46.08981508666667,11.11556357,-1.31524,-95.637444,-2.416805,2
SMAR,2023-05-02 16:50:10.652,46.0898,11.115505,-2.07,-14.6,-0.04,null
STON,2023-05-02 16:50:10.652,46.08981508666667,11.11556357,-1.639059,-89.154999,-2.386305,2
SMAR,2023-05-02 16:50:10.687,46.0898,11.115505,-2.05,-13.56,-0.03,null
SMAR,2023-05-02 16:50:10.725,46.0898,11.115505,-2.06,-12.64,0.0,null
STON,2023-05-02 16:50:10.725,46.08981519666666,11.115563498333334,-1.639059,-89.154999,-2.386305,2
SMAR,2023-05-02 16:50:10.755,46.0898,11.115505,-2.08,-11.86,0.03,null
SMAR,2023-05-02 16:50:10.793,46.0898,11.115505,-2.11,-11.09,0.06,null
SMAR,2023-05-02 16:50:10.822,46.0898,11.115505,-2.15,-10.17,0.1,null
SMAR,2023-05-02 16:50:10.865,46.0898,11.115505,-2.14,-9.01,0.12,null
STON,2023-05-02 16:50:10.865,46.08981519666666,11.115563498333334,-1.719462,-82.864395,-2.298933,2
SMAR,2023-05-02 16:50:10.89,46.0898,11.115505,-2.11,-7.55,0.13,null
SMAR,2023-05-02 16:50:10.928,46.0898,11.115505,-2.08,-5.93,0.13,null
SMAR,2023-05-02 16:50:10.956,46.0898,11.115505,-2.06,-4.35,0.12,null
STON,2023-05-02 16:50:10.956,46.08981528166667,11.115563438333334,-1.719462,-82.864395,-2.298933,2
SMAR,2023-05-02 16:50:10.988,46.0898,11.115505,-2.05,-2.92,0.11,null
SMAR,2023-05-02 16:50:11.029,46.0898,11.115505,-2.04,-1.73,0.08,null
STON,2023-05-02 16:50:11.029,46.08981528166667,11.115563438333334,-1.720325,-75.994942,-2.197147,2
SMAR,2023-05-02 16:50:11.058,46.0898,11.115505,-2.03,-0.66,0.06,null
SMAR,2023-05-02 16:50:11.095,46.0898,11.115505,-1.98,0.47,0.01,null
SMAR,2023-05-02 16:50:11.127,46.0898,11.115505,-1.92,1.73,-0.09,null
STON,2023-05-02 16:50:11.127,46.089815271666666,11.1155634,-1.720325,-75.994942,-2.197147,2
SMAR,2023-05-02 16:50:11.161,46.0898,11.115505,-1.84,3.12,-0.19,null
SMAR,2023-05-02 16:50:11.201,46.0898,11.115505,-1.77,4.51,-0.3,null
SMAR,2023-05-02 16:50:11.232,46.0898,11.115505,-1.71,5.81,-0.42,null
STON,2023-05-02 16:50:11.232,46.089815271666666,11.1155634,-1.506859,-68.404762,-2.455273,2
SMAR,2023-05-02 16:50:11.257,46.0898,11.115505,-1.68,7.06,-0.51,null
SMAR,2023-05-02 16:50:11.296,46.0898,11.115505,-1.67,8.44,-0.62,null
SMAR,2023-05-02 16:50:11.325,46.0898,11.115505,-1.59,10.15,-0.72,null
SMAR,2023-05-02 16:50:11.355,46.0898,11.115505,-1.49,12.14,-0.81,null
SMAR,2023-05-02 16:50:11.385,46.0898,11.115505,-1.4,14.16,-0.92,null
STON,2023-05-02 16:50:11.385,46.08981515333333,11.115563316666666,-1.506859,-68.404762,-2.455273,2
SMAR,2023-05-02 16:50:11.419,46.0898,11.115505,-1.32,15.98,-0.96,null
SMAR,2023-05-02 16:50:11.453,46.0898,11.115505,-1.26,17.58,-1.01,null
SMAR,2023-05-02 16:50:11.492,46.0898,11.115505,-1.18,19.13,-1.03,null
STON,2023-05-02 16:50:11.492,46.08981515333333,11.115563316666666,-1.122673,-59.871044,-3.110507,2
SMAR,2023-05-02 16:50:11.527,46.0898,11.115505,-1.06,20.64,-1.02,null
SMAR,2023-05-02 16:50:11.558,46.0898,11.115505,-0.98,22.02,-1.0,null
SMAR,2023-05-02 16:50:11.587,46.0898,11.115505,-0.92,23.38,-0.95,null
SMAR,2023-05-02 16:50:11.622,46.0898,11.115505,-0.87,24.79,-0.95,null
STON,2023-05-02 16:50:11.622,46.08981511166667,11.115563323333333,-1.122673,-59.871044,-3.110507,2
STON,2023-05-02 16:50:11.622,46.08981511166667,11.115563323333333,-0.533182,-49.514286,-3.40501,2
SMAR,2023-05-02 16:50:11.656,46.0898,11.115505,-0.82,26.38,-0.91,null
SMAR,2023-05-02 16:50:11.698,46.0898,11.115505,-0.74,28.05,-0.91,null
SMAR,2023-05-02 16:50:11.732,46.0898,11.115505,-0.67,29.59,-0.88,null
SMAR,2023-05-02 16:50:11.758,46.0898,11.115505,-0.65,30.86,-0.83,null
STON,2023-05-02 16:50:11.758,46.08981516666667,11.115563396666667,-0.533182,-49.514286,-3.40501,2
SMAR,2023-05-02 16:50:11.791,46.0898,11.115505,-0.62,31.71,-0.81,null
SMAR,2023-05-02 16:50:11.828,46.0898,11.115505,-0.65,32.36,-0.71,null
SMAR,2023-05-02 16:50:11.861,46.0898,11.115505,-0.65,32.89,-0.68,null
STON,2023-05-02 16:50:11.861,46.08981516666667,11.115563396666667,-0.087458,-40.566547,-3.209082,2
SMAR,2023-05-02 16:50:11.894,46.0898,11.115505,-0.69,33.55,-0.62,null
SMAR,2023-05-02 16:50:11.929,46.0898,11.115505,-0.72,34.6,-0.55,null
SMAR,2023-05-02 16:50:11.963,46.0898,11.115505,-0.65,36.09,-0.53,null
STON,2023-05-02 16:50:11.963,46.089815285,11.115563471666666,-0.087458,-40.566547,-3.209082,2
SMAR,2023-05-02 16:50:11.996,46.0898,11.115505,-0.62,37.68,-0.44,null
SMAR,2023-05-02 16:50:12.036,46.0898,11.115505,-0.66,39.14,-0.4,null
STON,2023-05-02 16:50:12.036,46.089815285,11.115563471666666,-0.127684,-35.569313,-2.848248,2
SMAR,2023-05-02 16:50:12.07,46.0898,11.115505,-0.69,40.64,-0.31,null
SMAR,2023-05-02 16:50:12.099,46.0898,11.115505,-0.69,42.26,-0.18,null
SMAR,2023-05-02 16:50:12.144,46.0898,11.115505,-0.69,44.01,-0.06,null
SMAR,2023-05-02 16:50:12.166,46.0898,11.115505,-0.69,45.8,0.1,null
STON,2023-05-02 16:50:12.166,46.08981545166667,11.115563623333333,-0.127684,-35.569313,-2.848248,2
SMAR,2023-05-02 16:50:12.194,46.0898,11.115505,-0.67,47.49,0.24,null
SMAR,2023-05-02 16:50:12.225,46.0898,11.115505,-0.7,49.09,0.38,null
SMAR,2023-05-02 16:50:12.256,46.0898,11.115505,-0.72,50.72,0.5,null
SMAR,2023-05-02 16:50:12.292,46.0898,11.115505,-0.72,52.43,0.6,null
SMAR,2023-05-02 16:50:12.326,46.0898,11.115505,-0.72,54.31,0.68,null
STON,2023-05-02 16:50:12.326,46.08981545166667,11.115563623333333,-0.085236,-26.108732,-2.326087,2
SMAR,2023-05-02 16:50:12.356,46.0898,11.115505,-0.7,56.31,0.69,null
SMAR,2023-05-02 16:50:12.388,46.0898,11.115505,-0.64,58.35,0.69,null
STON,2023-05-02 16:50:12.388,46.089815595,11.115563908333334,-0.085236,-26.108732,-2.326087,2
SMAR,2023-05-02 16:50:12.423,46.0898,11.115505,-0.59,60.19,0.7,null
SMAR,2023-05-02 16:50:12.462,46.0898,11.115505,-0.57,61.76,0.67,null
STON,2023-05-02 16:50:12.462,46.089815595,11.115563908333334,-0.066087,-15.79068,-1.589898,2
SMAR,2023-05-02 16:50:12.498,46.0898,11.115505,-0.55,63.2,0.67,null
SMAR,2023-05-02 16:50:12.528,46.0898,11.115505,-0.54,64.67,0.64,null
SMAR,2023-05-02 16:50:12.563,46.0898,11.115505,-0.54,66.32,0.62,null
SMAR,2023-05-02 16:50:12.596,46.0898,11.115505,-0.5,68.27,0.61,null
STON,2023-05-02 16:50:12.596,46.08981559666667,11.115563906666667,-0.066087,-15.79068,-1.589898,2
SMAR,2023-05-02 16:50:12.622,46.0898,11.115505,-0.47,70.48,0.56,null
SMAR,2023-05-02 16:50:12.655,46.0898,11.115505,-0.43,72.9,0.53,null
STON,2023-05-02 16:50:12.655,46.08981559666667,11.115563906666667,0.116529,-5.503375,-1.592596,2
SMAR,2023-05-02 16:50:12.687,46.0898,11.115505,-0.33,75.27,0.48,null
SMAR,2023-05-02 16:50:12.718,46.0898,11.115505,-0.24,77.36,0.4,null
SMAR,2023-05-02 16:50:12.754,46.0898,11.115505,-0.22,79.08,0.34,null
STON,2023-05-02 16:50:12.754,46.08981558,11.115563773333333,0.116529,-5.503375,-1.592596,2
SMAR,2023-05-02 16:50:12.788,46.0898,11.115505,-0.18,80.65,0.24,null
SMAR,2023-05-02 16:50:12.822,46.0898,11.115505,-0.11,82.31,0.21,null
STON,2023-05-02 16:50:12.822,46.08981558,11.115563773333333,0.4335,7.218682,-1.811461,2
SMAR,2023-05-02 16:50:12.857,46.0898,11.115505,-0.02,84.19,0.21,null
SMAR,2023-05-02 16:50:12.892,46.0898,11.115505,0.09,86.17,0.23,null
SMAR,2023-05-02 16:50:12.922,46.0898,11.115505,0.2,88.12,0.28,null
SMAR,2023-05-02 16:50:12.957,46.0898,11.115505,0.27,90.02,0.33,null
STON,2023-05-02 16:50:12.957,46.089815531666666,11.115563686666666,0.4335,7.218682,-1.811461,2
SMAR,2023-05-02 16:50:12.988,46.0898,11.115505,0.35,91.96,0.36,null
SMAR,2023-05-02 16:50:13.021,46.0898,11.115505,0.43,93.92,0.39,null
STON,2023-05-02 16:50:13.021,46.089815531666666,11.115563686666666,0.891428,17.95644,-1.878224,2
SMAR,2023-05-02 16:50:13.054,46.0898,11.115505,0.51,95.86,0.41,null
SMAR,2023-05-02 16:50:13.086,46.0898,11.115505,0.59,97.68,0.39,null
SMAR,2023-05-02 16:50:13.124,46.0898,11.115505,0.64,99.29,0.43,null
SMAR,2023-05-02 16:50:13.156,46.0898,11.115505,0.69,100.55,0.44,null
STON,2023-05-02 16:50:13.156,46.08981547333333,11.11556365,0.891428,17.95644,-1.878224,2
SMAR,2023-05-02 16:50:13.189,46.0898,11.115505,0.73,101.5,0.45,null
SMAR,2023-05-02 16:50:13.225,46.0898,11.115505,0.7,102.35,0.48,null
STON,2023-05-02 16:50:13.225,46.08981547333333,11.11556365,1.328716,29.104376,-1.678611,2
SMAR,2023-05-02 16:50:13.259,46.0898,11.115505,0.72,103.3,0.47,null
SMAR,2023-05-02 16:50:13.298,46.0898,11.115505,0.73,104.47,0.47,null
SMAR,2023-05-02 16:50:13.328,46.0898,11.115505,0.72,105.78,0.47,null
SMAR,2023-05-02 16:50:13.358,46.0898,11.115505,0.67,107.15,0.47,null
SMAR,2023-05-02 16:50:13.389,46.0898,11.115505,0.65,108.72,0.48,null
STON,2023-05-02 16:50:13.389,46.08981550166666,11.115563671666667,1.328716,29.104376,-1.678611,2
SMAR,2023-05-02 16:50:13.42,46.0898,11.115505,0.67,110.46,0.48,null
STON,2023-05-02 16:50:13.42,46.08981550166666,11.115563671666667,1.358669,35.58651,-1.596548,2
SMAR,2023-05-02 16:50:13.452,46.0898,11.115505,0.64,112.23,0.5,null
SMAR,2023-05-02 16:50:13.491,46.0898,11.115505,0.61,113.95,0.49,null
SMAR,2023-05-02 16:50:13.532,46.0898,11.115505,0.59,115.66,0.51,null
SMAR,2023-05-02 16:50:13.559,46.0898,11.115505,0.57,117.33,0.56,null
SMAR,2023-05-02 16:50:13.589,46.0898,11.115505,0.57,119.0,0.6,null
SMAR,2023-05-02 16:50:13.625,46.0898,11.115505,0.63,120.76,0.68,null
STON,2023-05-02 16:50:13.625,46.08981561,11.115563733333333,1.358669,35.58651,-1.596548,2
STON,2023-05-02 16:50:13.625,46.08981561,11.115563733333333,1.193708,45.432625,-1.534873,2
SMAR,2023-05-02 16:50:13.662,46.0898,11.115505,0.71,122.52,0.74,null
SMAR,2023-05-02 16:50:13.7,46.0898,11.115505,0.71,124.13,0.79,null
SMAR,2023-05-02 16:50:13.728,46.0898,11.115505,0.72,125.61,0.82,null
SMAR,2023-05-02 16:50:13.761,46.0898,11.115505,0.73,127.1,0.84,null
SMAR,2023-05-02 16:50:13.791,46.0898,11.115505,0.7,128.67,0.82,null
SMAR,2023-05-02 16:50:13.83,46.0898,11.115505,0.69,130.38,0.76,null
SMAR,2023-05-02 16:50:13.856,46.0898,11.115505,0.69,132.24,0.73,null
STON,2023-05-02 16:50:13.856,46.089815601666665,11.115563801666667,1.193708,45.432625,-1.534873,2
SMAR,2023-05-02 16:50:13.89,46.0898,11.115505,0.69,134.15,0.65,null
STON,2023-05-02 16:50:13.89,46.089815601666665,11.115563801666667,1.314081,55.409958,-1.201641,2
SMAR,2023-05-02 16:50:13.929,46.0898,11.115505,0.68,136.11,0.57,null
SMAR,2023-05-02 16:50:13.961,46.0898,11.115505,0.71,138.06,0.49,null
SMAR,2023-05-02 16:50:13.992,46.0898,11.115505,0.7,139.94,0.41,null
STON,2023-05-02 16:50:13.992,46.089815726666664,11.115563773333333,1.314081,55.409958,-1.201641,2
SMAR,2023-05-02 16:50:14.025,46.0898,11.115505,0.71,141.79,0.32,null
SMAR,2023-05-02 16:50:14.058,46.0898,11.115505,0.77,143.78,0.24,null
SMAR,2023-05-02 16:50:14.092,46.0898,11.115505,0.83,145.68,0.14,null
SMAR,2023-05-02 16:50:14.125,46.0898,11.115505,0.87,147.34,0.04,null
STON,2023-05-02 16:50:14.125,46.089815726666664,11.115563773333333,1.246708,65.867241,-1.444539,2
SMAR,2023-05-02 16:50:14.158,46.0898,11.115505,0.93,148.9,-0.06,null
STON,2023-05-02 16:50:14.158,46.089815951666665,11.115563685,1.246708,65.867241,-1.444539,2
SMAR,2023-05-02 16:50:14.196,46.0898,11.115505,1.04,150.44,-0.13,null
SMAR,2023-05-02 16:50:14.235,46.0898,11.115505,1.12,152.16,-0.2,null
SMAR,2023-05-02 16:50:14.272,46.0898,11.115505,1.25,154.15,-0.25,null
STON,2023-05-02 16:50:14.272,46.089815951666665,11.115563685,1.447794,77.065948,-1.987846,2
SMAR,2023-05-02 16:50:14.298,46.0898,11.115505,1.4,156.37,-0.3,null
SMAR,2023-05-02 16:50:14.328,46.0898,11.115505,1.52,158.58,-0.33,null
SMAR,2023-05-02 16:50:14.364,46.0898,11.115505,1.62,160.64,-0.37,null
SMAR,2023-05-02 16:50:14.394,46.0898,11.115505,1.71,162.54,-0.39,null
SMAR,2023-05-02 16:50:14.426,46.0898,11.115505,1.78,164.29,-0.42,null
STON,2023-05-02 16:50:14.426,46.08981614166667,11.115563541666667,1.447794,77.065948,-1.987846,2
SMAR,2023-05-02 16:50:14.457,46.0898,11.115505,1.84,165.92,-0.42,null
SMAR,2023-05-02 16:50:14.493,46.0898,11.115505,1.88,167.43,-0.43,null
SMAR,2023-05-02 16:50:14.53,46.0898,11.115505,1.91,168.76,-0.41,null
STON,2023-05-02 16:50:14.53,46.08981614166667,11.115563541666667,2.083814,88.264755,-2.335012,2
SMAR,2023-05-02 16:50:14.563,46.0898,11.115505,1.96,169.99,-0.37,null
SMAR,2023-05-02 16:50:14.597,46.0898,11.115505,2.0,171.35,-0.35,null
SMAR,2023-05-02 16:50:14.631,46.0898,11.115505,2.06,172.82,-0.32,null
SMAR,2023-05-02 16:50:14.674,46.0898,11.115505,2.14,174.2,-0.28,null
STON,2023-05-02 16:50:14.674,46.08981628,11.11556355,2.083814,88.264755,-2.335012,2
SMAR,2023-05-02 16:50:14.7,46.0898,11.115505,2.18,175.32,-0.3,null
SMAR,2023-05-02 16:50:14.739,46.0898,11.115505,2.18,176.35,-0.31,null
STON,2023-05-02 16:50:14.739,46.08981628,11.11556355,2.476808,98.381058,-2.425287,2
SMAR,2023-05-02 16:50:14.762,46.0898,11.115505,2.25,177.43,-0.31,null
SMAR,2023-05-02 16:50:14.796,46.0898,11.115505,2.31,178.6,-0.32,null
SMAR,2023-05-02 16:50:14.837,46.0898,11.115505,2.3,179.83,-0.29,null
SMAR,2023-05-02 16:50:14.866,46.0898,11.115505,2.31,-178.74,-0.25,null
STON,2023-05-02 16:50:14.866,46.089816325,11.115563561666667,2.476808,98.381058,-2.425287,2
SMAR,2023-05-02 16:50:14.896,46.0898,11.115505,2.33,-176.99,-0.17,null
SMAR,2023-05-02 16:50:14.93,46.0898,11.115505,2.34,-174.95,-0.06,null
SMAR,2023-05-02 16:50:14.964,46.0898,11.115505,2.38,-172.73,0.08,null
STON,2023-05-02 16:50:14.964,46.08981635333333,11.11556363,2.476808,98.381058,-2.425287,2
SMAR,2023-05-02 16:50:14.995,46.0898,11.115505,2.44,-170.57,0.22,null
SMAR,2023-05-02 16:50:15.032,46.0898,11.115505,2.45,-168.58,0.34,null
SMAR,2023-05-02 16:50:15.064,46.0898,11.115505,2.49,-166.77,0.46,null
STON,2023-05-02 16:50:15.064,46.08981635333333,11.11556363,2.876679,114.641174,-2.033864,2
SMAR,2023-05-02 16:50:15.097,46.0898,11.115505,2.56,-165.14,0.57,null
SMAR,2023-05-02 16:50:15.132,46.0898,11.115505,2.58,-163.7,0.66,null
SMAR,2023-05-02 16:50:15.167,46.0898,11.115505,2.57,-162.23,0.72,null
STON,2023-05-02 16:50:15.167,46.089816325,11.115563605,2.876679,114.641174,-2.033864,2
SMAR,2023-05-02 16:50:15.199,46.0898,11.115505,2.6,-160.46,0.76,null
SMAR,2023-05-02 16:50:15.231,46.0898,11.115505,2.67,-158.57,0.81,null
STON,2023-05-02 16:50:15.231,46.089816325,11.115563605,3.081646,125.954544,-1.312101,2
SMAR,2023-05-02 16:50:15.259,46.0898,11.115505,2.7,-156.81,0.81,null
SMAR,2023-05-02 16:50:15.295,46.0898,11.115505,2.73,-155.16,0.79,null
SMAR,2023-05-02 16:50:15.331,46.0898,11.115505,2.76,-153.42,0.8,null
SMAR,2023-05-02 16:50:15.371,46.0898,11.115505,2.8,-151.53,0.8,null
SMAR,2023-05-02 16:50:15.403,46.0898,11.115505,2.84,-149.48,0.83,null
STON,2023-05-02 16:50:15.403,46.0898164,11.115563723333333,3.081646,125.954544,-1.312101,2
SMAR,2023-05-02 16:50:15.432,46.0898,11.115505,2.87,-147.27,0.89,null
SMAR,2023-05-02 16:50:15.464,46.0898,11.115505,2.91,-145.01,0.94,null
STON,2023-05-02 16:50:15.464,46.0898164,11.115563723333333,3.234427,136.227158,-1.148841,2
SMAR,2023-05-02 16:50:15.504,46.0898,11.115505,2.92,-142.85,1.0,null
SMAR,2023-05-02 16:50:15.543,46.0898,11.115505,2.89,-141.02,1.04,null
SMAR,2023-05-02 16:50:15.569,46.0898,11.115505,2.85,-139.48,1.05,null
SMAR,2023-05-02 16:50:15.596,46.0898,11.115505,2.81,-138.12,1.07,null
STON,2023-05-02 16:50:15.596,46.08981645833333,11.115563878333333,3.234427,136.227158,-1.148841,2
SMAR,2023-05-02 16:50:15.637,46.0898,11.115505,2.75,-136.88,1.06,null
SMAR,2023-05-02 16:50:15.67,46.0898,11.115505,2.67,-135.6,1.05,null
STON,2023-05-02 16:50:15.67,46.08981645833333,11.115563878333333,3.340109,148.644379,-0.91767,2
SMAR,2023-05-02 16:50:15.71,46.0898,11.115505,2.59,-134.21,1.05,null
SMAR,2023-05-02 16:50:15.742,46.0898,11.115505,2.52,-132.74,1.02,null
STON,2023-05-02 16:50:15.742,46.089816408333334,11.115564138333333,3.340109,148.644379,-0.91767,2
SMAR,2023-05-02 16:50:15.778,46.0898,11.115505,2.44,-131.22,1.01,null
SMAR,2023-05-02 16:50:15.81,46.0898,11.115505,2.35,-129.79,1.0,null
SMAR,2023-05-02 16:50:15.839,46.0898,11.115505,2.24,-128.45,0.98,null
SMAR,2023-05-02 16:50:15.874,46.0898,11.115505,2.11,-127.1,0.98,null
SMAR,2023-05-02 16:50:15.904,46.0898,11.115505,1.98,-125.82,0.97,null
SMAR,2023-05-02 16:50:15.937,46.0898,11.115505,1.8,-124.71,0.96,null
SMAR,2023-05-02 16:50:15.967,46.0898,11.115505,1.61,-123.74,0.99,null
SMAR,2023-05-02 16:50:15.996,46.0898,11.115505,1.42,-122.72,1.01,null
SMAR,2023-05-02 16:50:16.03,46.0898,11.115505,1.19,-121.48,1.04,null
STON,2023-05-02 16:50:16.03,46.089816408333334,11.115564138333333,2.968792,157.014206,-0.97193,2
SMAR,2023-05-02 16:50:16.063,46.0898,11.115505,0.99,-119.83,1.08,null
STON,2023-05-02 16:50:16.063,46.08981621,11.115564401666667,2.968792,157.014206,-0.97193,2
STON,2023-05-02 16:50:16.063,46.08981621,11.115564401666667,2.24374,165.083374,-1.048946,2
SMAR,2023-05-02 16:50:16.1,46.0898,11.115505,0.85,-118.01,1.1,null
SMAR,2023-05-02 16:50:16.133,46.0898,11.115505,0.69,-116.26,1.14,null
STON,2023-05-02 16:50:16.133,46.089815861666665,11.1155645,2.24374,165.083374,-1.048946,2
SMAR,2023-05-02 16:50:16.17,46.0898,11.115505,0.56,-114.85,1.16,null
SMAR,2023-05-02 16:50:16.2,46.0898,11.115505,0.37,-113.83,1.19,null
STON,2023-05-02 16:50:16.2,46.089815861666665,11.1155645,1.124136,173.468521,-0.879662,2
SMAR,2023-05-02 16:50:16.24,46.0898,11.115505,0.21,-112.97,1.23,null
SMAR,2023-05-02 16:50:16.272,46.0898,11.115505,0.1,-111.98,1.25,null
SMAR,2023-05-02 16:50:16.303,46.0898,11.115505,0.01,-110.6,1.28,null
SMAR,2023-05-02 16:50:16.339,46.0898,11.115505,0.01,-108.92,1.27,null
STON,2023-05-02 16:50:16.339,46.089815675,11.115564513333334,1.124136,173.468521,-0.879662,2
SMAR,2023-05-02 16:50:16.371,46.0898,11.115505,0.06,-107.2,1.25,null
SMAR,2023-05-02 16:50:16.405,46.0898,11.115505,0.09,-105.86,1.24,null
STON,2023-05-02 16:50:16.405,46.089815675,11.115564513333334,0.411481,-179.200333,-0.73718,2
SMAR,2023-05-02 16:50:16.431,46.0898,11.115505,0.14,-105.04,1.22,null
SMAR,2023-05-02 16:50:16.465,46.0898,11.115505,0.17,-104.53,1.2,null
SMAR,2023-05-02 16:50:16.504,46.0898,11.115505,0.17,-104.1,1.17,null
SMAR,2023-05-02 16:50:16.543,46.0898,11.115505,0.19,-103.51,1.17,null
SMAR,2023-05-02 16:50:16.574,46.0898,11.115505,0.22,-102.55,1.17,null
SMAR,2023-05-02 16:50:16.605,46.0898,11.115505,0.25,-101.13,1.18,null
STON,2023-05-02 16:50:16.605,46.089815715,11.115564556666667,0.411481,-179.200333,-0.73718,2
SMAR,2023-05-02 16:50:16.636,46.0898,11.115505,0.27,-99.23,1.22,null
STON,2023-05-02 16:50:16.636,46.089815715,11.115564556666667,0.641372,-173.593369,-0.856662,2
SMAR,2023-05-02 16:50:16.67,46.0898,11.115505,0.3,-96.89,1.26,null
SMAR,2023-05-02 16:50:16.702,46.0898,11.115505,0.28,-94.27,1.32,null
SMAR,2023-05-02 16:50:16.737,46.0898,11.115505,0.24,-91.95,1.36,null
SMAR,2023-05-02 16:50:16.771,46.0898,11.115505,0.2,-89.99,1.42,null
STON,2023-05-02 16:50:16.771,46.08981572,11.11556451,0.641372,-173.593369,-0.856662,2
STON,2023-05-02 16:50:16.771,46.08981572,11.11556451,0.718381,-162.388657,-0.676158,2
SMAR,2023-05-02 16:50:16.799,46.0898,11.115505,0.15,-88.24,1.48,null
SMAR,2023-05-02 16:50:16.836,46.0898,11.115505,0.12,-86.6,1.52,null
SMAR,2023-05-02 16:50:16.871,46.0898,11.115505,0.09,-84.9,1.56,null
SMAR,2023-05-02 16:50:16.9,46.0898,11.115505,0.07,-82.88,1.59,null
STON,2023-05-02 16:50:16.9,46.089815703333336,11.11556445,0.718381,-162.388657,-0.676158,2
SMAR,2023-05-02 16:50:16.934,46.0898,11.115505,0.05,-80.85,1.62,null
SMAR,2023-05-02 16:50:16.976,46.0898,11.115505,0.04,-78.66,1.65,null
SMAR,2023-05-02 16:50:17.002,46.0898,11.115505,0.05,-76.3,1.69,null
SMAR,2023-05-02 16:50:17.034,46.0898,11.115505,0.03,-74.11,1.69,null
SMAR,2023-05-02 16:50:17.067,46.0898,11.115505,-0.03,-72.19,1.67,null
SMAR,2023-05-02 16:50:17.1,46.0898,11.115505,-0.06,-70.35,1.64,null
STON,2023-05-02 16:50:17.1,46.089815703333336,11.11556445,0.53378,-151.35643,-0.418769,2
STON,2023-05-02 16:50:17.1,46.08981567666667,11.11556445,0.53378,-151.35643,-0.418769,2
SMAR,2023-05-02 16:50:17.145,46.0898,11.115505,-0.1,-68.61,1.6,null
SMAR,2023-05-02 16:50:17.179,46.0898,11.115505,-0.14,-66.84,1.57,null
STON,2023-05-02 16:50:17.179,46.08981567666667,11.11556445,0.361141,-139.070175,-0.418999,2
SMAR,2023-05-02 16:50:17.214,46.0898,11.115505,-0.17,-65.14,1.5,null
SMAR,2023-05-02 16:50:17.243,46.0898,11.115505,-0.2,-63.65,1.46,null
SMAR,2023-05-02 16:50:17.267,46.0898,11.115505,-0.26,-62.32,1.42,null
SMAR,2023-05-02 16:50:17.298,46.0898,11.115505,-0.31,-61.12,1.37,null
SMAR,2023-05-02 16:50:17.331,46.0898,11.115505,-0.39,-60.05,1.34,null
SMAR,2023-05-02 16:50:17.368,46.0898,11.115505,-0.45,-58.9,1.29,null
STON,2023-05-02 16:50:17.368,46.08981558,11.115564451666666,0.361141,-139.070175,-0.418999,2
SMAR,2023-05-02 16:50:17.4,46.0898,11.115505,-0.53,-57.64,1.27,null
SMAR,2023-05-02 16:50:17.438,46.0898,11.115505,-0.59,-56.39,1.26,null
STON,2023-05-02 16:50:17.438,46.08981558,11.115564451666666,0.052283,-130.437134,-0.691727,2
SMAR,2023-05-02 16:50:17.478,46.0898,11.115505,-0.65,-55.03,1.23,null
SMAR,2023-05-02 16:50:17.518,46.0898,11.115505,-0.76,-53.56,1.23,null
SMAR,2023-05-02 16:50:17.542,46.0898,11.115505,-0.87,-52.29,1.22,null
SMAR,2023-05-02 16:50:17.577,46.0898,11.115505,-0.98,-51.07,1.22,null
STON,2023-05-02 16:50:17.577,46.08981548166667,11.115564308333333,0.052283,-130.437134,-0.691727,2
STON,2023-05-02 16:50:17.577,46.08981548166667,11.115564308333333,-0.429328,-122.82,-0.832768,2
SMAR,2023-05-02 16:50:17.609,46.0898,11.115505,-1.08,-49.7,1.21,null
SMAR,2023-05-02 16:50:17.641,46.0898,11.115505,-1.14,-48.39,1.17,null
SMAR,2023-05-02 16:50:17.673,46.0898,11.115505,-1.15,-47.05,1.14,null
SMAR,2023-05-02 16:50:17.712,46.0898,11.115505,-1.13,-45.81,1.09,null
SMAR,2023-05-02 16:50:17.745,46.0898,11.115505,-1.13,-45.02,1.07,null
SMAR,2023-05-02 16:50:17.777,46.0898,11.115505,-1.11,-44.71,1.05,null
SMAR,2023-05-02 16:50:17.804,46.0898,11.115505,-1.1,-44.74,1.05,null
STON,2023-05-02 16:50:17.804,46.08981541333333,11.115564181666667,-0.429328,-122.82,-0.832768,2
SMAR,2023-05-02 16:50:17.842,46.0898,11.115505,-1.09,-44.89,1.03,null
STON,2023-05-02 16:50:17.842,46.08981541333333,11.115564181666667,-0.700747,-115.619377,-0.999738,2
SMAR,2023-05-02 16:50:17.878,46.0898,11.115505,-1.01,-44.76,1.05,null
SMAR,2023-05-02 16:50:17.914,46.0898,11.115505,-0.92,-44.4,1.04,null
STON,2023-05-02 16:50:17.914,46.08981543833333,11.11556429,-0.700747,-115.619377,-0.999738,2
SMAR,2023-05-02 16:50:17.946,46.0898,11.115505,-0.85,-44.3,1.05,null
SMAR,2023-05-02 16:50:17.973,46.0898,11.115505,-0.79,-44.47,1.1,null
STON,2023-05-02 16:50:17.973,46.08981543833333,11.11556429,-0.422569,-114.857666,-1.049725,2
SMAR,2023-05-02 16:50:18.005,46.0898,11.115505,-0.76,-44.59,1.15,null
SMAR,2023-05-02 16:50:18.059,46.0898,11.115505,-0.74,-44.61,1.21,null
SMAR,2023-05-02 16:50:18.082,46.0898,11.115505,-0.73,-44.37,1.21,null
SMAR,2023-05-02 16:50:18.111,46.0898,11.115505,-0.75,-43.91,1.23,null
SMAR,2023-05-02 16:50:18.142,46.0898,11.115505,-0.73,-43.42,1.24,null
STON,2023-05-02 16:50:18.142,46.089815495,11.11556432,-0.422569,-114.857666,-1.049725,2
SMAR,2023-05-02 16:50:18.176,46.0898,11.115505,-0.72,-42.97,1.23,null
SMAR,2023-05-02 16:50:18.225,46.0898,11.115505,-0.74,-42.62,1.24,null
SMAR,2023-05-02 16:50:18.249,46.0898,11.115505,-0.77,-42.46,1.24,null
STON,2023-05-02 16:50:18.249,46.089815495,11.11556432,-0.305056,-114.226166,-0.86928,2
SMAR,2023-05-02 16:50:18.274,46.0898,11.115505,-0.78,-42.45,1.25,null
SMAR,2023-05-02 16:50:18.311,46.0898,11.115505,-0.81,-42.51,1.24,null
SMAR,2023-05-02 16:50:18.346,46.0898,11.115505,-0.84,-42.63,1.24,null
SMAR,2023-05-02 16:50:18.374,46.0898,11.115505,-0.87,-42.63,1.23,null
STON,2023-05-02 16:50:18.374,46.0898155,11.115564276666667,-0.305056,-114.226166,-0.86928,2
SMAR,2023-05-02 16:50:18.405,46.0898,11.115505,-0.88,-42.53,1.2,null
STON,2023-05-02 16:50:18.405,46.0898155,11.115564276666667,-0.406374,-113.333954,-0.887341,2
SMAR,2023-05-02 16:50:18.449,46.0898,11.115505,-0.89,-42.51,1.2,null
SMAR,2023-05-02 16:50:18.479,46.0898,11.115505,-0.91,-42.56,1.17,null
SMAR,2023-05-02 16:50:18.517,46.0898,11.115505,-0.92,-42.58,1.16,null
SMAR,2023-05-02 16:50:18.558,46.0898,11.115505,-0.93,-42.56,1.14,null
SMAR,2023-05-02 16:50:18.582,46.0898,11.115505,-0.93,-42.54,1.12,null
SMAR,2023-05-02 16:50:18.616,46.0898,11.115505,-0.93,-42.52,1.12,null
SMAR,2023-05-02 16:50:18.64,46.0898,11.115505,-0.94,-42.55,1.12,null
STON,2023-05-02 16:50:18.64,46.0898155,11.115564276666667,-0.505196,-113.33947,-0.988379,2
SMAR,2023-05-02 16:50:18.675,46.0898,11.115505,-0.94,-42.59,1.13,null
SMAR,2023-05-02 16:50:18.71,46.0898,11.115505,-0.95,-42.6,1.17,null
SMAR,2023-05-02 16:50:18.739,46.0898,11.115505,-0.99,-42.69,1.22,null
STON,2023-05-02 16:50:18.739,46.08981547,11.115564258333333,-0.505196,-113.33947,-0.988379,2
STON,2023-05-02 16:50:18.739,46.08981547333333,11.115564233333334,-0.505196,-113.33947,-0.988379,2
SMAR,2023-05-02 16:50:18.774,46.0898,11.115505,-1.02,-42.76,1.26,null
SMAR,2023-05-02 16:50:18.806,46.0898,11.115505,-1.04,-42.73,1.32,null
SMAR,2023-05-02 16:50:18.847,46.0898,11.115505,-1.08,-42.88,1.38,null
SMAR,2023-05-02 16:50:18.881,46.0898,11.115505,-1.14,-42.98,1.41,null
STON,2023-05-02 16:50:18.881,46.08981547333333,11.115564233333334,-0.560246,-113.486565,-0.933255,2
SMAR,2023-05-02 16:50:18.922,46.0898,11.115505,-1.15,-42.88,1.45,null
SMAR,2023-05-02 16:50:18.942,46.0898,11.115505,-1.16,-42.68,1.47,null
STON,2023-05-02 16:50:18.942,46.08981551833333,11.115564098333333,-0.560246,-113.486565,-0.933255,2
SMAR,2023-05-02 16:50:18.974,46.0898,11.115505,-1.17,-42.57,1.49,null
STON,2023-05-02 16:50:18.974,46.08981551833333,11.115564098333333,-0.772876,-113.667999,-0.664377,2
SMAR,2023-05-02 16:50:19.008,46.0898,11.115505,-1.18,-42.64,1.49,null
SMAR,2023-05-02 16:50:19.05,46.0898,11.115505,-1.22,-42.85,1.49,null
SMAR,2023-05-02 16:50:19.085,46.0898,11.115505,-1.25,-42.98,1.5,null
SMAR,2023-05-02 16:50:19.113,46.0898,11.115505,-1.29,-42.91,1.5,null
SMAR,2023-05-02 16:50:19.146,46.0898,11.115505,-1.31,-42.64,1.49,null
STON,2023-05-02 16:50:19.146,46.08981550666667,11.115564013333334,-0.772876,-113.667999,-0.664377,2
SMAR,2023-05-02 16:50:19.184,46.0898,11.115505,-1.34,-42.37,1.48,null
SMAR,2023-05-02 16:50:19.221,46.0898,11.115505,-1.39,-42.14,1.48,null
SMAR,2023-05-02 16:50:19.247,46.0898,11.115505,-1.43,-42.09,1.49,null
SMAR,2023-05-02 16:50:19.278,46.0898,11.115505,-1.48,-42.14,1.49,null
STON,2023-05-02 16:50:19.278,46.08981550666667,11.115564013333334,-0.939191,-113.708794,-0.610164,2
SMAR,2023-05-02 16:50:19.315,46.0898,11.115505,-1.5,-42.16,1.5,null
SMAR,2023-05-02 16:50:19.346,46.0898,11.115505,-1.53,-42.12,1.5,null
STON,2023-05-02 16:50:19.346,46.089815503333334,11.115563925,-0.939191,-113.708794,-0.610164,2
SMAR,2023-05-02 16:50:19.383,46.0898,11.115505,-1.56,-42.06,1.5,null
SMAR,2023-05-02 16:50:19.414,46.0898,11.115505,-1.58,-41.99,1.48,null
STON,2023-05-02 16:50:19.414,46.089815503333334,11.115563925,-1.173922,-113.161308,-0.574154,2
SMAR,2023-05-02 16:50:19.446,46.0898,11.115505,-1.62,-41.81,1.49,null
SMAR,2023-05-02 16:50:19.476,46.0898,11.115505,-1.66,-41.33,1.47,null
SMAR,2023-05-02 16:50:19.513,46.0898,11.115505,-1.66,-40.28,1.45,null
SMAR,2023-05-02 16:50:19.547,46.0898,11.115505,-1.65,-38.58,1.46,null
SMAR,2023-05-02 16:50:19.585,46.0898,11.115505,-1.62,-36.28,1.41,null
SMAR,2023-05-02 16:50:19.615,46.0898,11.115505,-1.63,-33.25,1.4,null
STON,2023-05-02 16:50:19.615,46.089815476666665,11.11556383,-1.173922,-113.161308,-0.574154,2
SMAR,2023-05-02 16:50:19.643,46.0898,11.115505,-1.61,-29.57,1.36,null
SMAR,2023-05-02 16:50:19.679,46.0898,11.115505,-1.56,-25.14,1.29,null
STON,2023-05-02 16:50:19.679,46.089815476666665,11.11556383,-1.327863,-110.365273,-0.600587,2
SMAR,2023-05-02 16:50:19.706,46.0898,11.115505,-1.5,-20.05,1.26,null
SMAR,2023-05-02 16:50:19.743,46.0898,11.115505,-1.39,-14.59,1.15,null
STON,2023-05-02 16:50:19.743,46.08981553666667,11.115563855,-1.327863,-110.365273,-0.600587,2
SMAR,2023-05-02 16:50:19.775,46.0898,11.115505,-1.27,-8.61,1.09,null
STON,2023-05-02 16:50:19.775,46.08981553666667,11.115563855,-1.127564,-87.971291,-0.912527,2
SMAR,2023-05-02 16:50:19.805,46.0898,11.115505,-1.02,-2.32,1.05,null
SMAR,2023-05-02 16:50:19.851,46.0898,11.115505,-0.79,4.02,0.94,null
SMAR,2023-05-02 16:50:19.883,46.0898,11.115505,-0.6,10.21,0.95,null
STON,2023-05-02 16:50:19.883,46.08981546333333,11.115564198333333,-1.127564,-87.971291,-0.912527,2
SMAR,2023-05-02 16:50:19.908,46.0898,11.115505,-0.27,15.75,0.95,null
SMAR,2023-05-02 16:50:19.944,46.0898,11.115505,-0.09,20.86,0.99,null
SMAR,2023-05-02 16:50:19.976,46.0898,11.115505,0.13,25.33,1.11,null
SMAR,2023-05-02 16:50:20.01,46.0898,11.115505,0.38,29.1,1.21,null
STON,2023-05-02 16:50:20.01,46.08981546333333,11.115564198333333,0.207706,-52.337418,-1.264249,2
SMAR,2023-05-02 16:50:20.044,46.0898,11.115505,0.52,31.93,1.32,null
SMAR,2023-05-02 16:50:20.083,46.0898,11.115505,0.65,33.82,1.41,null
SMAR,2023-05-02 16:50:20.114,46.0898,11.115505,0.72,35.23,1.51,null
SMAR,2023-05-02 16:50:20.146,46.0898,11.115505,0.77,36.5,1.57,null
SMAR,2023-05-02 16:50:20.182,46.0898,11.115505,0.85,38.01,1.68,null
SMAR,2023-05-02 16:50:20.211,46.0898,11.115505,0.95,39.88,1.72,null
STON,2023-05-02 16:50:20.211,46.089815361666666,11.1155645,0.207706,-52.337418,-1.264249,2
STON,2023-05-02 16:50:20.211,46.089815361666666,11.1155645,1.165566,-34.805458,-0.709824,2
SMAR,2023-05-02 16:50:20.241,46.0898,11.115505,1.06,42.04,1.82,null
SMAR,2023-05-02 16:50:20.277,46.0898,11.115505,1.18,43.98,1.82,null
SMAR,2023-05-02 16:50:20.309,46.0898,11.115505,1.23,45.43,1.75,null
STON,2023-05-02 16:50:20.309,46.08981521,11.115564556666667,1.165566,-34.805458,-0.709824,2
SMAR,2023-05-02 16:50:20.347,46.0898,11.115505,1.29,46.21,1.66,null
SMAR,2023-05-02 16:50:20.374,46.0898,11.115505,1.31,46.35,1.57,null
STON,2023-05-02 16:50:20.374,46.08981521,11.115564556666667,1.692189,-24.706066,-0.541513,2
SMAR,2023-05-02 16:50:20.408,46.0898,11.115505,1.32,46.09,1.45,null
SMAR,2023-05-02 16:50:20.444,46.0898,11.115505,1.32,45.67,1.32,null
SMAR,2023-05-02 16:50:20.476,46.0898,11.115505,1.29,45.41,1.25,null
SMAR,2023-05-02 16:50:20.519,46.0898,11.115505,1.28,45.34,1.15,null
SMAR,2023-05-02 16:50:20.55,46.0898,11.115505,1.23,45.24,1.06,null
SMAR,2023-05-02 16:50:20.581,46.0898,11.115505,1.16,45.14,0.96,null
SMAR,2023-05-02 16:50:20.615,46.0898,11.115505,1.11,45.12,0.87,null
SMAR,2023-05-02 16:50:20.644,46.0898,11.115505,1.04,45.14,0.8,null
STON,2023-05-02 16:50:20.644,46.089815126666664,11.115564355,1.692189,-24.706066,-0.541513,2
STON,2023-05-02 16:50:20.644,46.089815126666664,11.115564355,1.681641,-25.40571,-1.114602,2
SMAR,2023-05-02 16:50:20.675,46.0898,11.115505,0.97,45.13,0.74,null
SMAR,2023-05-02 16:50:20.713,46.0898,11.115505,0.91,45.09,0.69,null
SMAR,2023-05-02 16:50:20.741,46.0898,11.115505,0.85,45.01,0.68,null
STON,2023-05-02 16:50:20.741,46.08981517666667,11.11556414,1.681641,-25.40571,-1.114602,2
SMAR,2023-05-02 16:50:20.778,46.0898,11.115505,0.8,44.94,0.66,null
SMAR,2023-05-02 16:50:20.808,46.0898,11.115505,0.75,44.89,0.66,null
STON,2023-05-02 16:50:20.808,46.08981517666667,11.11556414,1.277449,-25.678755,-1.536333,2
SMAR,2023-05-02 16:50:20.851,46.0898,11.115505,0.7,44.84,0.68,null
SMAR,2023-05-02 16:50:20.886,46.0898,11.115505,0.67,44.7,0.72,null
SMAR,2023-05-02 16:50:20.916,46.0898,11.115505,0.59,44.49,0.76,null
SMAR,2023-05-02 16:50:20.952,46.0898,11.115505,0.53,44.14,0.79,null
SMAR,2023-05-02 16:50:20.986,46.0898,11.115505,0.48,43.69,0.82,null
SMAR,2023-05-02 16:50:21.016,46.0898,11.115505,0.41,43.19,0.85,null
STON,2023-05-02 16:50:21.016,46.089815285,11.115564146666667,1.277449,-25.678755,-1.536333,2
SMAR,2023-05-02 16:50:21.052,46.0898,11.115505,0.37,42.78,0.89,null
STON,2023-05-02 16:50:21.052,46.089815285,11.115564146666667,0.981286,-26.388126,-1.427774,2
SMAR,2023-05-02 16:50:21.093,46.0898,11.115505,0.34,42.46,0.92,null
SMAR,2023-05-02 16:50:21.124,46.0898,11.115505,0.32,42.35,0.96,null
SMAR,2023-05-02 16:50:21.158,46.0898,11.115505,0.35,42.45,1.04,null
SMAR,2023-05-02 16:50:21.188,46.0898,11.115505,0.41,42.65,1.15,null
SMAR,2023-05-02 16:50:21.225,46.0898,11.115505,0.45,42.81,1.24,null
SMAR,2023-05-02 16:50:21.257,46.0898,11.115505,0.5,42.83,1.33,null
SMAR,2023-05-02 16:50:21.285,46.0898,11.115505,0.55,42.7,1.41,null
SMAR,2023-05-02 16:50:21.316,46.0898,11.115505,0.59,42.45,1.5,null
SMAR,2023-05-02 16:50:21.346,46.0898,11.115505,0.65,42.09,1.58,null
SMAR,2023-05-02 16:50:21.38,46.0898,11.115505,0.69,41.74,1.68,null
SMAR,2023-05-02 16:50:21.417,46.0898,11.115505,0.74,41.37,1.72,null
SMAR,2023-05-02 16:50:21.448,46.0898,11.115505,0.74,41.05,1.76,null
SMAR,2023-05-02 16:50:21.484,46.0898,11.115505,0.75,40.76,1.78,null
SMAR,2023-05-02 16:50:21.515,46.0898,11.115505,0.74,40.6,1.8,null
STON,2023-05-02 16:50:21.515,46.089815375,11.115564216666666,0.981286,-26.388126,-1.427774,2
STON,2023-05-02 16:50:21.515,46.089815375,11.115564216666666,0.754349,-28.342239,-1.195477,2
STON,2023-05-02 16:50:21.515,46.089815375,11.11556445,0.754349,-28.342239,-1.195477,2
SMAR,2023-05-02 16:50:21.543,46.0898,11.115505,0.73,40.59,1.79,null
STON,2023-05-02 16:50:21.543,46.089815375,11.11556445,1.043796,-28.385031,-0.638786,2
SMAR,2023-05-02 16:50:21.58,46.0898,11.115505,0.71,40.73,1.77,null
SMAR,2023-05-02 16:50:21.611,46.0898,11.115505,0.67,41.05,1.75,null
STON,2023-05-02 16:50:21.611,46.08981534833333,11.11556457,1.043796,-28.385031,-0.638786,2
STON,2023-05-02 16:50:21.611,46.08981534833333,11.11556457,1.156176,-30.056168,-0.351945,2
SMAR,2023-05-02 16:50:21.641,46.0898,11.115505,0.71,41.41,1.76,null
SMAR,2023-05-02 16:50:21.675,46.0898,11.115505,0.71,41.84,1.76,null
SMAR,2023-05-02 16:50:21.715,46.0898,11.115505,0.75,42.1,1.77,null
SMAR,2023-05-02 16:50:21.75,46.0898,11.115505,0.74,42.27,1.77,null
STON,2023-05-02 16:50:21.75,46.089815341666664,11.115564563333333,1.156176,-30.056168,-0.351945,2
SMAR,2023-05-02 16:50:21.78,46.0898,11.115505,0.77,42.22,1.76,null
SMAR,2023-05-02 16:50:21.814,46.0898,11.115505,0.77,42.13,1.75,null
SMAR,2023-05-02 16:50:21.847,46.0898,11.115505,0.76,42.04,1.71,null
STON,2023-05-02 16:50:21.847,46.089815341666664,11.115564563333333,1.161316,-28.435165,-0.393575,2
SMAR,2023-05-02 16:50:21.881,46.0898,11.115505,0.73,42.2,1.67,null
SMAR,2023-05-02 16:50:21.918,46.0898,11.115505,0.7,42.6,1.63,null
SMAR,2023-05-02 16:50:21.951,46.0898,11.115505,0.66,43.45,1.57,null
STON,2023-05-02 16:50:21.951,46.08981533666667,11.115564491666667,1.161316,-28.435165,-0.393575,2
SMAR,2023-05-02 16:50:21.984,46.0898,11.115505,0.66,44.86,1.52,null
SMAR,2023-05-02 16:50:22.014,46.0898,11.115505,0.67,47.11,1.48,null
SMAR,2023-05-02 16:50:22.051,46.0898,11.115505,0.67,50.58,1.42,null
SMAR,2023-05-02 16:50:22.083,46.0898,11.115505,0.74,55.5,1.4,null
SMAR,2023-05-02 16:50:22.115,46.0898,11.115505,0.86,61.76,1.4,null
STON,2023-05-02 16:50:22.115,46.08981533666667,11.115564491666667,1.099608,-27.728214,-0.556341,2
SMAR,2023-05-02 16:50:22.145,46.0898,11.115505,1.01,68.59,1.38,null
SMAR,2023-05-02 16:50:22.182,46.0898,11.115505,1.13,75.77,1.4,null
SMAR,2023-05-02 16:50:22.217,46.0898,11.115505,1.3,83.0,1.41,null
STON,2023-05-02 16:50:22.217,46.089815226666666,11.11556421,1.099608,-27.728214,-0.556341,2
STON,2023-05-02 16:50:22.217,46.089815226666666,11.11556421,1.342822,-6.108366,-0.81337,2
SMAR,2023-05-02 16:50:22.245,46.0898,11.115505,1.48,90.35,1.55,null
SMAR,2023-05-02 16:50:22.278,46.0898,11.115505,1.68,97.46,1.71,null
SMAR,2023-05-02 16:50:22.311,46.0898,11.115505,1.87,103.95,1.88,null
SMAR,2023-05-02 16:50:22.346,46.0898,11.115505,1.98,109.48,2.03,null
SMAR,2023-05-02 16:50:22.392,46.0898,11.115505,2.12,113.81,2.15,null
SMAR,2023-05-02 16:50:22.423,46.0898,11.115505,2.17,117.19,2.21,null
SMAR,2023-05-02 16:50:22.459,46.0898,11.115505,2.22,120.11,2.33,null
SMAR,2023-05-02 16:50:22.483,46.0898,11.115505,2.31,122.49,2.36,null
STON,2023-05-02 16:50:22.483,46.089815005,11.115563758333334,1.342822,-6.108366,-0.81337,2
STON,2023-05-02 16:50:22.483,46.089815005,11.115563758333334,2.433348,35.737453,-0.287113,2
SMAR,2023-05-02 16:50:22.514,46.0898,11.115505,2.28,124.61,2.35,null
SMAR,2023-05-02 16:50:22.549,46.0898,11.115505,2.34,126.32,2.43,null
SMAR,2023-05-02 16:50:22.59,46.0898,11.115505,2.36,127.46,2.39,null
SMAR,2023-05-02 16:50:22.614,46.0898,11.115505,2.41,127.92,2.28,null
SMAR,2023-05-02 16:50:22.656,46.0898,11.115505,2.49,128.22,2.31,null
SMAR,2023-05-02 16:50:22.684,46.0898,11.115505,2.58,128.2,2.23,null
STON,2023-05-02 16:50:22.684,46.08981498833333,11.11556348,2.433348,35.737453,-0.287113,2
STON,2023-05-02 16:50:22.684,46.08981498833333,11.11556348,2.851856,54.971344,0.176191,2
SMAR,2023-05-02 16:50:22.72,46.0898,11.115505,2.6,128.09,2.16,null
SMAR,2023-05-02 16:50:22.757,46.0898,11.115505,2.65,128.14,2.14,null
STON,2023-05-02 16:50:22.757,46.089815015,11.11556326,2.851856,54.971344,0.176191,2
SMAR,2023-05-02 16:50:22.785,46.0898,11.115505,2.66,128.26,2.02,null
SMAR,2023-05-02 16:50:22.823,46.0898,11.115505,2.67,128.27,1.93,null
SMAR,2023-05-02 16:50:22.858,46.0898,11.115505,2.68,128.4,1.91,null
STON,2023-05-02 16:50:22.858,46.089815015,11.11556326,3.202292,57.791485,-0.026236,2
SMAR,2023-05-02 16:50:22.887,46.0898,11.115505,2.69,128.66,1.88,null
SMAR,2023-05-02 16:50:22.929,46.0898,11.115505,2.69,129.05,1.86,null
SMAR,2023-05-02 16:50:22.957,46.0898,11.115505,2.71,129.57,1.87,null
STON,2023-05-02 16:50:22.957,46.08981509833333,11.115563178333334,3.202292,57.791485,-0.026236,2
SMAR,2023-05-02 16:50:22.983,46.0898,11.115505,2.68,130.3,1.91,null
SMAR,2023-05-02 16:50:23.02,46.0898,11.115505,2.67,130.92,1.91,null
SMAR,2023-05-02 16:50:23.056,46.0898,11.115505,2.63,131.23,1.84,null
STON,2023-05-02 16:50:23.056,46.08981509833333,11.115563178333334,3.274375,58.877274,-0.335992,2
SMAR,2023-05-02 16:50:23.085,46.0898,11.115505,2.56,131.24,1.8,null
SMAR,2023-05-02 16:50:23.122,46.0898,11.115505,2.48,131.16,1.8,null
SMAR,2023-05-02 16:50:23.151,46.0898,11.115505,2.42,131.27,1.75,null
SMAR,2023-05-02 16:50:23.193,46.0898,11.115505,2.41,131.38,1.74,null
SMAR,2023-05-02 16:50:23.217,46.0898,11.115505,2.35,131.35,1.73,null
STON,2023-05-02 16:50:23.217,46.08981516666667,11.115563225,3.274375,58.877274,-0.335992,2
STON,2023-05-02 16:50:23.217,46.08981516666667,11.115563225,3.018513,60.85355,-0.388724,2
SMAR,2023-05-02 16:50:23.253,46.0898,11.115505,2.31,131.35,1.78,null
SMAR,2023-05-02 16:50:23.284,46.0898,11.115505,2.3,131.41,1.81,null
SMAR,2023-05-02 16:50:23.32,46.0898,11.115505,2.27,131.39,1.79,null
SMAR,2023-05-02 16:50:23.349,46.0898,11.115505,2.27,131.15,1.76,null
SMAR,2023-05-02 16:50:23.38,46.0898,11.115505,2.25,130.89,1.73,null
STON,2023-05-02 16:50:23.38,46.08981524,11.115563401666666,3.018513,60.85355,-0.388724,2
SMAR,2023-05-02 16:50:23.41,46.0898,11.115505,2.26,130.67,1.71,null
SMAR,2023-05-02 16:50:23.453,46.0898,11.115505,2.27,130.61,1.71,null
SMAR,2023-05-02 16:50:23.487,46.0898,11.115505,2.29,130.6,1.72,null
SMAR,2023-05-02 16:50:23.524,46.0898,11.115505,2.3,130.63,1.72,null
STON,2023-05-02 16:50:23.524,46.08981524,11.115563401666666,2.834365,61.015732,-0.365673,2
SMAR,2023-05-02 16:50:23.549,46.0898,11.115505,2.34,130.6,1.74,null
SMAR,2023-05-02 16:50:23.583,46.0898,11.115505,2.35,130.58,1.76,null
SMAR,2023-05-02 16:50:23.617,46.0898,11.115505,2.38,130.55,1.78,null
SMAR,2023-05-02 16:50:23.659,46.0898,11.115505,2.4,130.55,1.79,null
SMAR,2023-05-02 16:50:23.689,46.0898,11.115505,2.42,130.48,1.78,null
STON,2023-05-02 16:50:23.689,46.089815235,11.115563373333334,2.834365,61.015732,-0.365673,2
STON,2023-05-02 16:50:23.689,46.089815235,11.115563373333334,2.881012,60.365593,-0.400926,2
SMAR,2023-05-02 16:50:23.717,46.0898,11.115505,2.43,130.35,1.75,null
SMAR,2023-05-02 16:50:23.755,46.0898,11.115505,2.42,130.23,1.75,null
SMAR,2023-05-02 16:50:23.789,46.0898,11.115505,2.42,130.19,1.73,null
SMAR,2023-05-02 16:50:23.818,46.0898,11.115505,2.41,130.23,1.72,null
STON,2023-05-02 16:50:23.818,46.08981520166667,11.115563335,2.881012,60.365593,-0.400926,2
SMAR,2023-05-02 16:50:23.852,46.0898,11.115505,2.39,130.25,1.7,null
SMAR,2023-05-02 16:50:23.889,46.0898,11.115505,2.35,130.29,1.7,null
SMAR,2023-05-02 16:50:23.926,46.0898,11.115505,2.31,130.34,1.72,null
STON,2023-05-02 16:50:23.926,46.08981520166667,11.115563335,2.993011,60.094597,-0.359746,2
STON,2023-05-02 16:50:23.926,46.08981522333333,11.115563385,2.993011,60.094597,-0.359746,2
SMAR,2023-05-02 16:50:23.957,46.0898,11.115505,2.27,130.44,1.74,null
SMAR,2023-05-02 16:50:23.991,46.0898,11.115505,2.22,130.59,1.78,null
SMAR,2023-05-02 16:50:24.02,46.0898,11.115505,2.18,130.85,1.82,null
STON,2023-05-02 16:50:24.02,46.08981522333333,11.115563385,2.869071,60.181843,-0.372474,2
SMAR,2023-05-02 16:50:24.057,46.0898,11.115505,2.14,131.24,1.86,null
SMAR,2023-05-02 16:50:24.086,46.0898,11.115505,2.11,131.59,1.89,null
SMAR,2023-05-02 16:50:24.122,46.0898,11.115505,2.06,131.88,1.89,null
SMAR,2023-05-02 16:50:24.156,46.0898,11.115505,2.04,132.09,1.9,null
SMAR,2023-05-02 16:50:24.187,46.0898,11.115505,2.04,132.31,1.93,null
SMAR,2023-05-02 16:50:24.227,46.0898,11.115505,2.01,132.84,1.93,null
STON,2023-05-02 16:50:24.227,46.089815208333334,11.115563481666667,2.869071,60.181843,-0.372474,2
SMAR,2023-05-02 16:50:24.252,46.0898,11.115505,2.03,133.98,1.96,null
SMAR,2023-05-02 16:50:24.287,46.0898,11.115505,1.99,136.27,2.02,null
SMAR,2023-05-02 16:50:24.319,46.0898,11.115505,2.01,139.54,2.1,null
SMAR,2023-05-02 16:50:24.351,46.0898,11.115505,1.96,144.02,2.26,null
STON,2023-05-02 16:50:24.351,46.089815208333334,11.115563481666667,2.61551,61.824707,-0.191196,2
STON,2023-05-02 16:50:24.351,46.089815228333336,11.115563451666667,2.61551,61.824707,-0.191196,2
SMAR,2023-05-02 16:50:24.381,46.0898,11.115505,1.94,149.44,2.42,null
SMAR,2023-05-02 16:50:24.416,46.0898,11.115505,1.88,155.89,2.69,null
SMAR,2023-05-02 16:50:24.452,46.0898,11.115505,1.77,163.2,2.93,null
SMAR,2023-05-02 16:50:24.483,46.0898,11.115505,1.67,170.53,3.16,null
SMAR,2023-05-02 16:50:24.519,46.0898,11.115505,1.48,177.81,3.4,null
SMAR,2023-05-02 16:50:24.554,46.0898,11.115505,1.32,-175.66,3.57,null
SMAR,2023-05-02 16:50:24.59,46.0898,11.115505,1.15,-170.25,3.64,null
SMAR,2023-05-02 16:50:24.619,46.0898,11.115505,0.94,-165.42,3.69,null
STON,2023-05-02 16:50:24.619,46.08981529166667,11.115563358333333,2.61551,61.824707,-0.191196,2
SMAR,2023-05-02 16:50:24.654,46.0898,11.115505,0.83,-160.87,3.81,null
SMAR,2023-05-02 16:50:24.688,46.0898,11.115505,0.64,-156.4,3.81,null
STON,2023-05-02 16:50:24.688,46.08981529166667,11.115563358333333,1.959646,109.309372,1.430142,2
SMAR,2023-05-02 16:50:24.72,46.0898,11.115505,0.4,-151.57,3.84,null
STON,2023-05-02 16:50:24.72,46.089815361666666,11.115563408333333,1.959646,109.309372,1.430142,2
SMAR,2023-05-02 16:50:24.763,46.0898,11.115505,0.26,-146.6,3.89,null
SMAR,2023-05-02 16:50:24.789,46.0898,11.115505,0.1,-141.98,3.76,null
SMAR,2023-05-02 16:50:24.82,46.0898,11.115505,0.08,-138.57,3.64,null
STON,2023-05-02 16:50:24.82,46.089815361666666,11.115563408333333,0.847319,139.46907,1.85702,2
SMAR,2023-05-02 16:50:24.855,46.0898,11.115505,0.04,-136.76,3.55,null
SMAR,2023-05-02 16:50:24.895,46.0898,11.115505,-0.01,-136.54,3.45,null
SMAR,2023-05-02 16:50:24.96,46.0898,11.115505,0.02,-137.16,3.38,null
SMAR,2023-05-02 16:50:24.981,46.0898,11.115505,0.03,-137.69,3.26,null
STON,2023-05-02 16:50:24.981,46.08981548,11.115563603333333,0.847319,139.46907,1.85702,2
SMAR,2023-05-02 16:50:25.009,46.0898,11.115505,0.1,-137.84,3.2,null
SMAR,2023-05-02 16:50:25.029,46.0898,11.115505,0.15,-137.62,3.11,null
STON,2023-05-02 16:50:25.029,46.08981548,11.115563603333333,0.468727,152.824081,1.362262,2
SMAR,2023-05-02 16:50:25.058,46.0898,11.115505,0.24,-137.56,3.02,null
SMAR,2023-05-02 16:50:25.093,46.0898,11.115505,0.28,-137.68,2.95,null
SMAR,2023-05-02 16:50:25.126,46.0898,11.115505,0.31,-137.88,2.92,null
STON,2023-05-02 16:50:25.126,46.089815646666665,11.115563718333334,0.468727,152.824081,1.362262,2
SMAR,2023-05-02 16:50:25.161,46.0898,11.115505,0.34,-138.22,2.84,null
SMAR,2023-05-02 16:50:25.194,46.0898,11.115505,0.31,-138.59,2.74,null
STON,2023-05-02 16:50:25.194,46.089815646666665,11.115563718333334,0.807361,152.189529,0.943333,2
SMAR,2023-05-02 16:50:25.225,46.0898,11.115505,0.27,-138.73,2.68,null
SMAR,2023-05-02 16:50:25.259,46.0898,11.115505,0.27,-138.64,2.6,null
SMAR,2023-05-02 16:50:25.293,46.0898,11.115505,0.27,-138.56,2.5,null
STON,2023-05-02 16:50:25.293,46.08981569666667,11.115563888333334,0.807361,152.189529,0.943333,2
SMAR,2023-05-02 16:50:25.325,46.0898,11.115505,0.26,-138.56,2.43,null
SMAR,2023-05-02 16:50:25.358,46.0898,11.115505,0.29,-138.62,2.37,null
STON,2023-05-02 16:50:25.358,46.08981569666667,11.115563888333334,0.802863,151.546539,0.444603,2
SMAR,2023-05-02 16:50:25.39,46.0898,11.115505,0.33,-138.69,2.3,null
SMAR,2023-05-02 16:50:25.425,46.0898,11.115505,0.36,-138.72,2.25,null
SMAR,2023-05-02 16:50:25.46,46.0898,11.115505,0.41,-138.74,2.2,null
SMAR,2023-05-02 16:50:25.497,46.0898,11.115505,0.45,-138.77,2.14,null
SMAR,2023-05-02 16:50:25.526,46.0898,11.115505,0.49,-138.76,2.08,null
SMAR,2023-05-02 16:50:25.556,46.0898,11.115505,0.52,-138.69,2.02,null
SMAR,2023-05-02 16:50:25.593,46.0898,11.115505,0.57,-138.66,1.94,null
STON,2023-05-02 16:50:25.593,46.08981582333333,11.115563993333334,0.802863,151.546539,0.444603,2
STON,2023-05-02 16:50:25.593,46.08981582333333,11.115563993333334,1.048615,151.358002,0.07251,2
SMAR,2023-05-02 16:50:25.623,46.0898,11.115505,0.61,-138.66,1.87,null
SMAR,2023-05-02 16:50:25.654,46.0898,11.115505,0.65,-138.59,1.78,null
SMAR,2023-05-02 16:50:25.688,46.0898,11.115505,0.72,-138.47,1.74,null
SMAR,2023-05-02 16:50:25.721,46.0898,11.115505,0.78,-138.38,1.72,null
STON,2023-05-02 16:50:25.721,46.089815935,11.115564078333334,1.048615,151.358002,0.07251,2
SMAR,2023-05-02 16:50:25.754,46.0898,11.115505,0.82,-138.38,1.66,null
SMAR,2023-05-02 16:50:25.788,46.0898,11.115505,0.86,-138.39,1.61,null
STON,2023-05-02 16:50:25.788,46.089815935,11.115564078333334,1.340001,151.720795,-0.312075,2
SMAR,2023-05-02 16:50:25.825,46.0898,11.115505,0.9,-138.35,1.57,null
SMAR,2023-05-02 16:50:25.856,46.0898,11.115505,0.93,-138.28,1.56,null
SMAR,2023-05-02 16:50:25.895,46.0898,11.115505,0.95,-138.28,1.51,null
STON,2023-05-02 16:50:25.895,46.089816025,11.115564146666667,1.340001,151.720795,-0.312075,2
SMAR,2023-05-02 16:50:25.938,46.0898,11.115505,0.97,-138.36,1.44,null
SMAR,2023-05-02 16:50:25.97,46.0898,11.115505,0.97,-138.44,1.42,null
SMAR,2023-05-02 16:50:26.001,46.0898,11.115505,0.97,-138.43,1.36,null
STON,2023-05-02 16:50:26.001,46.089816025,11.115564146666667,1.522015,151.706894,-0.600755,2
SMAR,2023-05-02 16:50:26.025,46.0898,11.115505,0.96,-138.25,1.32,null
SMAR,2023-05-02 16:50:26.069,46.0898,11.115505,0.96,-137.95,1.32,null
SMAR,2023-05-02 16:50:26.103,46.0898,11.115505,0.92,-137.59,1.32,null
SMAR,2023-05-02 16:50:26.136,46.0898,11.115505,0.87,-137.27,1.3,null
STON,2023-05-02 16:50:26.136,46.08981601666667,11.115564226666667,1.522015,151.706894,-0.600755,2
SMAR,2023-05-02 16:50:26.17,46.0898,11.115505,0.78,-136.83,1.31,null
SMAR,2023-05-02 16:50:26.202,46.0898,11.115505,0.7,-136.08,1.35,null
STON,2023-05-02 16:50:26.202,46.08981601666667,11.115564226666667,1.397825,152.843842,-0.738964,2
SMAR,2023-05-02 16:50:26.234,46.0898,11.115505,0.63,-134.75,1.4,null
SMAR,2023-05-02 16:50:26.268,46.0898,11.115505,0.58,-132.68,1.46,null
SMAR,2023-05-02 16:50:26.302,46.0898,11.115505,0.53,-129.46,1.54,null
SMAR,2023-05-02 16:50:26.336,46.0898,11.115505,0.52,-125.17,1.6,null
SMAR,2023-05-02 16:50:26.368,46.0898,11.115505,0.49,-120.11,1.65,null
STON,2023-05-02 16:50:26.368,46.089815825,11.115564211666667,1.397825,152.843842,-0.738964,2
SMAR,2023-05-02 16:50:26.393,46.0898,11.115505,0.47,-114.72,1.66,null
STON,2023-05-02 16:50:26.393,46.089815825,11.115564211666667,1.036918,165.372787,-0.414541,2
SMAR,2023-05-02 16:50:26.434,46.0898,11.115505,0.43,-108.47,1.65,null
SMAR,2023-05-02 16:50:26.466,46.0898,11.115505,0.53,-101.48,1.7,null
SMAR,2023-05-02 16:50:26.499,46.0898,11.115505,0.59,-93.94,1.81,null
SMAR,2023-05-02 16:50:26.534,46.0898,11.115505,0.72,-86.66,1.84,null
SMAR,2023-05-02 16:50:26.57,46.0898,11.115505,0.8,-80.1,1.93,null
SMAR,2023-05-02 16:50:26.599,46.0898,11.115505,0.83,-74.9,2.05,null
SMAR,2023-05-02 16:50:26.633,46.0898,11.115505,0.74,-70.45,2.16,null
SMAR,2023-05-02 16:50:26.667,46.0898,11.115505,0.71,-66.16,2.3,null
SMAR,2023-05-02 16:50:26.702,46.0898,11.115505,0.67,-61.54,2.39,null
SMAR,2023-05-02 16:50:26.733,46.0898,11.115505,0.62,-56.71,2.47,null
SMAR,2023-05-02 16:50:26.769,46.0898,11.115505,0.61,-52.16,2.57,null
SMAR,2023-05-02 16:50:26.801,46.0898,11.115505,0.58,-48.22,2.55,null
SMAR,2023-05-02 16:50:26.831,46.0898,11.115505,0.64,-45.4,2.52,null
SMAR,2023-05-02 16:50:26.864,46.0898,11.115505,0.59,-43.26,2.47,null
SMAR,2023-05-02 16:50:26.898,46.0898,11.115505,0.62,-41.71,2.45,null
SMAR,2023-05-02 16:50:26.933,46.0898,11.115505,0.66,-40.63,2.34,null
STON,2023-05-02 16:50:26.933,46.089815888333334,11.115564373333333,1.036918,165.372787,-0.414541,2
STON,2023-05-02 16:50:26.933,46.089815888333334,11.115564373333333,1.173838,-156.058289,-0.195628,2
STON,2023-05-02 16:50:26.933,46.089815951666665,11.115564415,1.173838,-156.058289,-0.195628,2
STON,2023-05-02 16:50:26.933,46.089815855,11.11556458,1.173838,-156.058289,-0.195628,2
SMAR,2023-05-02 16:50:26.965,46.0898,11.115505,0.65,-40.09,2.21,null
STON,2023-05-02 16:50:26.965,46.089815855,11.11556458,1.062682,-110.441681,0.226021,2
SMAR,2023-05-02 16:50:27.004,46.0898,11.115505,0.68,-40.31,2.11,null
SMAR,2023-05-02 16:50:27.036,46.0898,11.115505,0.65,-40.89,1.89,null
SMAR,2023-05-02 16:50:27.063,46.0898,11.115505,0.63,-41.42,1.78,null
SMAR,2023-05-02 16:50:27.096,46.0898,11.115505,0.64,-41.8,1.67,null
STON,2023-05-02 16:50:27.096,46.089815675,11.115564656666667,1.062682,-110.441681,0.226021,2
SMAR,2023-05-02 16:50:27.132,46.0898,11.115505,0.62,-42.1,1.51,null
SMAR,2023-05-02 16:50:27.165,46.0898,11.115505,0.62,-42.36,1.42,null
