Input,Time,Latitude,Longitude,Pitch,Yaw,Roll,Stonex_status
SMAR,2023-04-27 09:20:04.236,46.0655813,11.0970125,329.85,0.78,0.92,null
STON,2023-04-27 09:20:04.236,46.065613189,11.096892481166666,1.193944,118.379986,-0.203956,1
SMAR,2023-04-27 09:20:04.28,46.0655815,11.0970192,329.75,0.85,0.95,null
SMAR,2023-04-27 09:20:04.31,46.0655815,11.0970192,329.82,0.88,0.93,null
SMAR,2023-04-27 09:20:04.345,46.0655815,11.0970192,329.86,0.88,0.9,null
STON,2023-04-27 09:20:04.345,46.065612836166665,11.096892410166667,1.193944,118.379986,-0.203956,1
SMAR,2023-04-27 09:20:04.374,46.0655815,11.0970192,329.92,1.01,0.81,null
STON,2023-04-27 09:20:04.374,46.065612836166665,11.096892410166667,1.193944,118.379986,-0.203956,1
SMAR,2023-04-27 09:20:04.407,46.0655815,11.0970192,329.95,1.02,0.83,null
SMAR,2023-04-27 09:20:04.441,46.0655815,11.0970192,329.97,1.08,0.85,null
STON,2023-04-27 09:20:04.441,46.065612836166665,11.096892410166667,1.194304,118.392307,-0.203391,1
SMAR,2023-04-27 09:20:04.477,46.0655815,11.0970192,329.96,1.06,0.89,null
SMAR,2023-04-27 09:20:04.506,46.0655815,11.0970192,329.93,1.06,0.89,null
SMAR,2023-04-27 09:20:04.542,46.0655815,11.0970192,329.92,1.07,0.88,null
SMAR,2023-04-27 09:20:04.574,46.0655815,11.0970192,329.9,1.09,0.87,null
SMAR,2023-04-27 09:20:04.613,46.0655815,11.0970192,329.88,1.1,0.87,null
SMAR,2023-04-27 09:20:04.639,46.0655815,11.0970192,329.89,1.1,0.87,null
SMAR,2023-04-27 09:20:04.677,46.0655815,11.0970192,329.91,1.12,0.87,null
SMAR,2023-04-27 09:20:04.708,46.0655815,11.0970192,329.92,1.11,0.89,null
STON,2023-04-27 09:20:04.708,46.065612836166665,11.096892410166667,1.195967,118.387203,-0.204535,1
SMAR,2023-04-27 09:20:04.738,46.0655815,11.0970192,329.92,1.13,0.91,null
SMAR,2023-04-27 09:20:04.771,46.0655815,11.0970192,329.9,1.14,0.9,null
SMAR,2023-04-27 09:20:04.812,46.0655815,11.0970192,329.88,1.13,0.89,null
SMAR,2023-04-27 09:20:04.838,46.0655815,11.0970192,329.87,1.11,0.89,null
SMAR,2023-04-27 09:20:04.879,46.0655815,11.0970192,329.91,1.12,0.87,null
SMAR,2023-04-27 09:20:04.912,46.0655815,11.0970192,329.92,1.14,0.86,null
SMAR,2023-04-27 09:20:04.945,46.0655815,11.0970192,329.92,1.15,0.85,null
SMAR,2023-04-27 09:20:04.972,46.0655815,11.0970192,329.93,1.13,0.84,null
SMAR,2023-04-27 09:20:05.014,46.0655815,11.0970192,329.94,1.13,0.82,null
SMAR,2023-04-27 09:20:05.039,46.0655815,11.0970192,329.95,1.16,0.8,null
SMAR,2023-04-27 09:20:05.075,46.0655815,11.0970192,329.95,1.15,0.8,null
SMAR,2023-04-27 09:20:05.113,46.0655815,11.0970192,329.95,1.12,0.79,null
STON,2023-04-27 09:20:05.113,46.065612836166665,11.096892410166667,1.19521,118.411663,-0.20162,1
SMAR,2023-04-27 09:20:05.147,46.0655815,11.0970192,329.93,1.07,0.79,null
SMAR,2023-04-27 09:20:05.181,46.0655815,11.0970192,329.92,1.06,0.76,null
STON,2023-04-27 09:20:05.181,46.065612836166665,11.096892410166667,1.195718,118.4161,-0.20293,1
SMAR,2023-04-27 09:20:05.215,46.0655815,11.0970192,329.94,1.1,0.72,null
SMAR,2023-04-27 09:20:05.239,46.0655817,11.0970205,329.98,1.12,0.68,null
SMAR,2023-04-27 09:20:05.28,46.0655817,11.0970205,330.0,1.12,0.66,null
STON,2023-04-27 09:20:05.28,46.065612836166665,11.096892410166667,1.199,118.379238,-0.203001,1
SMAR,2023-04-27 09:20:05.311,46.0655817,11.0970205,330.0,1.07,0.66,null
SMAR,2023-04-27 09:20:05.348,46.0655817,11.0970205,329.99,1.04,0.68,null
STON,2023-04-27 09:20:05.348,46.065612471,11.0968923445,1.199,118.379238,-0.203001,1
STON,2023-04-27 09:20:05.348,46.065612471,11.0968923445,1.199,118.379238,-0.203001,1
SMAR,2023-04-27 09:20:05.383,46.0655817,11.0970205,329.99,1.06,0.67,null
SMAR,2023-04-27 09:20:05.41,46.0655817,11.0970205,329.99,1.05,0.66,null
SMAR,2023-04-27 09:20:05.443,46.0655817,11.0970205,329.98,0.99,0.65,null
SMAR,2023-04-27 09:20:05.484,46.0655817,11.0970205,329.95,0.97,0.65,null
STON,2023-04-27 09:20:05.484,46.065612471,11.0968923445,1.194857,118.387043,-0.201776,1
SMAR,2023-04-27 09:20:05.517,46.0655817,11.0970205,329.99,0.97,0.64,null
SMAR,2023-04-27 09:20:05.545,46.0655817,11.0970205,330.02,0.96,0.63,null
SMAR,2023-04-27 09:20:05.575,46.0655817,11.0970205,330.01,0.95,0.61,null
SMAR,2023-04-27 09:20:05.615,46.0655817,11.0970205,330.03,0.94,0.62,null
SMAR,2023-04-27 09:20:05.643,46.0655817,11.0970205,330.05,0.92,0.63,null
SMAR,2023-04-27 09:20:05.677,46.0655817,11.0970205,330.04,0.9,0.64,null
SMAR,2023-04-27 09:20:05.711,46.0655817,11.0970205,330.05,0.87,0.66,null
STON,2023-04-27 09:20:05.711,46.065612471,11.0968923445,1.194136,118.401104,-0.204527,1
SMAR,2023-04-27 09:20:05.746,46.0655817,11.0970205,330.09,0.86,0.66,null
SMAR,2023-04-27 09:20:05.78,46.0655817,11.0970205,330.09,0.87,0.65,null
SMAR,2023-04-27 09:20:05.813,46.0655817,11.0970205,330.06,0.84,0.66,null
SMAR,2023-04-27 09:20:05.84,46.0655817,11.0970205,330.04,0.8,0.69,null
SMAR,2023-04-27 09:20:05.874,46.0655817,11.0970205,330.04,0.79,0.7,null
STON,2023-04-27 09:20:05.874,46.065612471,11.0968923445,1.192929,118.423485,-0.201621,1
SMAR,2023-04-27 09:20:05.91,46.0655817,11.0970205,330.04,0.79,0.69,null
SMAR,2023-04-27 09:20:05.947,46.0655817,11.0970205,330.06,0.79,0.69,null
SMAR,2023-04-27 09:20:05.978,46.0655817,11.0970205,330.11,0.82,0.68,null
SMAR,2023-04-27 09:20:06.014,46.0655817,11.0970205,330.11,0.83,0.67,null
SMAR,2023-04-27 09:20:06.052,46.0655817,11.0970205,330.1,0.75,0.69,null
SMAR,2023-04-27 09:20:06.085,46.0655817,11.0970205,330.09,0.74,0.69,null
STON,2023-04-27 09:20:06.085,46.065612471,11.0968923445,1.194789,118.413315,-0.197162,1
SMAR,2023-04-27 09:20:06.117,46.0655817,11.0970205,330.07,0.78,0.67,null
SMAR,2023-04-27 09:20:06.148,46.0655817,11.0970205,330.09,0.77,0.67,null
SMAR,2023-04-27 09:20:06.184,46.0655817,11.0970205,330.09,0.77,0.65,null
SMAR,2023-04-27 09:20:06.212,46.0655817,11.0970205,330.09,0.77,0.65,null
SMAR,2023-04-27 09:20:06.244,46.0655817,11.0970205,330.11,0.79,0.64,null
SMAR,2023-04-27 09:20:06.284,46.0655831,11.0970219,330.12,0.82,0.63,null
STON,2023-04-27 09:20:06.284,46.065612471,11.0968923445,1.195694,118.36377,-0.197018,1
SMAR,2023-04-27 09:20:06.311,46.0655831,11.0970219,330.13,0.83,0.63,null
SMAR,2023-04-27 09:20:06.347,46.0655831,11.0970219,330.17,0.86,0.62,null
STON,2023-04-27 09:20:06.347,46.06561206766666,11.096892216833334,1.195694,118.36377,-0.197018,1
SMAR,2023-04-27 09:20:06.38,46.0655831,11.0970219,330.21,0.93,0.57,null
STON,2023-04-27 09:20:06.38,46.06561206766666,11.096892216833334,1.195694,118.36377,-0.197018,1
SMAR,2023-04-27 09:20:06.412,46.0655831,11.0970219,330.22,0.99,0.55,null
SMAR,2023-04-27 09:20:06.449,46.0655831,11.0970219,330.22,1.0,0.55,null
SMAR,2023-04-27 09:20:06.49,46.0655831,11.0970219,330.2,1.0,0.55,null
SMAR,2023-04-27 09:20:06.517,46.0655831,11.0970219,330.17,0.99,0.55,null
STON,2023-04-27 09:20:06.517,46.06561206766666,11.096892216833334,1.194508,118.426353,-0.197768,1
SMAR,2023-04-27 09:20:06.543,46.0655831,11.0970219,330.16,1.01,0.55,null
SMAR,2023-04-27 09:20:06.583,46.0655831,11.0970219,330.15,1.05,0.53,null
SMAR,2023-04-27 09:20:06.617,46.0655831,11.0970219,330.16,1.06,0.52,null
SMAR,2023-04-27 09:20:06.645,46.0655831,11.0970219,330.16,1.11,0.53,null
SMAR,2023-04-27 09:20:06.681,46.0655831,11.0970219,330.14,1.17,0.52,null
SMAR,2023-04-27 09:20:06.711,46.0655831,11.0970219,330.13,1.21,0.47,null
SMAR,2023-04-27 09:20:06.749,46.0655831,11.0970219,330.1,1.31,0.42,null
STON,2023-04-27 09:20:06.749,46.06561206766666,11.096892216833334,1.194427,118.443291,-0.197018,1
SMAR,2023-04-27 09:20:06.778,46.0655831,11.0970219,330.11,1.42,0.39,null
SMAR,2023-04-27 09:20:06.82,46.0655831,11.0970219,330.1,1.58,0.35,null
SMAR,2023-04-27 09:20:06.851,46.0655831,11.0970219,330.11,1.65,0.33,null
SMAR,2023-04-27 09:20:06.895,46.0655831,11.0970219,330.13,1.66,0.33,null
STON,2023-04-27 09:20:06.895,46.06561206766666,11.096892216833334,1.190953,118.489429,-0.195303,1
SMAR,2023-04-27 09:20:06.938,46.0655831,11.0970219,330.13,1.68,0.32,null
SMAR,2023-04-27 09:20:06.955,46.0655831,11.0970219,330.17,1.73,0.31,null
SMAR,2023-04-27 09:20:06.991,46.0655831,11.0970219,330.16,1.76,0.31,null
SMAR,2023-04-27 09:20:07.035,46.0655831,11.0970219,330.11,1.77,0.33,null
SMAR,2023-04-27 09:20:07.052,46.0655831,11.0970219,330.08,1.79,0.33,null
SMAR,2023-04-27 09:20:07.078,46.0655831,11.0970219,330.07,1.84,0.32,null
SMAR,2023-04-27 09:20:07.12,46.0655831,11.0970219,330.03,1.92,0.29,null
SMAR,2023-04-27 09:20:07.152,46.0655831,11.0970219,330.0,2.01,0.27,null
STON,2023-04-27 09:20:07.152,46.06561206766666,11.096892216833334,1.189944,118.471462,-0.194524,1
SMAR,2023-04-27 09:20:07.186,46.0655831,11.0970219,329.96,2.05,0.28,null
SMAR,2023-04-27 09:20:07.22,46.0655831,11.0970219,329.89,2.1,0.25,null
SMAR,2023-04-27 09:20:07.251,46.0655831,11.0970219,329.81,2.15,0.23,null
SMAR,2023-04-27 09:20:07.283,46.0655805,11.0970176,329.79,2.15,0.26,null
SMAR,2023-04-27 09:20:07.311,46.0655805,11.0970176,329.78,2.17,0.28,null
STON,2023-04-27 09:20:07.311,46.06561206766666,11.096892216833334,1.189577,118.487915,-0.193396,1
SMAR,2023-04-27 09:20:07.353,46.0655805,11.0970176,329.8,2.21,0.26,null
SMAR,2023-04-27 09:20:07.383,46.0655805,11.0970176,329.82,2.25,0.22,null
SMAR,2023-04-27 09:20:07.421,46.0655805,11.0970176,329.81,2.3,0.18,null
SMAR,2023-04-27 09:20:07.452,46.0655805,11.0970176,329.8,2.31,0.16,null
SMAR,2023-04-27 09:20:07.485,46.0655805,11.0970176,329.8,2.34,0.17,null
STON,2023-04-27 09:20:07.485,46.065611687,11.096892074833333,1.189577,118.487915,-0.193396,1
STON,2023-04-27 09:20:07.485,46.065611687,11.096892074833333,1.189577,118.487915,-0.193396,1
STON,2023-04-27 09:20:07.485,46.065611687,11.096892074833333,1.187805,118.432732,-0.195961,1
SMAR,2023-04-27 09:20:07.512,46.0655805,11.0970176,329.8,2.37,0.17,null
SMAR,2023-04-27 09:20:07.543,46.0655805,11.0970176,329.79,2.39,0.17,null
SMAR,2023-04-27 09:20:07.579,46.06558,11.0970168,329.79,2.42,0.17,null
SMAR,2023-04-27 09:20:07.615,46.06558,11.0970168,329.8,2.45,0.19,null
SMAR,2023-04-27 09:20:07.646,46.06558,11.0970168,329.81,2.45,0.2,null
SMAR,2023-04-27 09:20:07.685,46.06558,11.0970168,329.8,2.46,0.2,null
SMAR,2023-04-27 09:20:07.714,46.06558,11.0970168,329.78,2.46,0.2,null
SMAR,2023-04-27 09:20:07.75,46.06558,11.0970168,329.77,2.45,0.22,null
STON,2023-04-27 09:20:07.75,46.065611687,11.096892074833333,1.185581,118.3894,-0.195294,1
SMAR,2023-04-27 09:20:07.786,46.06558,11.0970168,329.75,2.45,0.23,null
SMAR,2023-04-27 09:20:07.815,46.06558,11.0970168,329.76,2.44,0.22,null
SMAR,2023-04-27 09:20:07.849,46.06558,11.0970168,329.75,2.41,0.21,null
SMAR,2023-04-27 09:20:07.882,46.06558,11.0970168,329.72,2.4,0.24,null
STON,2023-04-27 09:20:07.882,46.065611687,11.096892074833333,1.186616,118.439369,-0.196917,1
SMAR,2023-04-27 09:20:07.915,46.06558,11.0970168,329.72,2.41,0.25,null
SMAR,2023-04-27 09:20:07.955,46.06558,11.0970168,329.72,2.36,0.23,null
SMAR,2023-04-27 09:20:07.987,46.06558,11.0970168,329.74,2.34,0.2,null
SMAR,2023-04-27 09:20:08.022,46.06558,11.0970168,329.74,2.35,0.21,null
SMAR,2023-04-27 09:20:08.056,46.06558,11.0970168,329.73,2.33,0.24,null
SMAR,2023-04-27 09:20:08.09,46.06558,11.0970168,329.74,2.3,0.24,null
SMAR,2023-04-27 09:20:08.125,46.06558,11.0970168,329.74,2.29,0.22,null
SMAR,2023-04-27 09:20:08.151,46.06558,11.0970168,329.75,2.28,0.2,null
STON,2023-04-27 09:20:08.151,46.065611687,11.096892074833333,1.182689,118.462749,-0.195184,1
SMAR,2023-04-27 09:20:08.188,46.06558,11.0970168,329.78,2.28,0.19,null
SMAR,2023-04-27 09:20:08.223,46.06558,11.0970168,329.77,2.28,0.19,null
SMAR,2023-04-27 09:20:08.253,46.06558,11.0970168,329.77,2.24,0.2,null
SMAR,2023-04-27 09:20:08.288,46.0655798,11.0970165,329.76,2.22,0.18,null
SMAR,2023-04-27 09:20:08.315,46.0655798,11.0970165,329.74,2.21,0.17,null
SMAR,2023-04-27 09:20:08.351,46.0655798,11.0970165,329.75,2.21,0.17,null
SMAR,2023-04-27 09:20:08.38,46.0655798,11.0970165,329.74,2.19,0.16,null
STON,2023-04-27 09:20:08.38,46.065611687,11.096892074833333,1.182533,118.449772,-0.196128,1
STON,2023-04-27 09:20:08.38,46.065611309,11.096891906833333,1.182533,118.449772,-0.196128,1
STON,2023-04-27 09:20:08.38,46.065611309,11.096891906833333,1.182533,118.449772,-0.196128,1
SMAR,2023-04-27 09:20:08.414,46.0655798,11.0970165,329.72,2.17,0.15,null
SMAR,2023-04-27 09:20:08.451,46.0655798,11.0970165,329.72,2.13,0.16,null
SMAR,2023-04-27 09:20:08.487,46.0655798,11.0970165,329.74,2.14,0.16,null
STON,2023-04-27 09:20:08.487,46.065611309,11.096891906833333,1.183689,118.46664,-0.196561,1
SMAR,2023-04-27 09:20:08.521,46.0655798,11.0970165,329.78,2.14,0.18,null
SMAR,2023-04-27 09:20:08.558,46.0655798,11.0970165,329.79,2.12,0.22,null
SMAR,2023-04-27 09:20:08.591,46.0655798,11.0970165,329.8,2.09,0.25,null
SMAR,2023-04-27 09:20:08.629,46.0655798,11.0970165,329.83,2.07,0.27,null
SMAR,2023-04-27 09:20:08.663,46.0655798,11.0970165,329.85,2.04,0.29,null
SMAR,2023-04-27 09:20:08.692,46.0655798,11.0970165,329.84,2.01,0.3,null
SMAR,2023-04-27 09:20:08.726,46.0655798,11.0970165,329.86,1.99,0.3,null
SMAR,2023-04-27 09:20:08.762,46.0655798,11.0970165,329.88,1.99,0.32,null
STON,2023-04-27 09:20:08.762,46.065611309,11.096891906833333,1.182963,118.401516,-0.197301,1
SMAR,2023-04-27 09:20:08.789,46.0655798,11.0970165,329.9,2.01,0.31,null
SMAR,2023-04-27 09:20:08.818,46.0655798,11.0970165,329.93,2.01,0.33,null
SMAR,2023-04-27 09:20:08.851,46.0655798,11.0970165,329.93,2.01,0.36,null
SMAR,2023-04-27 09:20:08.89,46.0655798,11.0970165,329.94,2.01,0.39,null
SMAR,2023-04-27 09:20:08.92,46.0655798,11.0970165,329.93,2.02,0.4,null
SMAR,2023-04-27 09:20:08.955,46.0655798,11.0970165,329.91,2.03,0.39,null
SMAR,2023-04-27 09:20:08.985,46.0655798,11.0970165,329.88,2.01,0.4,null
SMAR,2023-04-27 09:20:09.021,46.0655798,11.0970165,329.87,1.98,0.43,null
SMAR,2023-04-27 09:20:09.049,46.0655798,11.0970165,329.87,2.0,0.43,null
STON,2023-04-27 09:20:09.049,46.065611309,11.096891906833333,1.18214,118.385719,-0.195866,1
STON,2023-04-27 09:20:09.049,46.065611309,11.096891906833333,1.181964,118.393532,-0.194176,1
SMAR,2023-04-27 09:20:09.082,46.0655798,11.0970165,329.88,1.99,0.42,null
SMAR,2023-04-27 09:20:09.119,46.0655798,11.0970165,329.88,1.99,0.39,null
SMAR,2023-04-27 09:20:09.153,46.0655798,11.0970165,329.89,2.0,0.37,null
SMAR,2023-04-27 09:20:09.194,46.0655798,11.0970165,329.87,2.01,0.37,null
SMAR,2023-04-27 09:20:09.22,46.0655798,11.0970165,329.85,2.01,0.38,null
SMAR,2023-04-27 09:20:09.255,46.0655798,11.0970165,329.88,1.99,0.39,null
SMAR,2023-04-27 09:20:09.282,46.0655799,11.0970165,329.89,1.98,0.38,null
STON,2023-04-27 09:20:09.282,46.065611309,11.096891906833333,1.180131,118.41428400000001,-0.192744,1
SMAR,2023-04-27 09:20:09.315,46.0655799,11.0970165,329.93,2.0,0.36,null
SMAR,2023-04-27 09:20:09.352,46.0655799,11.0970165,329.92,2.01,0.36,null
STON,2023-04-27 09:20:09.352,46.06561088416667,11.096891696833334,1.180131,118.41428400000001,-0.192744,1
STON,2023-04-27 09:20:09.352,46.06561088416667,11.096891696833334,1.180131,118.41428400000001,-0.192744,1
SMAR,2023-04-27 09:20:09.393,46.0655799,11.0970165,329.89,1.99,0.38,null
SMAR,2023-04-27 09:20:09.43,46.0655799,11.0970165,329.88,1.97,0.39,null
SMAR,2023-04-27 09:20:09.455,46.0655799,11.0970165,329.88,1.98,0.38,null
SMAR,2023-04-27 09:20:09.486,46.0655799,11.0970165,329.87,2.0,0.36,null
STON,2023-04-27 09:20:09.486,46.06561088416667,11.096891696833334,1.178322,118.384804,-0.194224,1
SMAR,2023-04-27 09:20:09.515,46.0655799,11.0970165,329.86,1.98,0.38,null
SMAR,2023-04-27 09:20:09.555,46.0655799,11.0970165,329.85,1.98,0.37,null
SMAR,2023-04-27 09:20:09.591,46.0655799,11.0970165,329.82,1.99,0.35,null
SMAR,2023-04-27 09:20:09.623,46.0655799,11.0970165,329.8,1.98,0.34,null
SMAR,2023-04-27 09:20:09.651,46.0655799,11.0970165,329.79,2.0,0.35,null
SMAR,2023-04-27 09:20:09.688,46.0655799,11.0970166,329.76,2.05,0.33,null
SMAR,2023-04-27 09:20:09.717,46.0655799,11.0970166,329.75,2.04,0.32,null
STON,2023-04-27 09:20:09.717,46.06561088416667,11.096891696833334,1.179123,118.384758,-0.192505,1
SMAR,2023-04-27 09:20:09.751,46.0655799,11.0970166,329.73,2.05,0.31,null
SMAR,2023-04-27 09:20:09.79,46.0655799,11.0970166,329.72,2.07,0.31,null
SMAR,2023-04-27 09:20:09.826,46.0655799,11.0970166,329.73,2.05,0.32,null
SMAR,2023-04-27 09:20:09.858,46.0655799,11.0970166,329.73,2.06,0.3,null
SMAR,2023-04-27 09:20:09.892,46.0655799,11.0970166,329.7,2.06,0.31,null
SMAR,2023-04-27 09:20:09.922,46.0655799,11.0970166,329.71,2.07,0.31,null
STON,2023-04-27 09:20:09.922,46.06561088416667,11.096891696833334,1.176738,118.322536,-0.192978,1
SMAR,2023-04-27 09:20:09.96,46.0655799,11.0970166,329.72,2.09,0.3,null
SMAR,2023-04-27 09:20:09.989,46.0655799,11.0970166,329.69,2.1,0.29,null
SMAR,2023-04-27 09:20:10.026,46.0655799,11.0970166,329.68,2.09,0.3,null
SMAR,2023-04-27 09:20:10.056,46.0655799,11.0970166,329.68,2.11,0.29,null
SMAR,2023-04-27 09:20:10.093,46.0655799,11.0970166,329.69,2.12,0.28,null
SMAR,2023-04-27 09:20:10.121,46.0655799,11.0970166,329.68,2.09,0.3,null
SMAR,2023-04-27 09:20:10.161,46.0655799,11.0970166,329.68,2.09,0.32,null
SMAR,2023-04-27 09:20:10.187,46.0655799,11.0970166,329.68,2.1,0.32,null
STON,2023-04-27 09:20:10.187,46.06561088416667,11.096891696833334,1.177477,118.346767,-0.189668,1
SMAR,2023-04-27 09:20:10.226,46.0655799,11.0970166,329.67,2.1,0.28,null
SMAR,2023-04-27 09:20:10.252,46.0655799,11.0970166,329.66,2.11,0.25,null
SMAR,2023-04-27 09:20:10.29,46.06558,11.0970166,329.67,2.13,0.24,null
SMAR,2023-04-27 09:20:10.329,46.06558,11.0970166,329.69,2.13,0.25,null
SMAR,2023-04-27 09:20:10.357,46.06558,11.0970166,329.68,2.13,0.24,null
SMAR,2023-04-27 09:20:10.389,46.06558,11.0970166,329.67,2.12,0.24,null
SMAR,2023-04-27 09:20:10.429,46.06558,11.0970166,329.69,2.13,0.23,null
SMAR,2023-04-27 09:20:10.46,46.06558,11.0970166,329.7,2.13,0.22,null
SMAR,2023-04-27 09:20:10.492,46.06558,11.0970166,329.66,2.13,0.22,null
SMAR,2023-04-27 09:20:10.521,46.06558,11.0970166,329.66,2.09,0.24,null
SMAR,2023-04-27 09:20:10.558,46.06558,11.0970166,329.67,2.09,0.23,null
SMAR,2023-04-27 09:20:10.593,46.06558,11.0970166,329.67,2.11,0.21,null
SMAR,2023-04-27 09:20:10.63,46.06558,11.0970166,329.66,2.09,0.22,null
SMAR,2023-04-27 09:20:10.659,46.06558,11.0970166,329.67,2.09,0.23,null
STON,2023-04-27 09:20:10.659,46.06561088416667,11.096891696833334,1.177957,118.373875,-0.193054,1
SMAR,2023-04-27 09:20:10.69,46.06558,11.0970166,329.68,2.1,0.22,null
SMAR,2023-04-27 09:20:10.72,46.06558,11.0970166,329.68,2.1,0.21,null
STON,2023-04-27 09:20:10.72,46.065610490333334,11.096891446833334,1.177957,118.373875,-0.193054,1
STON,2023-04-27 09:20:10.72,46.065610490333334,11.096891446833334,1.177957,118.373875,-0.193054,1
SMAR,2023-04-27 09:20:10.758,46.06558,11.0970166,329.67,2.1,0.21,null
STON,2023-04-27 09:20:10.758,46.065610490333334,11.096891446833334,1.178341,118.380638,-0.190644,1
STON,2023-04-27 09:20:10.758,46.065610490333334,11.096891446833334,1.177273,118.363663,-0.191156,1
SMAR,2023-04-27 09:20:10.794,46.06558,11.0970166,329.67,2.11,0.2,null
SMAR,2023-04-27 09:20:10.83,46.06558,11.0970166,329.67,2.13,0.19,null
SMAR,2023-04-27 09:20:10.855,46.06558,11.0970166,329.66,2.12,0.19,null
STON,2023-04-27 09:20:10.855,46.065610490333334,11.096891446833334,1.176173,118.42604399999999,-0.189978,1
SMAR,2023-04-27 09:20:10.892,46.06558,11.0970166,329.65,2.12,0.19,null
SMAR,2023-04-27 09:20:10.925,46.06558,11.0970166,329.62,2.12,0.2,null
SMAR,2023-04-27 09:20:10.957,46.06558,11.0970166,329.63,2.1,0.21,null
SMAR,2023-04-27 09:20:10.992,46.06558,11.0970166,329.64,2.14,0.2,null
SMAR,2023-04-27 09:20:11.03,46.06558,11.0970166,329.62,2.16,0.2,null
SMAR,2023-04-27 09:20:11.057,46.06558,11.0970166,329.62,2.14,0.22,null
SMAR,2023-04-27 09:20:11.096,46.06558,11.0970166,329.62,2.12,0.24,null
SMAR,2023-04-27 09:20:11.122,46.06558,11.0970166,329.59,2.17,0.24,null
STON,2023-04-27 09:20:11.122,46.065610490333334,11.096891446833334,1.17391,118.350693,-0.194322,1
SMAR,2023-04-27 09:20:11.162,46.06558,11.0970166,329.59,2.2,0.23,null
SMAR,2023-04-27 09:20:11.196,46.06558,11.0970166,329.63,2.17,0.22,null
SMAR,2023-04-27 09:20:11.231,46.06558,11.0970166,329.63,2.21,0.18,null
SMAR,2023-04-27 09:20:11.265,46.06558,11.0970166,329.62,2.27,0.16,null
SMAR,2023-04-27 09:20:11.296,46.06558,11.0970167,329.61,2.24,0.2,null
SMAR,2023-04-27 09:20:11.325,46.06558,11.0970167,329.6,2.23,0.21,null
SMAR,2023-04-27 09:20:11.362,46.06558,11.0970167,329.61,2.26,0.18,null
SMAR,2023-04-27 09:20:11.397,46.06558,11.0970167,329.59,2.27,0.17,null
SMAR,2023-04-27 09:20:11.424,46.06558,11.0970167,329.58,2.25,0.19,null
STON,2023-04-27 09:20:11.424,46.065610490333334,11.096891446833334,1.172962,118.277424,-0.19482,1
SMAR,2023-04-27 09:20:11.456,46.06558,11.0970167,329.59,2.26,0.19,null
SMAR,2023-04-27 09:20:11.499,46.06558,11.0970167,329.58,2.26,0.21,null
SMAR,2023-04-27 09:20:11.529,46.06558,11.0970167,329.57,2.25,0.22,null
STON,2023-04-27 09:20:11.529,46.06561010483333,11.096891148166666,1.172962,118.277424,-0.19482,1
STON,2023-04-27 09:20:11.529,46.06561010483333,11.096891148166666,1.172962,118.277424,-0.19482,1
STON,2023-04-27 09:20:11.529,46.06561010483333,11.096891148166666,1.173588,118.25111799999999,-0.196773,1
SMAR,2023-04-27 09:20:11.562,46.06558,11.0970167,329.54,2.23,0.24,null
SMAR,2023-04-27 09:20:11.59,46.06558,11.0970167,329.54,2.24,0.23,null
SMAR,2023-04-27 09:20:11.63,46.06558,11.0970167,329.53,2.24,0.21,null
SMAR,2023-04-27 09:20:11.665,46.06558,11.0970167,329.52,2.21,0.2,null
SMAR,2023-04-27 09:20:11.691,46.06558,11.0970167,329.54,2.19,0.19,null
SMAR,2023-04-27 09:20:11.73,46.06558,11.0970167,329.57,2.22,0.16,null
SMAR,2023-04-27 09:20:11.756,46.06558,11.0970167,329.57,2.24,0.15,null
SMAR,2023-04-27 09:20:11.791,46.06558,11.0970167,329.58,2.22,0.15,null
SMAR,2023-04-27 09:20:11.825,46.06558,11.0970167,329.59,2.21,0.13,null
STON,2023-04-27 09:20:11.825,46.06561010483333,11.096891148166666,1.173247,118.28117,-0.199343,1
SMAR,2023-04-27 09:20:11.861,46.06558,11.0970167,329.61,2.21,0.13,null
SMAR,2023-04-27 09:20:11.898,46.06558,11.0970167,329.62,2.2,0.14,null
SMAR,2023-04-27 09:20:11.93,46.06558,11.0970167,329.64,2.19,0.14,null
SMAR,2023-04-27 09:20:11.969,46.06558,11.0970167,329.63,2.18,0.13,null
SMAR,2023-04-27 09:20:11.998,46.06558,11.0970167,329.61,2.14,0.12,null
STON,2023-04-27 09:20:11.998,46.06561010483333,11.096891148166666,1.172086,118.25647000000001,-0.201015,1
SMAR,2023-04-27 09:20:12.031,46.06558,11.0970167,329.61,2.15,0.14,null
SMAR,2023-04-27 09:20:12.063,46.06558,11.0970167,329.64,2.16,0.13,null
SMAR,2023-04-27 09:20:12.092,46.06558,11.0970167,329.64,2.13,0.09,null
SMAR,2023-04-27 09:20:12.126,46.06558,11.0970167,329.63,2.12,0.07,null
SMAR,2023-04-27 09:20:12.161,46.06558,11.0970167,329.63,2.11,0.08,null
STON,2023-04-27 09:20:12.161,46.06561010483333,11.096891148166666,1.171105,118.278145,-0.200966,1
SMAR,2023-04-27 09:20:12.191,46.06558,11.0970167,329.63,2.1,0.08,null
SMAR,2023-04-27 09:20:12.232,46.06558,11.0970167,329.6,2.11,0.07,null
SMAR,2023-04-27 09:20:12.266,46.06558,11.0970167,329.61,2.07,0.08,null
SMAR,2023-04-27 09:20:12.304,46.06558,11.0970167,329.66,2.07,0.07,null
SMAR,2023-04-27 09:20:12.335,46.06558,11.0970167,329.67,2.12,0.05,null
SMAR,2023-04-27 09:20:12.369,46.06558,11.0970167,329.63,2.09,0.06,null
STON,2023-04-27 09:20:12.369,46.06561010483333,11.096891148166666,1.170764,118.245853,-0.201577,1
SMAR,2023-04-27 09:20:12.403,46.06558,11.0970167,329.62,2.04,0.09,null
SMAR,2023-04-27 09:20:12.439,46.06558,11.0970167,329.63,2.05,0.08,null
SMAR,2023-04-27 09:20:12.474,46.06558,11.0970167,329.63,2.08,0.06,null
SMAR,2023-04-27 09:20:12.501,46.06558,11.0970167,329.63,2.07,0.07,null
SMAR,2023-04-27 09:20:12.528,46.06558,11.0970167,329.63,2.04,0.08,null
SMAR,2023-04-27 09:20:12.558,46.06558,11.0970167,329.65,2.02,0.08,null
SMAR,2023-04-27 09:20:12.598,46.06558,11.0970167,329.66,2.03,0.07,null
STON,2023-04-27 09:20:12.598,46.0656097405,11.096890857,1.170764,118.245853,-0.201577,1
SMAR,2023-04-27 09:20:12.63,46.06558,11.0970167,329.65,2.02,0.08,null
STON,2023-04-27 09:20:12.63,46.0656097405,11.096890857,1.170764,118.245853,-0.201577,1
STON,2023-04-27 09:20:12.63,46.0656097405,11.096890857,1.169685,118.291225,-0.202544,1
SMAR,2023-04-27 09:20:12.665,46.06558,11.0970167,329.67,2.0,0.09,null
SMAR,2023-04-27 09:20:12.698,46.06558,11.0970167,329.67,2.01,0.07,null
STON,2023-04-27 09:20:12.698,46.0656097405,11.096890857,1.171075,118.262131,-0.20199,1
SMAR,2023-04-27 09:20:12.729,46.06558,11.0970167,329.68,2.01,0.06,null
SMAR,2023-04-27 09:20:12.766,46.06558,11.0970167,329.67,2.01,0.06,null
SMAR,2023-04-27 09:20:12.797,46.06558,11.0970167,329.65,2.01,0.07,null
SMAR,2023-04-27 09:20:12.839,46.06558,11.0970167,329.66,2.0,0.06,null
SMAR,2023-04-27 09:20:12.865,46.06558,11.0970167,329.63,2.01,0.05,null
SMAR,2023-04-27 09:20:12.897,46.06558,11.0970167,329.61,1.99,0.06,null
SMAR,2023-04-27 09:20:12.936,46.06558,11.0970167,329.64,1.98,0.07,null
SMAR,2023-04-27 09:20:12.959,46.06558,11.0970167,329.65,2.02,0.05,null
STON,2023-04-27 09:20:12.959,46.0656097405,11.096890857,1.172717,118.262009,-0.202348,1
SMAR,2023-04-27 09:20:12.995,46.06558,11.0970167,329.64,2.02,0.04,null
SMAR,2023-04-27 09:20:13.034,46.06558,11.0970167,329.63,1.98,0.06,null
SMAR,2023-04-27 09:20:13.067,46.06558,11.0970167,329.62,2.0,0.04,null
SMAR,2023-04-27 09:20:13.096,46.06558,11.0970167,329.63,2.01,0.03,null
SMAR,2023-04-27 09:20:13.128,46.06558,11.0970167,329.62,1.99,0.05,null
SMAR,2023-04-27 09:20:13.168,46.06558,11.0970167,329.62,1.98,0.06,null
STON,2023-04-27 09:20:13.168,46.0656097405,11.096890857,1.172012,118.233475,-0.202894,1
SMAR,2023-04-27 09:20:13.197,46.06558,11.0970167,329.64,1.98,0.05,null
SMAR,2023-04-27 09:20:13.233,46.06558,11.0970167,329.63,1.95,0.05,null
SMAR,2023-04-27 09:20:13.261,46.06558,11.0970167,329.61,1.95,0.09,null
SMAR,2023-04-27 09:20:13.304,46.06558,11.0970167,329.62,1.93,0.11,null
SMAR,2023-04-27 09:20:13.331,46.06558,11.0970167,329.64,1.93,0.07,null
STON,2023-04-27 09:20:13.331,46.0656097405,11.096890857,1.171766,118.264385,-0.203323,1
SMAR,2023-04-27 09:20:13.371,46.06558,11.0970167,329.65,1.95,0.03,null
SMAR,2023-04-27 09:20:13.403,46.06558,11.0970167,329.66,1.95,0.05,null
SMAR,2023-04-27 09:20:13.44,46.06558,11.0970167,329.66,1.96,0.06,null
STON,2023-04-27 09:20:13.44,46.06560940283333,11.096890458166667,1.171766,118.264385,-0.203323,1
STON,2023-04-27 09:20:13.44,46.06560940283333,11.096890458166667,1.171766,118.264385,-0.203323,1
SMAR,2023-04-27 09:20:13.465,46.06558,11.0970167,329.65,1.94,0.07,null
SMAR,2023-04-27 09:20:13.501,46.06558,11.0970167,329.65,1.93,0.07,null
SMAR,2023-04-27 09:20:13.532,46.06558,11.0970167,329.68,1.95,0.06,null
STON,2023-04-27 09:20:13.532,46.06560940283333,11.096890458166667,1.169487,118.267601,-0.200847,1
SMAR,2023-04-27 09:20:13.567,46.06558,11.0970167,329.69,1.98,0.03,null
SMAR,2023-04-27 09:20:13.594,46.06558,11.0970167,329.67,1.99,0.02,null
SMAR,2023-04-27 09:20:13.629,46.06558,11.0970167,329.63,1.97,0.05,null
SMAR,2023-04-27 09:20:13.664,46.06558,11.0970167,329.62,1.97,0.05,null
SMAR,2023-04-27 09:20:13.698,46.06558,11.0970167,329.61,1.99,0.04,null
SMAR,2023-04-27 09:20:13.735,46.06558,11.0970167,329.61,2.01,0.03,null
SMAR,2023-04-27 09:20:13.763,46.06558,11.0970167,329.63,2.01,0.05,null
STON,2023-04-27 09:20:13.763,46.06560940283333,11.096890458166667,1.172089,118.24282500000001,-0.201988,1
SMAR,2023-04-27 09:20:13.797,46.06558,11.0970167,329.61,2.01,0.05,null
SMAR,2023-04-27 09:20:13.831,46.06558,11.0970167,329.59,2.0,0.05,null
SMAR,2023-04-27 09:20:13.869,46.06558,11.0970167,329.57,2.02,0.02,null
SMAR,2023-04-27 09:20:13.9,46.06558,11.0970167,329.58,2.02,0.03,null
SMAR,2023-04-27 09:20:13.932,46.06558,11.0970167,329.59,2.03,0.04,null
STON,2023-04-27 09:20:13.932,46.06560940283333,11.096890458166667,1.171754,118.30672100000001,-0.20167,1
SMAR,2023-04-27 09:20:13.967,46.06558,11.0970167,329.62,2.05,0.04,null
SMAR,2023-04-27 09:20:14.002,46.06558,11.0970167,329.62,2.06,0.04,null
SMAR,2023-04-27 09:20:14.033,46.06558,11.0970167,329.6,2.06,0.04,null
SMAR,2023-04-27 09:20:14.071,46.06558,11.0970167,329.6,2.04,0.06,null
SMAR,2023-04-27 09:20:14.096,46.06558,11.0970167,329.58,2.05,0.06,null
SMAR,2023-04-27 09:20:14.129,46.06558,11.0970167,329.56,2.05,0.07,null
STON,2023-04-27 09:20:14.129,46.06560940283333,11.096890458166667,1.167992,118.323452,-0.202304,1
SMAR,2023-04-27 09:20:14.169,46.06558,11.0970167,329.59,2.04,0.07,null
SMAR,2023-04-27 09:20:14.196,46.06558,11.0970167,329.59,2.05,0.08,null
SMAR,2023-04-27 09:20:14.232,46.06558,11.0970167,329.61,2.07,0.08,null
SMAR,2023-04-27 09:20:14.267,46.06558,11.0970167,329.6,2.08,0.07,null
SMAR,2023-04-27 09:20:14.305,46.06558,11.0970167,329.57,2.09,0.08,null
STON,2023-04-27 09:20:14.305,46.06560940283333,11.096890458166667,1.171239,118.313366,-0.203081,1
SMAR,2023-04-27 09:20:14.334,46.06558,11.0970167,329.56,2.08,0.09,null
SMAR,2023-04-27 09:20:14.366,46.06558,11.0970167,329.56,2.12,0.08,null
SMAR,2023-04-27 09:20:14.398,46.06558,11.0970167,329.57,2.13,0.09,null
STON,2023-04-27 09:20:14.398,46.065609022333334,11.096889917,1.171239,118.313366,-0.203081,1
STON,2023-04-27 09:20:14.398,46.065609022333334,11.096889917,1.171239,118.313366,-0.203081,1
SMAR,2023-04-27 09:20:14.434,46.06558,11.0970167,329.56,2.12,0.09,null
SMAR,2023-04-27 09:20:14.465,46.06558,11.0970167,329.54,2.11,0.09,null
SMAR,2023-04-27 09:20:14.503,46.06558,11.0970167,329.51,2.14,0.1,null
STON,2023-04-27 09:20:14.503,46.065609022333334,11.096889917,1.176109,118.35108199999999,-0.201642,1
SMAR,2023-04-27 09:20:14.532,46.06558,11.0970167,329.51,2.14,0.11,null
SMAR,2023-04-27 09:20:14.567,46.06558,11.0970167,329.53,2.11,0.09,null
SMAR,2023-04-27 09:20:14.604,46.06558,11.0970167,329.55,2.17,0.05,null
SMAR,2023-04-27 09:20:14.642,46.06558,11.0970167,329.55,2.19,0.07,null
SMAR,2023-04-27 09:20:14.674,46.06558,11.0970167,329.53,2.17,0.09,null
SMAR,2023-04-27 09:20:14.707,46.06558,11.0970167,329.53,2.15,0.1,null
SMAR,2023-04-27 09:20:14.732,46.06558,11.0970167,329.53,2.13,0.09,null
SMAR,2023-04-27 09:20:14.77,46.06558,11.0970167,329.52,2.12,0.11,null
STON,2023-04-27 09:20:14.77,46.065609022333334,11.096889917,1.17431,118.331165,-0.198306,1
SMAR,2023-04-27 09:20:14.802,46.06558,11.0970167,329.49,2.12,0.11,null
SMAR,2023-04-27 09:20:14.838,46.06558,11.0970167,329.48,2.1,0.12,null
SMAR,2023-04-27 09:20:14.873,46.06558,11.0970167,329.49,2.06,0.12,null
SMAR,2023-04-27 09:20:14.903,46.06558,11.0970167,329.48,2.06,0.12,null
SMAR,2023-04-27 09:20:14.94,46.06558,11.0970167,329.48,2.06,0.14,null
SMAR,2023-04-27 09:20:14.976,46.06558,11.0970167,329.48,2.05,0.15,null
SMAR,2023-04-27 09:20:15.007,46.06558,11.0970167,329.49,2.03,0.12,null
SMAR,2023-04-27 09:20:15.036,46.06558,11.0970167,329.48,2.01,0.12,null
SMAR,2023-04-27 09:20:15.074,46.06558,11.0970167,329.46,1.96,0.15,null
SMAR,2023-04-27 09:20:15.105,46.06558,11.0970167,329.39,1.86,0.19,null
STON,2023-04-27 09:20:15.105,46.065609022333334,11.096889917,1.175097,118.36949200000001,-0.196701,1
STON,2023-04-27 09:20:15.105,46.065609022333334,11.096889917,1.174456,118.37749099999999,-0.195706,1
SMAR,2023-04-27 09:20:15.142,46.06558,11.0970167,329.31,1.83,0.19,null
SMAR,2023-04-27 09:20:15.175,46.06558,11.0970167,329.3,1.85,0.17,null
SMAR,2023-04-27 09:20:15.215,46.06558,11.0970167,329.34,1.84,0.16,null
SMAR,2023-04-27 09:20:15.241,46.06558,11.0970167,329.37,1.85,0.15,null
SMAR,2023-04-27 09:20:15.276,46.06558,11.0970167,329.42,1.86,0.14,null
SMAR,2023-04-27 09:20:15.306,46.06558,11.0970297,329.44,1.88,0.12,null
SMAR,2023-04-27 09:20:15.338,46.06558,11.0970297,329.42,1.87,0.11,null
STON,2023-04-27 09:20:15.338,46.065609022333334,11.096889917,1.179018,118.344326,-0.198456,1
SMAR,2023-04-27 09:20:15.368,46.06558,11.0970297,329.41,1.85,0.13,null
STON,2023-04-27 09:20:15.368,46.065608647,11.096889322166666,1.179018,118.344326,-0.198456,1
STON,2023-04-27 09:20:15.368,46.065608647,11.096889322166666,1.179018,118.344326,-0.198456,1
SMAR,2023-04-27 09:20:15.409,46.06558,11.0970297,329.4,1.86,0.11,null
SMAR,2023-04-27 09:20:15.439,46.06558,11.0970297,329.39,1.86,0.1,null
SMAR,2023-04-27 09:20:15.475,46.06558,11.0970297,329.38,1.84,0.12,null
SMAR,2023-04-27 09:20:15.504,46.06558,11.0970297,329.39,1.84,0.11,null
STON,2023-04-27 09:20:15.504,46.065608647,11.096889322166666,1.181321,118.34779,-0.198468,1
SMAR,2023-04-27 09:20:15.537,46.06558,11.0970297,329.41,1.84,0.1,null
SMAR,2023-04-27 09:20:15.574,46.06558,11.0970297,329.42,1.82,0.1,null
SMAR,2023-04-27 09:20:15.614,46.06558,11.0970297,329.4,1.84,0.11,null
SMAR,2023-04-27 09:20:15.639,46.06558,11.0970297,329.41,1.85,0.1,null
SMAR,2023-04-27 09:20:15.672,46.06558,11.0970297,329.42,1.84,0.07,null
SMAR,2023-04-27 09:20:15.7,46.06558,11.0970297,329.45,1.84,0.04,null
SMAR,2023-04-27 09:20:15.74,46.06558,11.0970297,329.48,1.86,0.04,null
SMAR,2023-04-27 09:20:15.774,46.06558,11.0970297,329.48,1.86,0.04,null
SMAR,2023-04-27 09:20:15.811,46.06558,11.0970297,329.5,1.84,0.05,null
SMAR,2023-04-27 09:20:15.839,46.06558,11.0970297,329.51,1.84,0.05,null
SMAR,2023-04-27 09:20:15.87,46.06558,11.0970297,329.53,1.85,0.04,null
SMAR,2023-04-27 09:20:15.904,46.06558,11.0970297,329.53,1.86,0.02,null
STON,2023-04-27 09:20:15.904,46.065608647,11.096889322166666,1.182596,118.38001299999999,-0.198532,1
SMAR,2023-04-27 09:20:15.945,46.06558,11.0970297,329.51,1.86,0.02,null
STON,2023-04-27 09:20:15.945,46.065608647,11.096889322166666,1.183668,118.296997,-0.19818,1
SMAR,2023-04-27 09:20:15.975,46.06558,11.0970297,329.49,1.83,0.05,null
SMAR,2023-04-27 09:20:16.008,46.06558,11.0970297,329.5,1.84,0.03,null
SMAR,2023-04-27 09:20:16.043,46.06558,11.0970297,329.5,1.85,0.01,null
SMAR,2023-04-27 09:20:16.072,46.06558,11.0970297,329.48,1.86,0.0,null
SMAR,2023-04-27 09:20:16.108,46.06558,11.0970297,329.48,1.83,0.02,null
SMAR,2023-04-27 09:20:16.143,46.06558,11.0970297,329.48,1.82,0.01,null
STON,2023-04-27 09:20:16.143,46.065608647,11.096889322166666,1.180457,118.27547799999999,-0.197322,1
SMAR,2023-04-27 09:20:16.167,46.06558,11.0970297,329.48,1.8,0.02,null
SMAR,2023-04-27 09:20:16.205,46.06558,11.0970297,329.5,1.8,0.01,null
SMAR,2023-04-27 09:20:16.242,46.06558,11.0970297,329.51,1.82,0.01,null
SMAR,2023-04-27 09:20:16.276,46.06558,11.0970297,329.53,1.82,0.01,null
SMAR,2023-04-27 09:20:16.303,46.06558,11.0970324,329.52,1.83,359.98,null
STON,2023-04-27 09:20:16.303,46.06560826483334,11.096888685666666,1.180457,118.27547799999999,-0.197322,1
SMAR,2023-04-27 09:20:16.337,46.06558,11.0970324,329.51,1.82,359.99,null
STON,2023-04-27 09:20:16.337,46.06560826483334,11.096888685666666,1.182576,118.30357699999999,-0.197881,1
SMAR,2023-04-27 09:20:16.37,46.06558,11.0970324,329.53,1.81,359.99,null
SMAR,2023-04-27 09:20:16.407,46.06558,11.0970324,329.55,1.82,359.99,null
STON,2023-04-27 09:20:16.407,46.06560826483334,11.096888685666666,1.182576,118.30357699999999,-0.197881,1
SMAR,2023-04-27 09:20:16.443,46.06558,11.0970324,329.55,1.83,359.98,null
SMAR,2023-04-27 09:20:16.471,46.06558,11.0970324,329.55,1.83,359.99,null
SMAR,2023-04-27 09:20:16.512,46.06558,11.0970324,329.56,1.83,0.0,null
STON,2023-04-27 09:20:16.512,46.06560826483334,11.096888685666666,1.180494,118.33245099999999,-0.197638,1
SMAR,2023-04-27 09:20:16.542,46.06558,11.0970324,329.55,1.86,359.99,null
SMAR,2023-04-27 09:20:16.572,46.06558,11.0970324,329.51,1.85,359.99,null
SMAR,2023-04-27 09:20:16.609,46.06558,11.0970324,329.49,1.83,0.01,null
SMAR,2023-04-27 09:20:16.638,46.06558,11.0970324,329.5,1.85,0.02,null
SMAR,2023-04-27 09:20:16.67,46.06558,11.0970324,329.51,1.89,359.98,null
SMAR,2023-04-27 09:20:16.714,46.06558,11.0970324,329.5,1.86,359.99,null
SMAR,2023-04-27 09:20:16.742,46.06558,11.0970324,329.45,1.85,0.02,null
STON,2023-04-27 09:20:16.742,46.06560826483334,11.096888685666666,1.181771,118.323948,-0.198708,1
SMAR,2023-04-27 09:20:16.779,46.06558,11.0970324,329.42,1.88,0.04,null
SMAR,2023-04-27 09:20:16.811,46.06558,11.0970324,329.4,1.89,0.01,null
SMAR,2023-04-27 09:20:16.847,46.06558,11.0970324,329.39,1.87,359.99,null
SMAR,2023-04-27 09:20:16.879,46.06558,11.0970324,329.39,1.88,0.0,null
SMAR,2023-04-27 09:20:16.909,46.06558,11.0970324,329.39,1.91,359.99,null
SMAR,2023-04-27 09:20:16.94,46.06558,11.0970324,329.37,1.9,360.0,null
STON,2023-04-27 09:20:16.94,46.06560826483334,11.096888685666666,1.182519,118.30246,-0.198262,1
SMAR,2023-04-27 09:20:16.979,46.06558,11.0970324,329.38,1.89,0.02,null
SMAR,2023-04-27 09:20:17.007,46.06558,11.0970324,329.4,1.89,0.03,null
SMAR,2023-04-27 09:20:17.049,46.06558,11.0970324,329.41,1.94,0.02,null
SMAR,2023-04-27 09:20:17.083,46.06558,11.0970324,329.41,1.96,0.01,null
SMAR,2023-04-27 09:20:17.115,46.06558,11.0970324,329.37,1.93,0.04,null
SMAR,2023-04-27 09:20:17.142,46.06558,11.0970324,329.36,1.91,0.07,null
STON,2023-04-27 09:20:17.142,46.06560826483334,11.096888685666666,1.182407,118.309669,-0.197742,1
SMAR,2023-04-27 09:20:17.177,46.06558,11.0970324,329.38,1.94,0.07,null
SMAR,2023-04-27 09:20:17.208,46.06558,11.0970324,329.35,1.97,0.06,null
SMAR,2023-04-27 09:20:17.243,46.06558,11.0970324,329.33,1.95,0.08,null
SMAR,2023-04-27 09:20:17.276,46.06558,11.0970324,329.32,1.94,0.09,null
STON,2023-04-27 09:20:17.276,46.065607838666665,11.096888054,1.182407,118.309669,-0.197742,1
SMAR,2023-04-27 09:20:17.316,46.06558,11.0970324,329.3,1.96,0.07,null
STON,2023-04-27 09:20:17.316,46.065607838666665,11.096888054,1.18319,118.334023,-0.197111,1
SMAR,2023-04-27 09:20:17.341,46.06558,11.0970324,329.31,1.97,0.07,null
SMAR,2023-04-27 09:20:17.383,46.06558,11.0970324,329.3,1.98,0.08,null
SMAR,2023-04-27 09:20:17.414,46.06558,11.0970324,329.29,1.99,0.09,null
SMAR,2023-04-27 09:20:17.442,46.06558,11.0970324,329.31,2.0,0.09,null
STON,2023-04-27 09:20:17.442,46.065607838666665,11.096888054,1.18319,118.334023,-0.197111,1
SMAR,2023-04-27 09:20:17.478,46.06558,11.0970324,329.32,2.01,0.08,null
SMAR,2023-04-27 09:20:17.512,46.06558,11.0970324,329.32,2.02,0.09,null
STON,2023-04-27 09:20:17.512,46.065607838666665,11.096888054,1.181627,118.417892,-0.195756,1
SMAR,2023-04-27 09:20:17.542,46.06558,11.0970324,329.31,2.01,0.11,null
SMAR,2023-04-27 09:20:17.574,46.06558,11.0970324,329.29,2.0,0.13,null
SMAR,2023-04-27 09:20:17.612,46.06558,11.0970324,329.3,2.01,0.14,null
SMAR,2023-04-27 09:20:17.641,46.06558,11.0970324,329.29,2.0,0.17,null
SMAR,2023-04-27 09:20:17.674,46.06558,11.0970324,329.29,1.98,0.18,null
SMAR,2023-04-27 09:20:17.706,46.06558,11.0970324,329.29,2.0,0.19,null
SMAR,2023-04-27 09:20:17.736,46.06558,11.0970324,329.29,2.01,0.21,null
STON,2023-04-27 09:20:17.736,46.065607838666665,11.096888054,1.181692,118.35644099999999,-0.196947,1
SMAR,2023-04-27 09:20:17.772,46.06558,11.0970324,329.29,2.0,0.23,null
SMAR,2023-04-27 09:20:17.807,46.06558,11.0970321,329.3,1.99,0.21,null
SMAR,2023-04-27 09:20:17.847,46.06558,11.0970321,329.28,1.97,0.21,null
SMAR,2023-04-27 09:20:17.877,46.06558,11.0970321,329.28,1.99,0.2,null
SMAR,2023-04-27 09:20:17.906,46.06558,11.0970321,329.29,1.97,0.2,null
SMAR,2023-04-27 09:20:17.941,46.06558,11.0970321,329.28,1.94,0.16,null
STON,2023-04-27 09:20:17.941,46.065607838666665,11.096888054,1.183265,118.347542,-0.194131,1
SMAR,2023-04-27 09:20:17.983,46.06558,11.0970321,329.28,1.96,0.14,null
SMAR,2023-04-27 09:20:18.017,46.06558,11.0970321,329.31,1.97,0.16,null
SMAR,2023-04-27 09:20:18.047,46.06558,11.0970321,329.33,1.96,0.16,null
SMAR,2023-04-27 09:20:18.072,46.06558,11.0970321,329.37,1.93,0.16,null
SMAR,2023-04-27 09:20:18.113,46.06558,11.0970321,329.4,1.93,0.14,null
STON,2023-04-27 09:20:18.113,46.065607838666665,11.096888054,1.186392,118.34928099999999,-0.197707,1
SMAR,2023-04-27 09:20:18.145,46.06558,11.0970321,329.4,1.95,0.13,null
SMAR,2023-04-27 09:20:18.177,46.06558,11.0970321,329.39,1.94,0.14,null
SMAR,2023-04-27 09:20:18.215,46.06558,11.0970321,329.37,1.91,0.15,null
SMAR,2023-04-27 09:20:18.245,46.06558,11.0970321,329.38,1.89,0.15,null
SMAR,2023-04-27 09:20:18.276,46.06558,11.0970321,329.4,1.89,0.15,null
SMAR,2023-04-27 09:20:18.305,46.06558,11.0970319,329.41,1.9,0.15,null
SMAR,2023-04-27 09:20:18.348,46.06558,11.0970319,329.4,1.89,0.15,null
SMAR,2023-04-27 09:20:18.379,46.06558,11.0970319,329.39,1.87,0.14,null
SMAR,2023-04-27 09:20:18.413,46.06558,11.0970319,329.37,1.85,0.14,null
STON,2023-04-27 09:20:18.413,46.065607466,11.096887480666666,1.186392,118.34928099999999,-0.197707,1
STON,2023-04-27 09:20:18.413,46.065607466,11.096887480666666,1.187068,118.325203,-0.194832,1
STON,2023-04-27 09:20:18.413,46.065607466,11.096887480666666,1.187068,118.325203,-0.194832,1
SMAR,2023-04-27 09:20:18.447,46.06558,11.0970319,329.36,1.84,0.14,null
SMAR,2023-04-27 09:20:18.48,46.06558,11.0970319,329.39,1.85,0.12,null
SMAR,2023-04-27 09:20:18.511,46.06558,11.0970319,329.39,1.86,0.1,null
STON,2023-04-27 09:20:18.511,46.065607466,11.096887480666666,1.186132,118.311253,-0.195811,1
SMAR,2023-04-27 09:20:18.539,46.06558,11.0970319,329.38,1.85,0.1,null
SMAR,2023-04-27 09:20:18.583,46.06558,11.0970319,329.37,1.84,0.11,null
SMAR,2023-04-27 09:20:18.616,46.06558,11.0970319,329.37,1.83,0.1,null
SMAR,2023-04-27 09:20:18.65,46.06558,11.0970319,329.38,1.83,0.1,null
SMAR,2023-04-27 09:20:18.684,46.06558,11.0970319,329.38,1.8,0.12,null
STON,2023-04-27 09:20:18.684,46.065607466,11.096887480666666,1.188122,118.278881,-0.195143,1
SMAR,2023-04-27 09:20:18.713,46.06558,11.0970319,329.39,1.8,0.12,null
SMAR,2023-04-27 09:20:18.743,46.06558,11.0970319,329.41,1.8,0.11,null
SMAR,2023-04-27 09:20:18.779,46.06558,11.0970319,329.41,1.81,0.11,null
SMAR,2023-04-27 09:20:18.811,46.06558,11.0970319,329.4,1.79,0.11,null
SMAR,2023-04-27 09:20:18.848,46.06558,11.0970319,329.41,1.77,0.1,null
SMAR,2023-04-27 09:20:18.884,46.06558,11.0970319,329.41,1.77,0.1,null
STON,2023-04-27 09:20:18.884,46.065607466,11.096887480666666,1.186427,118.290092,-0.197484,1
SMAR,2023-04-27 09:20:18.912,46.06558,11.0970319,329.41,1.8,0.11,null
SMAR,2023-04-27 09:20:18.945,46.06558,11.0970319,329.43,1.78,0.1,null
SMAR,2023-04-27 09:20:18.988,46.06558,11.0970319,329.46,1.77,0.08,null
SMAR,2023-04-27 09:20:19.019,46.06558,11.0970319,329.45,1.8,0.04,null
SMAR,2023-04-27 09:20:19.052,46.06558,11.0970319,329.45,1.8,0.04,null
SMAR,2023-04-27 09:20:19.081,46.06558,11.0970319,329.46,1.79,0.05,null
STON,2023-04-27 09:20:19.081,46.065607466,11.096887480666666,1.186624,118.28419099999999,-0.198153,1
SMAR,2023-04-27 09:20:19.112,46.06558,11.0970319,329.46,1.78,0.05,null
SMAR,2023-04-27 09:20:19.149,46.06558,11.0970319,329.47,1.77,0.05,null
SMAR,2023-04-27 09:20:19.184,46.06558,11.0970319,329.48,1.8,0.02,null
SMAR,2023-04-27 09:20:19.211,46.06558,11.0970319,329.48,1.79,0.02,null
SMAR,2023-04-27 09:20:19.243,46.06558,11.0970319,329.47,1.78,0.04,null
SMAR,2023-04-27 09:20:19.287,46.06558,11.0970318,329.46,1.76,0.04,null
SMAR,2023-04-27 09:20:19.322,46.06558,11.0970318,329.46,1.77,0.04,null
SMAR,2023-04-27 09:20:19.363,46.06558,11.0970318,329.47,1.77,0.04,null
SMAR,2023-04-27 09:20:19.384,46.06558,11.0970318,329.46,1.77,0.04,null
SMAR,2023-04-27 09:20:19.41,46.06558,11.0970318,329.46,1.76,0.04,null
STON,2023-04-27 09:20:19.41,46.065607466,11.096887480666666,1.188158,118.31984299999999,-0.197303,1
STON,2023-04-27 09:20:19.41,46.065607113166664,11.096886888833334,1.188158,118.31984299999999,-0.197303,1
STON,2023-04-27 09:20:19.41,46.065607113166664,11.096886888833334,1.188158,118.31984299999999,-0.197303,1
SMAR,2023-04-27 09:20:19.443,46.06558,11.0970318,329.45,1.75,0.03,null
SMAR,2023-04-27 09:20:19.482,46.06558,11.0970318,329.46,1.75,0.05,null
SMAR,2023-04-27 09:20:19.517,46.06558,11.0970318,329.47,1.76,0.05,null
STON,2023-04-27 09:20:19.517,46.065607113166664,11.096886888833334,1.184984,118.27753100000001,-0.199477,1
SMAR,2023-04-27 09:20:19.55,46.06558,11.0970318,329.48,1.77,0.04,null
SMAR,2023-04-27 09:20:19.581,46.06558,11.0970318,329.5,1.76,0.04,null
SMAR,2023-04-27 09:20:19.619,46.06558,11.0970318,329.49,1.76,0.04,null
SMAR,2023-04-27 09:20:19.655,46.06558,11.0970318,329.49,1.77,0.04,null
SMAR,2023-04-27 09:20:19.685,46.06558,11.0970318,329.48,1.76,0.03,null
STON,2023-04-27 09:20:19.685,46.065607113166664,11.096886888833334,1.185712,118.303638,-0.200243,1
SMAR,2023-04-27 09:20:19.714,46.06558,11.0970318,329.48,1.75,0.04,null
SMAR,2023-04-27 09:20:19.743,46.06558,11.0970318,329.48,1.75,0.05,null
SMAR,2023-04-27 09:20:19.785,46.06558,11.0970318,329.48,1.75,0.05,null
SMAR,2023-04-27 09:20:19.819,46.06558,11.0970318,329.48,1.75,0.05,null
SMAR,2023-04-27 09:20:19.851,46.06558,11.0970318,329.47,1.75,0.05,null
SMAR,2023-04-27 09:20:19.887,46.06558,11.0970318,329.46,1.74,0.06,null
SMAR,2023-04-27 09:20:19.917,46.06558,11.0970318,329.47,1.75,0.05,null
STON,2023-04-27 09:20:19.917,46.065607113166664,11.096886888833334,1.185307,118.2644,-0.198776,1
SMAR,2023-04-27 09:20:19.956,46.06558,11.0970318,329.44,1.76,0.04,null
SMAR,2023-04-27 09:20:19.988,46.06558,11.0970318,329.44,1.73,0.06,null
SMAR,2023-04-27 09:20:20.017,46.06558,11.0970318,329.44,1.74,0.07,null
SMAR,2023-04-27 09:20:20.048,46.06558,11.0970318,329.44,1.76,0.06,null
STON,2023-04-27 09:20:20.048,46.065607113166664,11.096886888833334,1.187023,118.25800699999999,-0.200678,1
SMAR,2023-04-27 09:20:20.086,46.06558,11.0970318,329.44,1.76,0.06,null
SMAR,2023-04-27 09:20:20.12,46.06558,11.0970318,329.4,1.73,0.09,null
SMAR,2023-04-27 09:20:20.152,46.06558,11.0970318,329.38,1.75,0.1,null
SMAR,2023-04-27 09:20:20.18,46.06558,11.0970318,329.4,1.75,0.1,null
SMAR,2023-04-27 09:20:20.209,46.06558,11.0970318,329.39,1.76,0.07,null
SMAR,2023-04-27 09:20:20.251,46.06558,11.0970317,329.38,1.78,0.06,null
SMAR,2023-04-27 09:20:20.285,46.06558,11.0970317,329.4,1.79,0.07,null
SMAR,2023-04-27 09:20:20.327,46.06558,11.0970317,329.4,1.82,0.07,null
SMAR,2023-04-27 09:20:20.357,46.06558,11.0970317,329.4,1.81,0.08,null
STON,2023-04-27 09:20:20.357,46.065607113166664,11.096886888833334,1.187874,118.282326,-0.201264,1
STON,2023-04-27 09:20:20.357,46.065606777666666,11.096886323166666,1.187874,118.282326,-0.201264,1
STON,2023-04-27 09:20:20.357,46.065606777666666,11.096886323166666,1.187874,118.282326,-0.201264,1
SMAR,2023-04-27 09:20:20.387,46.06558,11.0970317,329.38,1.8,0.08,null
SMAR,2023-04-27 09:20:20.419,46.06558,11.0970317,329.39,1.81,0.08,null
SMAR,2023-04-27 09:20:20.444,46.06558,11.0970317,329.39,1.83,0.07,null
SMAR,2023-04-27 09:20:20.475,46.06558,11.0970317,329.36,1.84,0.07,null
STON,2023-04-27 09:20:20.475,46.065606777666666,11.096886323166666,1.185653,118.32791900000001,-0.201512,1
SMAR,2023-04-27 09:20:20.514,46.06558,11.0970317,329.34,1.82,0.1,null
SMAR,2023-04-27 09:20:20.547,46.06558,11.0970317,329.33,1.84,0.1,null
SMAR,2023-04-27 09:20:20.584,46.06558,11.0970317,329.33,1.84,0.11,null
SMAR,2023-04-27 09:20:20.614,46.06558,11.0970317,329.32,1.85,0.12,null
SMAR,2023-04-27 09:20:20.655,46.06558,11.0970317,329.32,1.86,0.13,null
SMAR,2023-04-27 09:20:20.683,46.06558,11.0970317,329.32,1.86,0.12,null
STON,2023-04-27 09:20:20.683,46.065606777666666,11.096886323166666,1.187469,118.333763,-0.203928,1
SMAR,2023-04-27 09:20:20.724,46.06558,11.0970317,329.3,1.88,0.11,null
SMAR,2023-04-27 09:20:20.754,46.06558,11.0970317,329.3,1.88,0.11,null
SMAR,2023-04-27 09:20:20.786,46.06558,11.0970317,329.29,1.91,0.11,null
SMAR,2023-04-27 09:20:20.824,46.06558,11.0970317,329.3,1.93,0.11,null
SMAR,2023-04-27 09:20:20.849,46.06558,11.0970317,329.32,1.92,0.13,null
SMAR,2023-04-27 09:20:20.882,46.06558,11.0970317,329.33,1.94,0.12,null
SMAR,2023-04-27 09:20:20.921,46.06558,11.0970317,329.32,1.94,0.13,null
STON,2023-04-27 09:20:20.921,46.065606777666666,11.096886323166666,1.187591,118.31407899999999,-0.203441,1
SMAR,2023-04-27 09:20:20.956,46.06558,11.0970317,329.3,1.93,0.15,null
SMAR,2023-04-27 09:20:20.986,46.06558,11.0970317,329.29,1.93,0.16,null
SMAR,2023-04-27 09:20:21.023,46.06558,11.0970317,329.28,1.95,0.16,null
SMAR,2023-04-27 09:20:21.054,46.06558,11.0970317,329.27,1.95,0.17,null
SMAR,2023-04-27 09:20:21.083,46.06558,11.0970317,329.27,1.95,0.18,null
SMAR,2023-04-27 09:20:21.118,46.06558,11.0970317,329.29,1.95,0.18,null
SMAR,2023-04-27 09:20:21.148,46.06558,11.0970317,329.27,1.96,0.17,null
SMAR,2023-04-27 09:20:21.179,46.06558,11.0970317,329.27,1.95,0.17,null
SMAR,2023-04-27 09:20:21.218,46.06558,11.0970317,329.29,1.94,0.17,null
SMAR,2023-04-27 09:20:21.251,46.06558,11.0970317,329.28,1.94,0.15,null
SMAR,2023-04-27 09:20:21.284,46.06558,11.0970317,329.27,1.89,0.16,null
SMAR,2023-04-27 09:20:21.328,46.06558,11.0970317,329.27,1.9,0.18,null
SMAR,2023-04-27 09:20:21.362,46.06558,11.0970317,329.3,1.91,0.17,null
SMAR,2023-04-27 09:20:21.392,46.06558,11.0970317,329.31,1.87,0.14,null
STON,2023-04-27 09:20:21.392,46.065606777666666,11.096886323166666,1.190529,118.32905600000001,-0.204011,1
STON,2023-04-27 09:20:21.392,46.0656064925,11.09688576,1.190529,118.32905600000001,-0.204011,1
STON,2023-04-27 09:20:21.392,46.0656064925,11.09688576,1.190529,118.32905600000001,-0.204011,1
SMAR,2023-04-27 09:20:21.422,46.06558,11.0970317,329.32,1.87,0.12,null
SMAR,2023-04-27 09:20:21.457,46.06558,11.0970317,329.33,1.89,0.12,null
SMAR,2023-04-27 09:20:21.491,46.06558,11.0970317,329.35,1.89,0.12,null
SMAR,2023-04-27 09:20:21.522,46.06558,11.0970317,329.36,1.88,0.11,null
STON,2023-04-27 09:20:21.522,46.0656064925,11.09688576,1.186933,118.276741,-0.201506,1
SMAR,2023-04-27 09:20:21.557,46.06558,11.0970317,329.39,1.84,0.11,null
SMAR,2023-04-27 09:20:21.586,46.06558,11.0970317,329.41,1.85,0.1,null
SMAR,2023-04-27 09:20:21.625,46.06558,11.0970317,329.41,1.89,0.08,null
SMAR,2023-04-27 09:20:21.66,46.06558,11.0970317,329.38,1.85,0.09,null
SMAR,2023-04-27 09:20:21.696,46.06558,11.0970317,329.35,1.79,0.12,null
SMAR,2023-04-27 09:20:21.723,46.06558,11.0970317,329.36,1.8,0.11,null
STON,2023-04-27 09:20:21.723,46.0656064925,11.09688576,1.186962,118.226261,-0.205007,1
SMAR,2023-04-27 09:20:21.752,46.06558,11.0970317,329.35,1.82,0.09,null
SMAR,2023-04-27 09:20:21.791,46.06558,11.0970317,329.34,1.8,0.09,null
SMAR,2023-04-27 09:20:21.825,46.06558,11.0970317,329.33,1.77,0.1,null
SMAR,2023-04-27 09:20:21.861,46.06558,11.0970317,329.32,1.76,0.08,null
SMAR,2023-04-27 09:20:21.895,46.06558,11.0970317,329.32,1.75,0.1,null
SMAR,2023-04-27 09:20:21.927,46.06558,11.0970317,329.3,1.76,0.1,null
SMAR,2023-04-27 09:20:21.957,46.06558,11.0970317,329.33,1.76,0.1,null
STON,2023-04-27 09:20:21.957,46.0656064925,11.09688576,1.186248,118.263229,-0.205558,1
SMAR,2023-04-27 09:20:21.997,46.06558,11.0970317,329.34,1.75,0.08,null
SMAR,2023-04-27 09:20:22.027,46.06558,11.0970317,329.34,1.76,0.07,null
SMAR,2023-04-27 09:20:22.06,46.06558,11.0970317,329.36,1.73,0.08,null
SMAR,2023-04-27 09:20:22.085,46.06558,11.0970317,329.36,1.72,0.09,null
SMAR,2023-04-27 09:20:22.123,46.06558,11.0970317,329.36,1.68,0.11,null
SMAR,2023-04-27 09:20:22.149,46.06558,11.0970317,329.34,1.65,0.12,null
STON,2023-04-27 09:20:22.149,46.0656064925,11.09688576,1.183454,118.266903,-0.203693,1
SMAR,2023-04-27 09:20:22.186,46.06558,11.0970317,329.33,1.64,0.12,null
SMAR,2023-04-27 09:20:22.216,46.06558,11.0970317,329.36,1.65,0.11,null
SMAR,2023-04-27 09:20:22.257,46.0655829,11.0970317,329.36,1.66,0.09,null
SMAR,2023-04-27 09:20:22.295,46.0655829,11.0970317,329.34,1.65,0.09,null
SMAR,2023-04-27 09:20:22.334,46.0655829,11.0970317,329.35,1.63,0.09,null
STON,2023-04-27 09:20:22.334,46.0656064925,11.09688576,1.183209,118.221115,-0.201409,1
SMAR,2023-04-27 09:20:22.364,46.0655829,11.0970317,329.36,1.65,0.08,null
SMAR,2023-04-27 09:20:22.394,46.0655829,11.0970317,329.37,1.68,0.06,null
SMAR,2023-04-27 09:20:22.429,46.0655829,11.0970317,329.37,1.64,0.08,null
SMAR,2023-04-27 09:20:22.456,46.0655829,11.0970317,329.36,1.61,0.11,null
STON,2023-04-27 09:20:22.456,46.065606325,11.096885236,1.183209,118.221115,-0.201409,1
SMAR,2023-04-27 09:20:22.493,46.0655829,11.0970317,329.34,1.65,0.09,null
STON,2023-04-27 09:20:22.493,46.065606325,11.096885236,1.183209,118.221115,-0.201409,1
STON,2023-04-27 09:20:22.493,46.065606325,11.096885236,1.182949,118.242527,-0.20238,1
SMAR,2023-04-27 09:20:22.521,46.0655829,11.0970317,329.34,1.64,0.07,null
SMAR,2023-04-27 09:20:22.562,46.0655829,11.0970317,329.35,1.65,0.04,null
SMAR,2023-04-27 09:20:22.594,46.0655829,11.0970317,329.36,1.66,0.04,null
SMAR,2023-04-27 09:20:22.631,46.0655829,11.0970317,329.38,1.66,0.05,null
SMAR,2023-04-27 09:20:22.663,46.0655829,11.0970317,329.4,1.67,0.04,null
SMAR,2023-04-27 09:20:22.692,46.0655829,11.0970317,329.39,1.67,0.04,null
SMAR,2023-04-27 09:20:22.722,46.0655829,11.0970317,329.4,1.64,0.05,null
SMAR,2023-04-27 09:20:22.754,46.0655829,11.0970317,329.42,1.65,0.04,null
STON,2023-04-27 09:20:22.754,46.065606325,11.096885236,1.183944,118.303551,-0.200772,1
SMAR,2023-04-27 09:20:22.793,46.0655829,11.0970317,329.43,1.69,0.02,null
SMAR,2023-04-27 09:20:22.823,46.0655829,11.0970317,329.4,1.67,0.04,null
SMAR,2023-04-27 09:20:22.856,46.0655829,11.0970317,329.38,1.63,0.07,null
SMAR,2023-04-27 09:20:22.889,46.0655829,11.0970317,329.38,1.65,0.06,null
SMAR,2023-04-27 09:20:22.917,46.0655829,11.0970317,329.38,1.67,0.04,null
STON,2023-04-27 09:20:22.917,46.065606325,11.096885236,1.184062,118.346596,-0.200055,1
SMAR,2023-04-27 09:20:22.957,46.0655829,11.0970317,329.37,1.67,0.05,null
SMAR,2023-04-27 09:20:22.993,46.0655829,11.0970317,329.34,1.65,0.06,null
SMAR,2023-04-27 09:20:23.033,46.0655829,11.0970317,329.34,1.64,0.07,null
SMAR,2023-04-27 09:20:23.059,46.0655829,11.0970317,329.34,1.67,0.04,null
SMAR,2023-04-27 09:20:23.091,46.0655829,11.0970317,329.35,1.68,0.05,null
SMAR,2023-04-27 09:20:23.131,46.0655829,11.0970317,329.33,1.67,0.06,null
STON,2023-04-27 09:20:23.131,46.065606325,11.096885236,1.181316,118.347801,-0.198261,1
SMAR,2023-04-27 09:20:23.157,46.0655829,11.0970317,329.31,1.67,0.06,null
SMAR,2023-04-27 09:20:23.19,46.0655829,11.0970317,329.32,1.69,0.06,null
SMAR,2023-04-27 09:20:23.226,46.0655829,11.0970317,329.31,1.71,0.07,null
SMAR,2023-04-27 09:20:23.256,46.0655829,11.0970317,329.3,1.69,0.09,null
SMAR,2023-04-27 09:20:23.287,46.0655829,11.0970317,329.3,1.69,0.09,null
SMAR,2023-04-27 09:20:23.326,46.0655864,11.0970331,329.3,1.71,0.09,null
SMAR,2023-04-27 09:20:23.36,46.0655864,11.0970331,329.29,1.72,0.09,null
STON,2023-04-27 09:20:23.36,46.065606325,11.096885236,1.182146,118.330208,-0.199025,1
SMAR,2023-04-27 09:20:23.398,46.0655864,11.0970331,329.29,1.72,0.11,null
STON,2023-04-27 09:20:23.398,46.06560623516667,11.096884707,1.182146,118.330208,-0.199025,1
SMAR,2023-04-27 09:20:23.422,46.0655864,11.0970331,329.29,1.74,0.11,null
STON,2023-04-27 09:20:23.422,46.06560623516667,11.096884707,1.182146,118.330208,-0.199025,1
SMAR,2023-04-27 09:20:23.465,46.0655864,11.0970331,329.31,1.76,0.1,null
SMAR,2023-04-27 09:20:23.496,46.0655864,11.0970331,329.28,1.76,0.11,null
SMAR,2023-04-27 09:20:23.527,46.0655864,11.0970331,329.27,1.76,0.12,null
STON,2023-04-27 09:20:23.527,46.06560623516667,11.096884707,1.180104,118.34473,-0.196867,1
SMAR,2023-04-27 09:20:23.556,46.0655864,11.0970331,329.27,1.77,0.12,null
SMAR,2023-04-27 09:20:23.596,46.0655864,11.0970331,329.25,1.79,0.11,null
SMAR,2023-04-27 09:20:23.635,46.0655864,11.0970331,329.22,1.78,0.13,null
SMAR,2023-04-27 09:20:23.665,46.0655864,11.0970331,329.22,1.77,0.15,null
SMAR,2023-04-27 09:20:23.697,46.0655864,11.0970331,329.23,1.82,0.14,null
SMAR,2023-04-27 09:20:23.725,46.0655864,11.0970331,329.23,1.82,0.13,null
STON,2023-04-27 09:20:23.725,46.06560623516667,11.096884707,1.179376,118.338341,-0.197393,1
SMAR,2023-04-27 09:20:23.76,46.0655864,11.0970331,329.22,1.79,0.14,null
SMAR,2023-04-27 09:20:23.79,46.0655864,11.0970331,329.18,1.83,0.16,null
SMAR,2023-04-27 09:20:23.83,46.0655864,11.0970331,329.18,1.84,0.16,null
SMAR,2023-04-27 09:20:23.863,46.0655864,11.0970331,329.19,1.83,0.14,null
SMAR,2023-04-27 09:20:23.893,46.0655864,11.0970331,329.21,1.87,0.12,null
SMAR,2023-04-27 09:20:23.923,46.0655864,11.0970331,329.22,1.89,0.14,null
STON,2023-04-27 09:20:23.923,46.06560623516667,11.096884707,1.179327,118.344009,-0.198987,1
SMAR,2023-04-27 09:20:23.964,46.0655864,11.0970331,329.21,1.88,0.16,null
SMAR,2023-04-27 09:20:23.996,46.0655864,11.0970331,329.22,1.91,0.16,null
SMAR,2023-04-27 09:20:24.031,46.0655864,11.0970331,329.22,1.89,0.17,null
SMAR,2023-04-27 09:20:24.062,46.0655864,11.0970331,329.22,1.9,0.16,null
SMAR,2023-04-27 09:20:24.096,46.0655864,11.0970331,329.23,1.92,0.17,null
SMAR,2023-04-27 09:20:24.122,46.0655864,11.0970331,329.21,1.92,0.19,null
STON,2023-04-27 09:20:24.122,46.06560623516667,11.096884707,1.180116,118.321541,-0.200226,1
SMAR,2023-04-27 09:20:24.16,46.0655864,11.0970331,329.21,1.9,0.2,null
SMAR,2023-04-27 09:20:24.195,46.0655864,11.0970331,329.21,1.89,0.2,null
SMAR,2023-04-27 09:20:24.225,46.0655864,11.0970331,329.18,1.88,0.21,null
SMAR,2023-04-27 09:20:24.261,46.0655864,11.0970331,329.17,1.87,0.22,null
SMAR,2023-04-27 09:20:24.293,46.0655884,11.0970334,329.15,1.87,0.21,null
SMAR,2023-04-27 09:20:24.324,46.0655884,11.0970334,329.15,1.83,0.21,null
SMAR,2023-04-27 09:20:24.369,46.0655884,11.0970334,329.17,1.82,0.2,null
SMAR,2023-04-27 09:20:24.397,46.0655884,11.0970334,329.21,1.83,0.2,null
SMAR,2023-04-27 09:20:24.426,46.0655884,11.0970334,329.24,1.83,0.19,null
STON,2023-04-27 09:20:24.426,46.06560623516667,11.096884707,1.179371,118.29527300000001,-0.198145,1
STON,2023-04-27 09:20:24.426,46.06560615316667,11.096884216666666,1.179371,118.29527300000001,-0.198145,1
STON,2023-04-27 09:20:24.426,46.06560615316667,11.096884216666666,1.179371,118.29527300000001,-0.198145,1
SMAR,2023-04-27 09:20:24.455,46.0655884,11.0970334,329.24,1.83,0.18,null
SMAR,2023-04-27 09:20:24.489,46.0655884,11.0970334,329.23,1.83,0.17,null
SMAR,2023-04-27 09:20:24.532,46.0655884,11.0970334,329.24,1.8,0.18,null
SMAR,2023-04-27 09:20:24.557,46.0655884,11.0970334,329.24,1.8,0.17,null
STON,2023-04-27 09:20:24.557,46.06560615316667,11.096884216666666,1.179298,118.295681,-0.198717,1
SMAR,2023-04-27 09:20:24.591,46.0655884,11.0970334,329.26,1.8,0.17,null
SMAR,2023-04-27 09:20:24.623,46.0655884,11.0970334,329.27,1.78,0.18,null
SMAR,2023-04-27 09:20:24.66,46.0655884,11.0970334,329.29,1.78,0.17,null
SMAR,2023-04-27 09:20:24.708,46.0655884,11.0970334,329.31,1.78,0.16,null
SMAR,2023-04-27 09:20:24.728,46.0655884,11.0970334,329.32,1.79,0.16,null
SMAR,2023-04-27 09:20:24.752,46.0655884,11.0970334,329.3,1.77,0.14,null
SMAR,2023-04-27 09:20:24.788,46.0655884,11.0970334,329.28,1.76,0.14,null
SMAR,2023-04-27 09:20:24.824,46.0655884,11.0970334,329.28,1.77,0.13,null
SMAR,2023-04-27 09:20:24.855,46.0655884,11.0970334,329.29,1.77,0.12,null
STON,2023-04-27 09:20:24.855,46.06560615316667,11.096884216666666,1.179365,118.297638,-0.198765,1
SMAR,2023-04-27 09:20:24.887,46.0655884,11.0970334,329.29,1.77,0.1,null
SMAR,2023-04-27 09:20:24.935,46.0655884,11.0970334,329.28,1.72,0.11,null
STON,2023-04-27 09:20:24.935,46.06560615316667,11.096884216666666,1.176855,118.273575,-0.193981,1
SMAR,2023-04-27 09:20:24.958,46.0655884,11.0970334,329.26,1.75,0.12,null
SMAR,2023-04-27 09:20:24.995,46.0655884,11.0970334,329.27,1.76,0.11,null
SMAR,2023-04-27 09:20:25.029,46.0655884,11.0970334,329.29,1.73,0.08,null
SMAR,2023-04-27 09:20:25.063,46.0655884,11.0970334,329.31,1.75,0.04,null
SMAR,2023-04-27 09:20:25.091,46.0655884,11.0970334,329.33,1.78,0.03,null
SMAR,2023-04-27 09:20:25.123,46.0655884,11.0970334,329.33,1.78,0.04,null
SMAR,2023-04-27 09:20:25.156,46.0655884,11.0970334,329.33,1.75,0.05,null
SMAR,2023-04-27 09:20:25.193,46.0655884,11.0970334,329.36,1.73,0.05,null
SMAR,2023-04-27 09:20:25.221,46.0655884,11.0970334,329.38,1.77,0.02,null
SMAR,2023-04-27 09:20:25.257,46.0655886,11.0970334,329.38,1.77,0.02,null
SMAR,2023-04-27 09:20:25.291,46.0655886,11.0970334,329.36,1.75,0.03,null
SMAR,2023-04-27 09:20:25.333,46.0655886,11.0970334,329.33,1.72,0.02,null
STON,2023-04-27 09:20:25.333,46.06560615316667,11.096884216666666,1.175682,118.31546,-0.1908,1
SMAR,2023-04-27 09:20:25.358,46.0655886,11.0970334,329.34,1.71,360.0,null
SMAR,2023-04-27 09:20:25.397,46.0655886,11.0970334,329.36,1.71,359.99,null
SMAR,2023-04-27 09:20:25.425,46.0655886,11.0970334,329.34,1.71,0.01,null
SMAR,2023-04-27 09:20:25.458,46.0655886,11.0970334,329.36,1.71,0.01,null
STON,2023-04-27 09:20:25.458,46.0656060705,11.096883693166667,1.175682,118.31546,-0.1908,1
STON,2023-04-27 09:20:25.458,46.0656060705,11.096883693166667,1.175682,118.31546,-0.1908,1
SMAR,2023-04-27 09:20:25.491,46.0655886,11.0970334,329.35,1.71,359.99,null
SMAR,2023-04-27 09:20:25.533,46.0655886,11.0970334,329.32,1.69,359.99,null
SMAR,2023-04-27 09:20:25.562,46.0655886,11.0970334,329.32,1.67,0.01,null
SMAR,2023-04-27 09:20:25.596,46.0655886,11.0970334,329.33,1.69,359.99,null
