Input,Time,Latitude,Longitude,Altitude,Pitch,Yaw,Roll,Stonex_status
SMAR,2023-05-09 16:58:12.598,46.0898033,11.1155983,244.89999389648438,-4.9,-155.88,-0.31,null
SMAR,2023-05-09 16:58:12.617,46.0898033,11.1155983,244.89999389648438,-4.89,-155.86,-0.3,null
STON,2023-05-09 16:58:12.617,46.089802248333335,11.11562372,198.303,-4.362865,-40.58802,-0.411021,2
SMAR,2023-05-09 16:58:12.659,46.0898033,11.1155983,244.89999389648438,-4.88,-155.82,-0.29,null
SMAR,2023-05-09 16:58:12.693,46.0898033,11.1155983,244.89999389648438,-4.87,-155.74,-0.29,null
SMAR,2023-05-09 16:58:12.726,46.0898033,11.1155983,244.89999389648438,-4.86,-155.68,-0.29,null
SMAR,2023-05-09 16:58:12.762,46.0898033,11.1155983,244.89999389648438,-4.84,-155.63,-0.29,null
SMAR,2023-05-09 16:58:12.793,46.0898033,11.1155983,244.89999389648438,-4.82,-155.58,-0.3,null
STON,2023-05-09 16:58:12.793,46.089802211666665,11.115623715,198.306,-4.362865,-40.58802,-0.411021,2
SMAR,2023-05-09 16:58:12.826,46.0898033,11.1155983,244.89999389648438,-4.81,-155.5,-0.3,null
SMAR,2023-05-09 16:58:12.859,46.0898033,11.1155983,244.89999389648438,-4.81,-155.4,-0.3,null
STON,2023-05-09 16:58:12.859,46.089802211666665,11.115623715,198.306,-4.272556,-40.889225,-0.428503,2
SMAR,2023-05-09 16:58:12.897,46.0898033,11.1155983,244.89999389648438,-4.81,-155.33,-0.32,null
SMAR,2023-05-09 16:58:12.924,46.0898033,11.1155983,244.89999389648438,-4.81,-155.3,-0.32,null
SMAR,2023-05-09 16:58:12.948,46.0898033,11.1155983,244.89999389648438,-4.81,-155.31,-0.32,null
SMAR,2023-05-09 16:58:12.99,46.0898033,11.1155983,244.89999389648438,-4.82,-155.37,-0.32,null
SMAR,2023-05-09 16:58:13.024,46.0898033,11.1155983,244.89999389648438,-4.83,-155.46,-0.32,null
STON,2023-05-09 16:58:13.024,46.08980221833333,11.115623706666666,198.306,-4.272556,-40.889225,-0.428503,2
STON,2023-05-09 16:58:13.024,46.08980221833333,11.115623706666666,198.306,-4.274655,-41.076935,-0.411593,2
SMAR,2023-05-09 16:58:13.056,46.0898033,11.1155983,244.89999389648438,-4.84,-155.54,-0.31,null
SMAR,2023-05-09 16:58:13.091,46.0898033,11.1155983,244.89999389648438,-4.86,-155.61,-0.31,null
SMAR,2023-05-09 16:58:13.125,46.0898033,11.1155983,244.89999389648438,-4.87,-155.67,-0.31,null
STON,2023-05-09 16:58:13.125,46.089802236666664,11.115623698333334,198.309,-4.274655,-41.076935,-0.411593,2
SMAR,2023-05-09 16:58:13.157,46.0898033,11.1155983,244.89999389648438,-4.89,-155.7,-0.31,null
SMAR,2023-05-09 16:58:13.189,46.0898033,11.1155983,244.89999389648438,-4.9,-155.73,-0.32,null
STON,2023-05-09 16:58:13.189,46.089802236666664,11.115623698333334,198.309,-4.353952,-40.728054,-0.416592,2
SMAR,2023-05-09 16:58:13.23,46.0898033,11.1155983,244.89999389648438,-4.91,-155.75,-0.33,null
SMAR,2023-05-09 16:58:13.257,46.0898033,11.1155983,244.89999389648438,-4.92,-155.74,-0.34,null
SMAR,2023-05-09 16:58:13.29,46.0898033,11.1155983,244.89999389648438,-4.94,-155.7,-0.35,null
SMAR,2023-05-09 16:58:13.323,46.0898033,11.1155983,244.89999389648438,-4.95,-155.65,-0.36,null
SMAR,2023-05-09 16:58:13.357,46.0898033,11.1155983,244.89999389648438,-4.97,-155.63,-0.37,null
STON,2023-05-09 16:58:13.357,46.089802256666665,11.115623696666667,198.313,-4.353952,-40.728054,-0.416592,2
SMAR,2023-05-09 16:58:13.388,46.0898033,11.1155983,244.89999389648438,-4.98,-155.66,-0.38,null
SMAR,2023-05-09 16:58:13.421,46.0898033,11.1155983,244.89999389648438,-4.98,-155.77,-0.37,null
STON,2023-05-09 16:58:13.421,46.089802256666665,11.115623696666667,198.313,-4.431602,-40.807308,-0.360257,2
SMAR,2023-05-09 16:58:13.453,46.0898033,11.1155983,244.89999389648438,-4.98,-155.92,-0.36,null
SMAR,2023-05-09 16:58:13.487,46.0898033,11.1155983,244.89999389648438,-4.98,-156.06,-0.36,null
SMAR,2023-05-09 16:58:13.52,46.0898033,11.1155983,244.89999389648438,-4.98,-156.13,-0.36,null
SMAR,2023-05-09 16:58:13.554,46.0898033,11.1155983,244.89999389648438,-4.98,-156.11,-0.36,null
STON,2023-05-09 16:58:13.554,46.08980226333333,11.115623678333334,198.317,-4.431602,-40.807308,-0.360257,2
SMAR,2023-05-09 16:58:13.586,46.0898033,11.1155983,244.89999389648438,-4.99,-156.04,-0.36,null
SMAR,2023-05-09 16:58:13.619,46.0898033,11.1155983,244.89999389648438,-4.98,-156.0,-0.37,null
STON,2023-05-09 16:58:13.619,46.08980226333333,11.115623678333334,198.317,-4.444198,-40.429348,-0.374634,2
SMAR,2023-05-09 16:58:13.654,46.0898033,11.1155983,244.89999389648438,-4.98,-156.0,-0.37,null
SMAR,2023-05-09 16:58:13.688,46.0898033,11.1155983,244.89999389648438,-4.98,-156.0,-0.36,null
SMAR,2023-05-09 16:58:13.718,46.0898033,11.1155983,244.89999389648438,-4.97,-155.99,-0.37,null
STON,2023-05-09 16:58:13.718,46.089802245,11.115623675,198.315,-4.444198,-40.429348,-0.374634,2
SMAR,2023-05-09 16:58:13.751,46.0898033,11.1155983,244.89999389648438,-4.98,-155.94,-0.37,null
SMAR,2023-05-09 16:58:13.785,46.0898033,11.1155983,244.89999389648438,-5.0,-155.87,-0.37,null
SMAR,2023-05-09 16:58:13.817,46.0898033,11.1155983,244.89999389648438,-5.01,-155.83,-0.37,null
STON,2023-05-09 16:58:13.817,46.089802245,11.115623675,198.315,-4.457258,-40.598118,-0.372251,2
SMAR,2023-05-09 16:58:13.85,46.0898033,11.1155983,244.89999389648438,-5.02,-155.84,-0.37,null
SMAR,2023-05-09 16:58:13.885,46.0898033,11.1155983,244.89999389648438,-5.04,-155.9,-0.36,null
SMAR,2023-05-09 16:58:13.916,46.0898033,11.1155983,244.89999389648438,-5.06,-155.99,-0.36,null
SMAR,2023-05-09 16:58:13.958,46.0898033,11.1155983,244.89999389648438,-5.08,-156.1,-0.34,null
SMAR,2023-05-09 16:58:13.982,46.0898033,11.1155983,244.89999389648438,-5.1,-156.23,-0.33,null
SMAR,2023-05-09 16:58:14.015,46.0898033,11.1155983,244.89999389648438,-5.13,-156.41,-0.32,null
SMAR,2023-05-09 16:58:14.051,46.0898033,11.1155983,244.89999389648438,-5.16,-156.69,-0.29,null
SMAR,2023-05-09 16:58:14.083,46.0898033,11.1155983,244.89999389648438,-5.18,-157.04,-0.27,null
SMAR,2023-05-09 16:58:14.115,46.0898033,11.1155983,244.89999389648438,-5.2,-157.36,-0.24,null
SMAR,2023-05-09 16:58:14.15,46.0898033,11.1155983,244.89999389648438,-5.23,-157.58,-0.22,null
SMAR,2023-05-09 16:58:14.182,46.0898033,11.1155983,244.89999389648438,-5.28,-157.72,-0.21,null
SMAR,2023-05-09 16:58:14.214,46.0898033,11.1155983,244.89999389648438,-5.33,-157.87,-0.19,null
STON,2023-05-09 16:58:14.214,46.08980227,11.11562363,198.318,-4.457258,-40.598118,-0.372251,2
STON,2023-05-09 16:58:14.214,46.08980227,11.11562363,198.318,-4.567409,-40.240528,-0.410905,2
STON,2023-05-09 16:58:14.214,46.089802315,11.115623598333332,198.318,-4.567409,-40.240528,-0.410905,2
STON,2023-05-09 16:58:14.214,46.089802315,11.115623598333332,198.318,-4.741367,-38.758015,-0.517182,2
SMAR,2023-05-09 16:58:14.247,46.0898033,11.1155983,244.89999389648438,-5.4,-158.25,-0.06,null
SMAR,2023-05-09 16:58:14.281,46.0898033,11.1155983,244.89999389648438,-5.45,-158.7,-0.01,null
SMAR,2023-05-09 16:58:14.313,46.0898033,11.1155983,244.89999389648438,-5.49,-159.33,0.07,null
SMAR,2023-05-09 16:58:14.347,46.0898033,11.1155983,244.89999389648438,-5.53,-160.09,0.18,null
SMAR,2023-05-09 16:58:14.38,46.0898033,11.1155983,244.89999389648438,-5.58,-160.89,0.29,null
STON,2023-05-09 16:58:14.38,46.089802371666664,11.115623506666667,198.32,-4.741367,-38.758015,-0.517182,2
SMAR,2023-05-09 16:58:14.413,46.0898033,11.1155983,244.89999389648438,-5.62,-161.72,0.41,null
STON,2023-05-09 16:58:14.413,46.089802371666664,11.115623506666667,198.32,-5.019812,-35.700085,-0.887279,2
SMAR,2023-05-09 16:58:14.464,46.0898033,11.1155983,244.89999389648438,-5.67,-162.56,0.54,null
SMAR,2023-05-09 16:58:14.497,46.0898033,11.1155983,244.89999389648438,-5.7,-163.43,0.66,null
SMAR,2023-05-09 16:58:14.528,46.0898033,11.1155983,244.89999389648438,-5.72,-164.33,0.79,null
STON,2023-05-09 16:58:14.528,46.08980241,11.115623391666666,198.317,-5.019812,-35.700085,-0.887279,2
SMAR,2023-05-09 16:58:14.562,46.0898033,11.1155983,244.89999389648438,-5.75,-165.18,0.91,null
SMAR,2023-05-09 16:58:14.595,46.0898033,11.1155983,244.89999389648438,-5.79,-165.97,1.02,null
SMAR,2023-05-09 16:58:14.629,46.0898033,11.1155983,244.89999389648438,-5.81,-166.72,1.13,null
STON,2023-05-09 16:58:14.629,46.08980241,11.115623391666666,198.317,-5.226291,-30.590546,-1.600259,2
SMAR,2023-05-09 16:58:14.661,46.0898033,11.1155983,244.89999389648438,-5.82,-167.46,1.24,null
SMAR,2023-05-09 16:58:14.694,46.0898033,11.1155983,244.89999389648438,-5.83,-168.17,1.34,null
SMAR,2023-05-09 16:58:14.713,46.0898033,11.1155983,244.89999389648438,-5.84,-168.83,1.44,null
STON,2023-05-09 16:58:14.713,46.08980243166667,11.115623295,198.323,-5.226291,-30.590546,-1.600259,2
SMAR,2023-05-09 16:58:14.76,46.0898033,11.1155983,244.89999389648438,-5.85,-169.5,1.53,null
SMAR,2023-05-09 16:58:14.793,46.0898033,11.1155983,244.89999389648438,-5.85,-170.22,1.62,null
SMAR,2023-05-09 16:58:14.827,46.0898033,11.1155983,244.89999389648438,-5.83,-170.99,1.7,null
SMAR,2023-05-09 16:58:14.861,46.0898033,11.1155983,244.89999389648438,-5.81,-171.74,1.78,null
STON,2023-05-09 16:58:14.861,46.08980243166667,11.115623295,198.323,-5.309783,-26.331896,-2.192379,2
SMAR,2023-05-09 16:58:14.893,46.0898033,11.1155983,244.89999389648438,-5.8,-172.39,1.85,null
SMAR,2023-05-09 16:58:14.926,46.0898033,11.1155983,244.89999389648438,-5.78,-172.88,1.89,null
SMAR,2023-05-09 16:58:14.959,46.0898033,11.1155983,244.89999389648438,-5.78,-173.22,1.93,null
SMAR,2023-05-09 16:58:14.993,46.0898033,11.1155983,244.89999389648438,-5.64,-173.24,1.96,null
SMAR,2023-05-09 16:58:15.026,46.0898033,11.1155983,244.89999389648438,-5.69,-173.5,1.99,null
STON,2023-05-09 16:58:15.026,46.08980244833333,11.115623266666667,198.324,-5.309783,-26.331896,-2.192379,2
STON,2023-05-09 16:58:15.026,46.08980244833333,11.115623266666667,198.324,-5.134224,-23.257132,-2.544917,2
SMAR,2023-05-09 16:58:15.06,46.0898033,11.1155983,244.89999389648438,-5.71,-173.6,2.04,null
SMAR,2023-05-09 16:58:15.091,46.0898033,11.1155983,244.89999389648438,-5.63,-173.81,2.08,null
SMAR,2023-05-09 16:58:15.125,46.0898033,11.1155983,244.89999389648438,-5.62,-174.05,2.08,null
SMAR,2023-05-09 16:58:15.158,46.0898033,11.1155983,244.89999389648438,-5.58,-174.22,2.14,null
STON,2023-05-09 16:58:15.158,46.089802375,11.115623263333333,198.324,-5.134224,-23.257132,-2.544917,2
SMAR,2023-05-09 16:58:15.191,46.0898033,11.1155983,244.89999389648438,-5.53,-174.44,2.14,null
SMAR,2023-05-09 16:58:15.224,46.0898033,11.1155983,244.89999389648438,-5.45,-174.69,2.18,null
STON,2023-05-09 16:58:15.224,46.089802375,11.115623263333333,198.324,-4.966833,-22.058008,-2.71263,2
SMAR,2023-05-09 16:58:15.259,46.0898033,11.1155983,244.89999389648438,-5.39,-174.92,2.16,null
SMAR,2023-05-09 16:58:15.291,46.0898033,11.1155983,244.89999389648438,-5.33,-175.03,2.17,null
SMAR,2023-05-09 16:58:15.328,46.0898033,11.1155983,244.89999389648438,-5.27,-175.02,2.17,null
STON,2023-05-09 16:58:15.328,46.08980229,11.115623333333334,198.319,-4.966833,-22.058008,-2.71263,2
SMAR,2023-05-09 16:58:15.356,46.0898033,11.1155983,244.89999389648438,-5.24,-174.93,2.11,null
SMAR,2023-05-09 16:58:15.39,46.0898033,11.1155983,244.89999389648438,-5.21,-174.87,2.06,null
SMAR,2023-05-09 16:58:15.424,46.0898033,11.1155983,244.89999389648438,-5.15,-174.74,1.99,null
SMAR,2023-05-09 16:58:15.456,46.0898033,11.1155983,244.89999389648438,-5.17,-174.47,1.92,null
SMAR,2023-05-09 16:58:15.489,46.0898033,11.1155983,244.89999389648438,-5.23,-174.01,1.85,null
SMAR,2023-05-09 16:58:15.524,46.0898033,11.1155983,244.89999389648438,-5.31,-173.47,1.76,null
STON,2023-05-09 16:58:15.524,46.08980229,11.115623333333334,198.319,-4.624005,-21.618376,-2.714731,2
SMAR,2023-05-09 16:58:15.556,46.0898033,11.1155983,244.89999389648438,-5.41,-173.04,1.68,null
SMAR,2023-05-09 16:58:15.59,46.0898033,11.1155983,244.89999389648438,-5.49,-172.93,1.61,null
STON,2023-05-09 16:58:15.59,46.08980237833333,11.115623411666666,198.322,-4.624005,-21.618376,-2.714731,2
SMAR,2023-05-09 16:58:15.621,46.0898033,11.1155983,244.89999389648438,-5.56,-173.13,1.58,null
SMAR,2023-05-09 16:58:15.66,46.0898033,11.1155983,244.89999389648438,-5.66,-173.51,1.58,null
SMAR,2023-05-09 16:58:15.691,46.0898033,11.1155983,244.89999389648438,-5.73,-173.95,1.57,null
STON,2023-05-09 16:58:15.691,46.08980237833333,11.115623411666666,198.322,-4.863834,-23.629023,-2.253485,2
SMAR,2023-05-09 16:58:15.724,46.0898033,11.1155983,244.89999389648438,-5.83,-174.36,1.58,null
SMAR,2023-05-09 16:58:15.753,46.0898033,11.1155983,244.89999389648438,-5.93,-174.59,1.54,null
SMAR,2023-05-09 16:58:15.792,46.0898033,11.1155983,244.89999389648438,-6.07,-174.6,1.51,null
SMAR,2023-05-09 16:58:15.821,46.0898033,11.1155983,244.89999389648438,-6.21,-174.48,1.47,null
STON,2023-05-09 16:58:15.821,46.08980257,11.115623371666667,198.317,-4.863834,-23.629023,-2.253485,2
STON,2023-05-09 16:58:15.821,46.08980257,11.115623371666667,198.317,-5.48064,-21.970539,-2.1983,2
SMAR,2023-05-09 16:58:15.855,46.0898033,11.1155983,244.89999389648438,-6.35,-174.37,1.4,null
SMAR,2023-05-09 16:58:15.888,46.0898033,11.1155983,244.89999389648438,-6.49,-174.3,1.35,null
SMAR,2023-05-09 16:58:15.925,46.0898033,11.1155983,244.89999389648438,-6.62,-174.26,1.31,null
SMAR,2023-05-09 16:58:15.96,46.0898033,11.1155983,244.89999389648438,-6.75,-174.21,1.28,null
SMAR,2023-05-09 16:58:16.02,46.0898033,11.1155983,244.89999389648438,-6.9,-174.18,1.23,null
SMAR,2023-05-09 16:58:16.052,46.0898033,11.1155983,244.89999389648438,-7.05,-174.19,1.2,null
SMAR,2023-05-09 16:58:16.057,46.0898033,11.1155983,244.89999389648438,-7.19,-174.31,1.16,null
STON,2023-05-09 16:58:16.057,46.08980279166666,11.115623333333334,198.315,-5.48064,-21.970539,-2.1983,2
STON,2023-05-09 16:58:16.057,46.08980279166666,11.115623333333334,198.315,-6.311465,-22.414036,-1.9525,2
SMAR,2023-05-09 16:58:16.129,46.0898033,11.1155983,244.89999389648438,-7.31,-174.65,1.14,null
SMAR,2023-05-09 16:58:16.145,46.0898033,11.1155983,244.89999389648438,-7.41,-175.13,1.11,null
SMAR,2023-05-09 16:58:16.168,46.0898033,11.1155983,244.89999389648438,-7.52,-175.64,1.07,null
SMAR,2023-05-09 16:58:16.196,46.0898033,11.1155983,244.89999389648438,-7.63,-176.05,1.02,null
STON,2023-05-09 16:58:16.196,46.089803016666664,11.11562337,198.309,-6.311465,-22.414036,-1.9525,2
SMAR,2023-05-09 16:58:16.216,46.0898033,11.1155983,244.89999389648438,-7.74,-176.33,0.94,null
SMAR,2023-05-09 16:58:16.249,46.0898033,11.1155983,244.89999389648438,-7.85,-176.49,0.83,null
SMAR,2023-05-09 16:58:16.283,46.0898033,11.1155983,244.89999389648438,-7.96,-176.59,0.7,null
STON,2023-05-09 16:58:16.283,46.089803016666664,11.11562337,198.309,-7.058784,-20.642431,-1.734745,2
SMAR,2023-05-09 16:58:16.315,46.0898033,11.1155983,244.89999389648438,-8.05,-176.65,0.56,null
SMAR,2023-05-09 16:58:16.348,46.0898033,11.1155983,244.89999389648438,-8.14,-176.71,0.42,null
STON,2023-05-09 16:58:16.348,46.089803245,11.11562359,198.302,-7.058784,-20.642431,-1.734745,2
SMAR,2023-05-09 16:58:16.382,46.0898033,11.1155983,244.89999389648438,-8.25,-176.73,0.29,null
SMAR,2023-05-09 16:58:16.416,46.0898033,11.1155983,244.89999389648438,-8.38,-176.76,0.16,null
SMAR,2023-05-09 16:58:16.449,46.0898033,11.1155983,244.89999389648438,-8.49,-176.81,0.04,null
STON,2023-05-09 16:58:16.449,46.089803245,11.11562359,198.302,-7.697482,-19.947369,-1.02856,2
SMAR,2023-05-09 16:58:16.481,46.0898033,11.1155983,244.89999389648438,-8.6,-176.89,-0.09,null
SMAR,2023-05-09 16:58:16.514,46.0898033,11.1155983,244.89999389648438,-8.73,-177.0,-0.21,null
SMAR,2023-05-09 16:58:16.549,46.0898033,11.1155983,244.89999389648438,-8.88,-177.14,-0.32,null
STON,2023-05-09 16:58:16.549,46.08980355166667,11.115623788333334,198.3,-7.697482,-19.947369,-1.02856,2
SMAR,2023-05-09 16:58:16.581,46.0898033,11.1155983,244.89999389648438,-9.04,-177.28,-0.43,null
SMAR,2023-05-09 16:58:16.615,46.0898033,11.1155983,244.89999389648438,-9.23,-177.4,-0.53,null
SMAR,2023-05-09 16:58:16.648,46.0898033,11.1155983,244.89999389648438,-9.42,-177.5,-0.62,null
STON,2023-05-09 16:58:16.648,46.08980355166667,11.115623788333334,198.3,-8.476181,-19.522346,-0.298388,2
SMAR,2023-05-09 16:58:16.682,46.0898033,11.1155983,244.89999389648438,-9.63,-177.63,-0.7,null
SMAR,2023-05-09 16:58:16.718,46.0898033,11.1155983,244.89999389648438,-9.83,-177.83,-0.76,null
SMAR,2023-05-09 16:58:16.748,46.0898033,11.1155983,244.89999389648438,-10.05,-178.08,-0.8,null
SMAR,2023-05-09 16:58:16.783,46.0898033,11.1155983,244.89999389648438,-10.28,-178.37,-0.84,null
STON,2023-05-09 16:58:16.783,46.089803915,11.115623848333334,198.287,-8.476181,-19.522346,-0.298388,2
SMAR,2023-05-09 16:58:16.815,46.0898033,11.1155983,244.89999389648438,-10.49,-178.74,-0.85,null
SMAR,2023-05-09 16:58:16.865,46.0898033,11.1155983,244.89999389648438,-10.71,-179.16,-0.86,null
STON,2023-05-09 16:58:16.865,46.089803915,11.115623848333334,198.287,-9.704233,-18.572107,0.146233,2
SMAR,2023-05-09 16:58:16.897,46.0898033,11.1155983,244.89999389648438,-10.93,-179.64,-0.84,null
SMAR,2023-05-09 16:58:16.928,46.0898033,11.1155983,244.89999389648438,-11.14,179.88,-0.8,null
SMAR,2023-05-09 16:58:16.962,46.0898033,11.1155983,244.89999389648438,-11.35,179.44,-0.78,null
SMAR,2023-05-09 16:58:16.994,46.0898033,11.1155983,244.89999389648438,-11.56,179.06,-0.76,null
SMAR,2023-05-09 16:58:17.028,46.0898033,11.1155983,244.89999389648438,-11.74,178.88,-0.78,null
STON,2023-05-09 16:58:17.028,46.08980428833333,11.115623845,198.28,-9.704233,-18.572107,0.146233,2
SMAR,2023-05-09 16:58:17.06,46.0898033,11.1155983,244.89999389648438,-11.95,178.85,-0.86,null
STON,2023-05-09 16:58:17.06,46.08980428833333,11.115623845,198.28,-10.98459,-15.998755,0.080751,2
SMAR,2023-05-09 16:58:17.095,46.0898033,11.1155983,244.89999389648438,-12.14,178.84,-0.93,null
SMAR,2023-05-09 16:58:17.129,46.0898033,11.1155983,244.89999389648438,-12.33,178.75,-0.96,null
SMAR,2023-05-09 16:58:17.161,46.0898033,11.1155983,244.89999389648438,-12.52,178.54,-0.98,null
SMAR,2023-05-09 16:58:17.194,46.0898033,11.1155983,244.89999389648438,-12.68,178.2,-0.96,null
STON,2023-05-09 16:58:17.194,46.089804611666665,11.115623863333333,198.27,-10.98459,-15.998755,0.080751,2
SMAR,2023-05-09 16:58:17.227,46.0898033,11.1155983,244.89999389648438,-12.86,177.84,-0.93,null
SMAR,2023-05-09 16:58:17.261,46.0898033,11.1155983,244.89999389648438,-13.03,177.56,-0.92,null
SMAR,2023-05-09 16:58:17.294,46.0898033,11.1155983,244.89999389648438,-13.19,177.39,-0.92,null
STON,2023-05-09 16:58:17.294,46.089804611666665,11.115623863333333,198.27,-12.122707,-15.179845,0.307525,2
SMAR,2023-05-09 16:58:17.328,46.0898033,11.1155983,244.89999389648438,-13.36,177.42,-0.95,null
SMAR,2023-05-09 16:58:17.361,46.0898033,11.1155983,244.89999389648438,-13.54,177.63,-1.03,null
SMAR,2023-05-09 16:58:17.392,46.0898033,11.1155983,244.89999389648438,-13.7,177.9,-1.11,null
SMAR,2023-05-09 16:58:17.426,46.0898033,11.1155983,244.89999389648438,-13.88,178.19,-1.19,null
STON,2023-05-09 16:58:17.426,46.089804916666665,11.115623831666667,198.265,-12.122707,-15.179845,0.307525,2
SMAR,2023-05-09 16:58:17.46,46.0898033,11.1155983,244.89999389648438,-14.05,178.42,-1.25,null
STON,2023-05-09 16:58:17.46,46.089804916666665,11.115623831666667,198.265,-13.160439,-14.736554,0.434592,2
SMAR,2023-05-09 16:58:17.491,46.0898033,11.1155983,244.89999389648438,-14.22,178.56,-1.29,null
SMAR,2023-05-09 16:58:17.526,46.0898033,11.1155983,244.79998779296875,-14.39,178.65,-1.31,null
SMAR,2023-05-09 16:58:17.561,46.0898033,11.1155983,244.79998779296875,-14.57,178.73,-1.32,null
SMAR,2023-05-09 16:58:17.635,46.0898033,11.1155983,244.79998779296875,-14.73,178.74,-1.32,null
STON,2023-05-09 16:58:17.635,46.08980524166667,11.115623733333333,198.262,-13.160439,-14.736554,0.434592,2
SMAR,2023-05-09 16:58:17.654,46.0898033,11.1155983,244.79998779296875,-14.89,178.69,-1.29,null
STON,2023-05-09 16:58:17.654,46.08980524166667,11.115623733333333,198.262,-14.208659,-15.720523,0.670628,2
SMAR,2023-05-09 16:58:17.689,46.0898033,11.1155983,244.79998779296875,-15.16,178.51,-1.21,null
SMAR,2023-05-09 16:58:17.735,46.0898033,11.1155983,244.79998779296875,-15.27,178.6,-1.22,null
STON,2023-05-09 16:58:17.735,46.08980545166666,11.115623626666666,198.256,-14.208659,-15.720523,0.670628,2
SMAR,2023-05-09 16:58:17.757,46.0898033,11.1155983,244.79998779296875,-15.39,178.87,-1.27,null
SMAR,2023-05-09 16:58:17.792,46.0898033,11.1155983,244.79998779296875,-15.52,179.25,-1.35,null
SMAR,2023-05-09 16:58:17.825,46.0898033,11.1155983,244.79998779296875,-15.66,179.61,-1.43,null
STON,2023-05-09 16:58:17.825,46.08980545166666,11.115623626666666,198.256,-15.007731,-16.124132,0.681159,2
SMAR,2023-05-09 16:58:17.879,46.0898033,11.1155983,244.79998779296875,-15.78,179.84,-1.49,null
SMAR,2023-05-09 16:58:17.897,46.0898033,11.1155983,244.79998779296875,-15.9,179.9,-1.5,null
SMAR,2023-05-09 16:58:17.937,46.0898033,11.1155983,244.79998779296875,-16.04,179.88,-1.48,null
SMAR,2023-05-09 16:58:17.955,46.0898033,11.1155983,244.79998779296875,-16.18,179.85,-1.45,null
SMAR,2023-05-09 16:58:17.989,46.0898033,11.1155983,244.79998779296875,-16.32,179.84,-1.43,null
SMAR,2023-05-09 16:58:18.024,46.0898033,11.1155983,244.79998779296875,-16.45,179.81,-1.41,null
SMAR,2023-05-09 16:58:18.059,46.0898033,11.1155983,244.79998779296875,-16.58,179.66,-1.37,null
STON,2023-05-09 16:58:18.059,46.089805665,11.115623513333333,198.25,-15.007731,-16.124132,0.681159,2
STON,2023-05-09 16:58:18.059,46.089805665,11.115623513333333,198.25,-15.817265,-16.88566,0.800082,2
SMAR,2023-05-09 16:58:18.088,46.0898033,11.1155983,244.79998779296875,-16.7,179.39,-1.26,null
SMAR,2023-05-09 16:58:18.12,46.0898033,11.1155983,244.79998779296875,-16.82,179.08,-1.14,null
SMAR,2023-05-09 16:58:18.155,46.0898033,11.1155983,244.79998779296875,-16.94,178.97,-1.05,null
STON,2023-05-09 16:58:18.155,46.089805838333334,11.11562338,198.242,-15.817265,-16.88566,0.800082,2
SMAR,2023-05-09 16:58:18.192,46.0898033,11.1155983,244.79998779296875,-17.07,179.2,-1.06,null
SMAR,2023-05-09 16:58:18.235,46.0898033,11.1155983,244.79998779296875,-17.21,179.72,-1.18,null
SMAR,2023-05-09 16:58:18.259,46.0898033,11.1155983,244.79998779296875,-17.36,-179.69,-1.31,null
STON,2023-05-09 16:58:18.259,46.089805838333334,11.11562338,198.242,-16.573034,-16.055656,0.407336,2
SMAR,2023-05-09 16:58:18.293,46.0898033,11.1155983,244.79998779296875,-17.5,-179.38,-1.4,null
SMAR,2023-05-09 16:58:18.326,46.0898033,11.1155983,244.79998779296875,-17.59,-179.47,-1.39,null
SMAR,2023-05-09 16:58:18.36,46.0898033,11.1155983,244.79998779296875,-17.73,-179.79,-1.26,null
SMAR,2023-05-09 16:58:18.397,46.0898033,11.1155983,244.79998779296875,-17.9,179.91,-1.14,null
STON,2023-05-09 16:58:18.397,46.08980604833334,11.11562325,198.235,-16.573034,-16.055656,0.407336,2
SMAR,2023-05-09 16:58:18.43,46.0898033,11.1155983,244.79998779296875,-18.06,179.74,-1.09,null
STON,2023-05-09 16:58:18.43,46.08980604833334,11.11562325,198.235,-17.399645,-17.012215,0.538382,2
SMAR,2023-05-09 16:58:18.457,46.0898033,11.1155983,244.79998779296875,-18.24,179.66,-1.08,null
SMAR,2023-05-09 16:58:18.507,46.0898033,11.1155983,244.79998779296875,-18.44,179.58,-1.09,null
SMAR,2023-05-09 16:58:18.528,46.0898033,11.1155983,244.79998779296875,-18.64,179.39,-1.05,null
SMAR,2023-05-09 16:58:18.557,46.0898033,11.1155983,244.79998779296875,-18.83,179.17,-1.0,null
STON,2023-05-09 16:58:18.557,46.089806323333335,11.11562316,198.223,-17.399645,-17.012215,0.538382,2
SMAR,2023-05-09 16:58:18.598,46.0898033,11.1155983,244.79998779296875,-19.03,178.96,-0.95,null
SMAR,2023-05-09 16:58:18.622,46.0898033,11.1155983,244.79998779296875,-19.2,178.75,-0.9,null
STON,2023-05-09 16:58:18.622,46.089806323333335,11.11562316,198.223,-18.529188,-16.000582,0.329057,2
SMAR,2023-05-09 16:58:18.651,46.0898033,11.1155983,244.79998779296875,-19.36,178.6,-0.86,null
SMAR,2023-05-09 16:58:18.694,46.0898033,11.1155983,244.79998779296875,-19.52,178.51,-0.84,null
SMAR,2023-05-09 16:58:18.727,46.0898033,11.1155983,244.79998779296875,-19.66,178.41,-0.82,null
SMAR,2023-05-09 16:58:18.76,46.0898033,11.1155983,244.79998779296875,-19.78,178.27,-0.78,null
SMAR,2023-05-09 16:58:18.803,46.0898033,11.1155983,244.79998779296875,-19.91,178.12,-0.73,null
STON,2023-05-09 16:58:18.803,46.089806593333336,11.115623078333334,198.211,-18.529188,-16.000582,0.329057,2
SMAR,2023-05-09 16:58:18.84,46.0898033,11.1155983,244.79998779296875,-20.04,178.02,-0.68,null
SMAR,2023-05-09 16:58:18.865,46.0898033,11.1155983,244.79998779296875,-20.17,177.99,-0.65,null
STON,2023-05-09 16:58:18.865,46.089806593333336,11.115623078333334,198.211,-19.425566,-15.075268,0.087933,2
SMAR,2023-05-09 16:58:18.903,46.0898033,11.1155983,244.79998779296875,-20.31,178.06,-0.64,null
SMAR,2023-05-09 16:58:18.93,46.0898033,11.1155983,244.79998779296875,-20.45,178.19,-0.65,null
SMAR,2023-05-09 16:58:18.969,46.0898033,11.1155983,244.79998779296875,-20.6,178.34,-0.66,null
SMAR,2023-05-09 16:58:19.002,46.0898033,11.1155983,244.79998779296875,-20.75,178.46,-0.66,null
SMAR,2023-05-09 16:58:19.04,46.0898033,11.1155983,244.79998779296875,-20.9,178.51,-0.63,null
STON,2023-05-09 16:58:19.04,46.089806805,11.115622935,198.202,-19.425566,-15.075268,0.087933,2
STON,2023-05-09 16:58:19.04,46.089806805,11.115622935,198.202,-20.267572,-15.288099,-0.008962,2
SMAR,2023-05-09 16:58:19.069,46.0898033,11.1155983,244.79998779296875,-21.06,178.49,-0.57,null
SMAR,2023-05-09 16:58:19.119,46.0898033,11.1155983,244.79998779296875,-21.21,178.43,-0.49,null
SMAR,2023-05-09 16:58:19.143,46.0898033,11.1155983,244.79998779296875,-21.35,178.38,-0.43,null
SMAR,2023-05-09 16:58:19.159,46.0898033,11.1155983,244.79998779296875,-21.49,178.38,-0.39,null
STON,2023-05-09 16:58:19.159,46.089807031666666,11.115622733333334,198.192,-20.267572,-15.288099,-0.008962,2
SMAR,2023-05-09 16:58:19.203,46.0898033,11.1155983,244.79998779296875,-21.64,178.44,-0.37,null
SMAR,2023-05-09 16:58:19.236,46.0898033,11.1155983,244.79998779296875,-21.79,178.54,-0.37,null
STON,2023-05-09 16:58:19.236,46.089807031666666,11.115622733333334,198.192,-21.158245,-15.175433,-0.322731,2
SMAR,2023-05-09 16:58:19.263,46.0898033,11.1155983,244.79998779296875,-21.93,178.6,-0.36,null
SMAR,2023-05-09 16:58:19.298,46.0898033,11.1155983,244.79998779296875,-22.09,178.64,-0.34,null
SMAR,2023-05-09 16:58:19.332,46.0898033,11.1155983,244.79998779296875,-22.24,178.62,-0.3,null
SMAR,2023-05-09 16:58:19.371,46.0898033,11.1155983,244.79998779296875,-22.39,178.49,-0.22,null
SMAR,2023-05-09 16:58:19.406,46.0898033,11.1155983,244.79998779296875,-22.53,178.26,-0.1,null
SMAR,2023-05-09 16:58:19.436,46.0898033,11.1155983,244.79998779296875,-22.66,178.0,0.03,null
SMAR,2023-05-09 16:58:19.46,46.0898033,11.1155983,244.79998779296875,-22.79,177.8,0.13,null
SMAR,2023-05-09 16:58:19.494,46.0898033,11.1155983,244.79998779296875,-22.92,177.72,0.17,null
SMAR,2023-05-09 16:58:19.528,46.0898033,11.1155983,244.79998779296875,-23.05,177.71,0.19,null
SMAR,2023-05-09 16:58:19.559,46.0898033,11.1155983,244.79998779296875,-23.18,177.74,0.19,null
SMAR,2023-05-09 16:58:19.592,46.0898033,11.1155983,244.79998779296875,-23.31,177.78,0.18,null
SMAR,2023-05-09 16:58:19.626,46.0898033,11.1155983,244.79998779296875,-23.44,177.8,0.18,null
STON,2023-05-09 16:58:19.626,46.089807225,11.11562257,198.18,-21.158245,-15.175433,-0.322731,2
SMAR,2023-05-09 16:58:19.663,46.0898033,11.1155983,244.79998779296875,-23.56,177.83,0.19,null
STON,2023-05-09 16:58:19.663,46.089807225,11.11562257,198.18,-22.054131,-15.034502,-0.579026,2
STON,2023-05-09 16:58:19.663,46.08980740333333,11.115622441666666,198.172,-22.054131,-15.034502,-0.579026,2
STON,2023-05-09 16:58:19.663,46.08980740333333,11.115622441666666,198.172,-22.83672,-14.288847,-0.933242,2
SMAR,2023-05-09 16:58:19.697,46.0898033,11.1155983,244.79998779296875,-23.68,177.86,0.19,null
SMAR,2023-05-09 16:58:19.733,46.0898033,11.1155983,244.79998779296875,-23.81,177.89,0.2,null
SMAR,2023-05-09 16:58:19.771,46.0898033,11.1155983,244.79998779296875,-23.93,177.95,0.19,null
SMAR,2023-05-09 16:58:19.803,46.0898033,11.1155983,244.79998779296875,-24.06,178.03,0.18,null
STON,2023-05-09 16:58:19.803,46.089807601666664,11.115622353333332,198.161,-22.83672,-14.288847,-0.933242,2
SMAR,2023-05-09 16:58:19.833,46.0898033,11.1155983,244.79998779296875,-24.19,178.08,0.19,null
SMAR,2023-05-09 16:58:19.857,46.0898033,11.1155983,244.79998779296875,-24.32,178.14,0.2,null
STON,2023-05-09 16:58:19.857,46.089807601666664,11.115622353333332,198.161,-23.599894,-14.520476,-0.933502,2
SMAR,2023-05-09 16:58:19.901,46.0898033,11.1155983,244.79998779296875,-24.47,178.19,0.21,null
SMAR,2023-05-09 16:58:19.932,46.0898033,11.1155983,244.79998779296875,-24.62,178.24,0.24,null
SMAR,2023-05-09 16:58:19.956,46.0898033,11.1155983,244.79998779296875,-24.78,178.29,0.26,null
SMAR,2023-05-09 16:58:19.998,46.0898033,11.1155983,244.79998779296875,-24.94,178.28,0.3,null
SMAR,2023-05-09 16:58:20.027,46.0898033,11.1155983,244.79998779296875,-25.1,178.21,0.38,null
STON,2023-05-09 16:58:20.027,46.08980783,11.115622183333333,198.151,-23.599894,-14.520476,-0.933502,2
SMAR,2023-05-09 16:58:20.056,46.0898033,11.1155983,244.79998779296875,-25.26,178.14,0.44,null
SMAR,2023-05-09 16:58:20.112,46.0898033,11.1155983,244.79998779296875,-25.43,178.12,0.49,null
SMAR,2023-05-09 16:58:20.134,46.0898033,11.1155983,244.79998779296875,-25.6,178.18,0.5,null
STON,2023-05-09 16:58:20.134,46.08980783,11.115622183333333,198.151,-24.492157,-14.745763,-1.035673,2
SMAR,2023-05-09 16:58:20.162,46.0898033,11.1155983,244.79998779296875,-25.75,178.3,0.48,null
STON,2023-05-09 16:58:20.162,46.08980809,11.115622028333334,198.131,-24.492157,-14.745763,-1.035673,2
SMAR,2023-05-09 16:58:20.196,46.0898033,11.1155983,244.79998779296875,-25.91,178.35,0.48,null
SMAR,2023-05-09 16:58:20.239,46.0898033,11.1155983,244.79998779296875,-26.06,178.35,0.52,null
SMAR,2023-05-09 16:58:20.263,46.0898033,11.1155983,244.79998779296875,-26.2,178.3,0.57,null
SMAR,2023-05-09 16:58:20.292,46.0898033,11.1155983,244.79998779296875,-26.36,178.23,0.63,null
SMAR,2023-05-09 16:58:20.332,46.0898033,11.1155983,244.79998779296875,-26.51,178.2,0.68,null
STON,2023-05-09 16:58:20.332,46.08980809,11.115622028333334,198.131,-25.463528,-14.705176,-1.252231,2
SMAR,2023-05-09 16:58:20.372,46.0898033,11.1155983,244.79998779296875,-26.67,178.19,0.71,null
SMAR,2023-05-09 16:58:20.415,46.0898033,11.1155983,244.79998779296875,-26.83,178.21,0.74,null
STON,2023-05-09 16:58:20.415,46.08980830833333,11.115621856666667,198.113,-25.463528,-14.705176,-1.252231,2
SMAR,2023-05-09 16:58:20.446,46.0898033,11.1155983,244.79998779296875,-26.99,178.25,0.76,null
SMAR,2023-05-09 16:58:20.476,46.0898033,11.1155983,244.79998779296875,-27.15,178.29,0.77,null
SMAR,2023-05-09 16:58:20.499,46.0898033,11.1155983,244.79998779296875,-27.3,178.32,0.8,null
STON,2023-05-09 16:58:20.499,46.08980830833333,11.115621856666667,198.113,-26.391607,-14.430128,-1.521786,2
SMAR,2023-05-09 16:58:20.527,46.0898033,11.1155983,244.79998779296875,-27.44,178.3,0.84,null
SMAR,2023-05-09 16:58:20.572,46.0898033,11.1155983,244.79998779296875,-27.57,178.24,0.92,null
STON,2023-05-09 16:58:20.572,46.08980853333333,11.115621708333334,198.101,-26.391607,-14.430128,-1.521786,2
SMAR,2023-05-09 16:58:20.592,46.0898033,11.1155983,244.79998779296875,-27.7,178.18,0.98,null
SMAR,2023-05-09 16:58:20.635,46.0898033,11.1155983,244.79998779296875,-27.83,178.14,1.04,null
STON,2023-05-09 16:58:20.635,46.08980853333333,11.115621708333334,198.101,-27.285801,-14.31242,-1.757818,2
SMAR,2023-05-09 16:58:20.67,46.0898033,11.1155983,244.79998779296875,-27.95,178.12,1.08,null
SMAR,2023-05-09 16:58:20.703,46.0898033,11.1155983,244.79998779296875,-28.08,178.09,1.12,null
SMAR,2023-05-09 16:58:20.736,46.0898033,11.1155983,244.79998779296875,-28.2,178.07,1.16,null
SMAR,2023-05-09 16:58:20.775,46.0898033,11.1155983,244.79998779296875,-28.32,178.05,1.2,null
SMAR,2023-05-09 16:58:20.821,46.0898033,11.1155983,244.79998779296875,-28.44,178.06,1.23,null
STON,2023-05-09 16:58:20.821,46.08980871333333,11.115621586666666,198.092,-27.285801,-14.31242,-1.757818,2
SMAR,2023-05-09 16:58:20.864,46.0898033,11.1155983,244.79998779296875,-28.56,178.12,1.23,null
SMAR,2023-05-09 16:58:20.901,46.0898033,11.1155983,244.79998779296875,-28.68,178.25,1.19,null
STON,2023-05-09 16:58:20.901,46.08980871333333,11.115621586666666,198.092,-28.038013,-13.982763,-2.065029,2
SMAR,2023-05-09 16:58:20.918,46.0898033,11.1155983,244.79998779296875,-28.79,178.45,1.12,null
SMAR,2023-05-09 16:58:20.969,46.0898033,11.1155983,244.79998779296875,-28.92,178.64,1.05,null
SMAR,2023-05-09 16:58:20.984,46.0898033,11.1155983,244.79998779296875,-29.05,178.72,1.04,null
SMAR,2023-05-09 16:58:21.036,46.0898033,11.1155983,244.79998779296875,-29.16,178.66,1.12,null
SMAR,2023-05-09 16:58:21.06,46.0898033,11.1155983,244.79998779296875,-29.27,178.54,1.23,null
SMAR,2023-05-09 16:58:21.086,46.0898033,11.1155983,244.79998779296875,-29.38,178.5,1.29,null
STON,2023-05-09 16:58:21.086,46.08980886333333,11.115621448333334,198.08,-28.038013,-13.982763,-2.065029,2
STON,2023-05-09 16:58:21.086,46.08980886333333,11.115621448333334,198.08,-28.769835,-14.675161,-1.906065,2
SMAR,2023-05-09 16:58:21.128,46.0898033,11.1155983,244.79998779296875,-29.5,178.56,1.3,null
SMAR,2023-05-09 16:58:21.149,46.0898033,11.1155983,244.79998779296875,-29.6,178.64,1.29,null
SMAR,2023-05-09 16:58:21.182,46.0898033,11.1155983,244.79998779296875,-29.7,178.66,1.31,null
SMAR,2023-05-09 16:58:21.214,46.0898033,11.1155983,244.79998779296875,-29.8,178.64,1.35,null
STON,2023-05-09 16:58:21.214,46.089809026666664,11.115621321666667,198.072,-28.769835,-14.675161,-1.906065,2
SMAR,2023-05-09 16:58:21.249,46.0898033,11.1155983,244.79998779296875,-29.9,178.57,1.41,null
STON,2023-05-09 16:58:21.249,46.089809026666664,11.115621321666667,198.072,-29.419575,-14.450459,-2.19418,2
SMAR,2023-05-09 16:58:21.287,46.0898033,11.1155983,244.79998779296875,-29.99,178.47,1.49,null
SMAR,2023-05-09 16:58:21.318,46.0898033,11.1155983,244.79998779296875,-30.08,178.3,1.6,null
SMAR,2023-05-09 16:58:21.347,46.0898033,11.1155983,244.79998779296875,-30.18,178.15,1.72,null
STON,2023-05-09 16:58:21.347,46.089809233333334,11.115621213333334,198.05,-29.419575,-14.450459,-2.19418,2
SMAR,2023-05-09 16:58:21.38,46.0898033,11.1155983,244.79998779296875,-30.28,178.07,1.78,null
SMAR,2023-05-09 16:58:21.415,46.0898033,11.1155983,244.79998779296875,-30.37,178.04,1.82,null
STON,2023-05-09 16:58:21.415,46.089809233333334,11.115621213333334,198.05,-29.994957,-13.538463,-2.738886,2
SMAR,2023-05-09 16:58:21.462,46.0898033,11.1155983,244.79998779296875,-30.47,178.08,1.84,null
SMAR,2023-05-09 16:58:21.482,46.0898033,11.1155983,244.79998779296875,-30.57,178.11,1.85,null
SMAR,2023-05-09 16:58:21.53,46.0898033,11.1155983,244.79998779296875,-30.72,177.99,1.99,null
SMAR,2023-05-09 16:58:21.564,46.0898033,11.1155983,244.79998779296875,-30.8,178.0,2.02,null
SMAR,2023-05-09 16:58:21.605,46.0898033,11.1155983,244.79998779296875,-30.88,178.1,2.02,null
STON,2023-05-09 16:58:21.605,46.089809295,11.115621093333333,198.034,-29.994957,-13.538463,-2.738886,2
SMAR,2023-05-09 16:58:21.639,46.0898033,11.1155983,244.79998779296875,-30.96,178.28,1.96,null
SMAR,2023-05-09 16:58:21.675,46.0898033,11.1155983,244.79998779296875,-31.02,178.51,1.88,null
STON,2023-05-09 16:58:21.675,46.089809295,11.115621093333333,198.034,-30.499931,-13.35006,-2.992653,2
SMAR,2023-05-09 16:58:21.704,46.0898033,11.1155983,244.79998779296875,-31.1,178.65,1.87,null
SMAR,2023-05-09 16:58:21.752,46.0898033,11.1155983,244.79998779296875,-31.16,178.54,2.01,null
SMAR,2023-05-09 16:58:21.77,46.0898033,11.1155983,244.79998779296875,-31.2,178.22,2.27,null
STON,2023-05-09 16:58:21.77,46.08980935833333,11.115620951666667,198.025,-30.499931,-13.35006,-2.992653,2
SMAR,2023-05-09 16:58:21.805,46.0898033,11.1155983,244.79998779296875,-31.27,177.96,2.5,null
SMAR,2023-05-09 16:58:21.836,46.0898033,11.1155983,244.79998779296875,-31.34,177.89,2.6,null
STON,2023-05-09 16:58:21.836,46.08980935833333,11.115620951666667,198.025,-30.892229,-13.128533,-3.430922,2
SMAR,2023-05-09 16:58:21.865,46.0898033,11.1155983,244.79998779296875,-31.39,177.9,2.65,null
SMAR,2023-05-09 16:58:21.904,46.0898033,11.1155983,244.79998779296875,-31.46,178.02,2.64,null
SMAR,2023-05-09 16:58:21.936,46.0898033,11.1155983,244.79998779296875,-31.52,178.12,2.63,null
SMAR,2023-05-09 16:58:21.972,46.0898033,11.1155983,244.79998779296875,-31.56,178.17,2.65,null
SMAR,2023-05-09 16:58:22.005,46.0898033,11.1155983,244.79998779296875,-31.62,178.17,2.68,null
SMAR,2023-05-09 16:58:22.059,46.0898033,11.1155983,244.79998779296875,-31.67,178.18,2.71,null
SMAR,2023-05-09 16:58:22.085,46.0898033,11.1155983,244.79998779296875,-31.71,178.24,2.7,null
SMAR,2023-05-09 16:58:22.11,46.0898033,11.1155983,244.79998779296875,-31.78,178.34,2.66,null
SMAR,2023-05-09 16:58:22.137,46.0898033,11.1155983,244.79998779296875,-31.84,178.39,2.65,null
SMAR,2023-05-09 16:58:22.172,46.0898033,11.1155983,244.79998779296875,-31.91,178.38,2.66,null
SMAR,2023-05-09 16:58:22.198,46.0898033,11.1155983,244.79998779296875,-32.0,178.35,2.68,null
STON,2023-05-09 16:58:22.198,46.08980942833333,11.1156208,198.026,-30.892229,-13.128533,-3.430922,2
STON,2023-05-09 16:58:22.198,46.08980942833333,11.1156208,198.026,-31.252436,-13.018949,-3.764439,2
SMAR,2023-05-09 16:58:22.236,46.0898033,11.1155983,244.79998779296875,-32.1,178.33,2.7,null
SMAR,2023-05-09 16:58:22.269,46.0898033,11.1155983,244.79998779296875,-32.21,178.25,2.73,null
SMAR,2023-05-09 16:58:22.304,46.0898033,11.1155983,244.79998779296875,-32.32,178.12,2.79,null
SMAR,2023-05-09 16:58:22.336,46.0898033,11.1155983,244.79998779296875,-32.43,177.99,2.86,null
STON,2023-05-09 16:58:22.336,46.08980948833333,11.115620751666667,198.016,-31.252436,-13.018949,-3.764439,2
STON,2023-05-09 16:58:22.336,46.08980948833333,11.115620751666667,198.016,-31.605175,-13.192062,-3.773078,2
SMAR,2023-05-09 16:58:22.362,46.0898033,11.1155983,244.79998779296875,-32.54,177.87,2.88,null
SMAR,2023-05-09 16:58:22.4,46.0898033,11.1155983,244.79998779296875,-32.65,177.78,2.9,null
SMAR,2023-05-09 16:58:22.428,46.0898033,11.1155983,244.79998779296875,-32.77,177.76,2.87,null
STON,2023-05-09 16:58:22.428,46.08980966833333,11.115620718333334,198.008,-31.605175,-13.192062,-3.773078,2
STON,2023-05-09 16:58:22.428,46.08980966833333,11.115620718333334,198.008,-32.231613,-12.449088,-4.074806,2
SMAR,2023-05-09 16:58:22.464,46.0898033,11.1155983,244.79998779296875,-32.89,177.73,2.84,null
SMAR,2023-05-09 16:58:22.506,46.0898033,11.1155983,244.79998779296875,-33.0,177.65,2.86,null
SMAR,2023-05-09 16:58:22.536,46.0898033,11.1155983,244.79998779296875,-33.11,177.53,2.88,null
SMAR,2023-05-09 16:58:22.58,46.0898033,11.1155983,244.79998779296875,-33.22,177.38,2.94,null
SMAR,2023-05-09 16:58:22.621,46.0898033,11.1155983,244.79998779296875,-33.33,177.22,3.0,null
STON,2023-05-09 16:58:22.621,46.089809855,11.11562073,197.996,-32.231613,-12.449088,-4.074806,2
SMAR,2023-05-09 16:58:22.654,46.0898033,11.1155983,244.79998779296875,-33.44,177.1,3.04,null
SMAR,2023-05-09 16:58:22.679,46.0898033,11.1155983,244.79998779296875,-33.55,177.07,3.02,null
SMAR,2023-05-09 16:58:22.704,46.0898033,11.1155983,244.79998779296875,-33.67,177.06,2.98,null
STON,2023-05-09 16:58:22.704,46.089809855,11.11562073,197.996,-32.905445,-11.826975,-4.191725,2
SMAR,2023-05-09 16:58:22.753,46.0898033,11.1155983,244.79998779296875,-33.79,177.07,2.95,null
SMAR,2023-05-09 16:58:22.787,46.0898033,11.1155983,244.79998779296875,-33.9,177.03,2.94,null
STON,2023-05-09 16:58:22.787,46.08980996333333,11.115620733333333,197.983,-32.905445,-11.826975,-4.191725,2
SMAR,2023-05-09 16:58:22.806,46.0898033,11.1155983,244.79998779296875,-34.01,176.94,2.96,null
SMAR,2023-05-09 16:58:22.844,46.0898033,11.1155983,244.79998779296875,-34.12,176.87,2.98,null
SMAR,2023-05-09 16:58:22.878,46.0898033,11.1155983,244.79998779296875,-34.25,176.86,2.97,null
SMAR,2023-05-09 16:58:22.9,46.0898033,11.1155983,244.79998779296875,-34.37,176.87,2.94,null
STON,2023-05-09 16:58:22.9,46.08980996333333,11.115620733333333,197.983,-33.578632,-11.411029,-4.211481,2
SMAR,2023-05-09 16:58:22.951,46.0898033,11.1155983,244.79998779296875,-34.49,176.88,2.91,null
SMAR,2023-05-09 16:58:22.973,46.0898033,11.1155983,244.79998779296875,-34.6,176.84,2.93,null
SMAR,2023-05-09 16:58:23.012,46.0898033,11.1155983,244.79998779296875,-34.71,176.75,2.96,null
SMAR,2023-05-09 16:58:23.043,46.0898033,11.1155983,244.79998779296875,-34.83,176.67,3.01,null
SMAR,2023-05-09 16:58:23.103,46.0898033,11.1155983,244.89999389648438,-34.96,176.57,3.08,null
STON,2023-05-09 16:58:23.103,46.08981014333333,11.115620755,197.971,-33.578632,-11.411029,-4.211481,2
SMAR,2023-05-09 16:58:23.125,46.0898033,11.1155983,244.89999389648438,-35.07,176.49,3.14,null
STON,2023-05-09 16:58:23.125,46.08981014333333,11.115620755,197.971,-34.277565,-11.183954,-4.244731,2
SMAR,2023-05-09 16:58:23.158,46.0898033,11.1155983,244.89999389648438,-35.19,176.38,3.22,null
SMAR,2023-05-09 16:58:23.185,46.0898033,11.1155983,244.89999389648438,-35.34,176.35,3.25,null
STON,2023-05-09 16:58:23.185,46.08981030333333,11.1156207,197.96,-34.277565,-11.183954,-4.244731,2
STON,2023-05-09 16:58:23.185,46.08981030333333,11.1156207,197.96,-35.014481,-10.474911,-4.648764,2
SMAR,2023-05-09 16:58:23.219,46.0898033,11.1155983,244.89999389648438,-35.49,176.37,3.24,null
SMAR,2023-05-09 16:58:23.25,46.0898033,11.1155983,244.89999389648438,-35.63,176.28,3.31,null
SMAR,2023-05-09 16:58:23.287,46.0898033,11.1155983,244.89999389648438,-35.76,176.12,3.42,null
SMAR,2023-05-09 16:58:23.317,46.0898033,11.1155983,244.89999389648438,-35.88,175.96,3.55,null
SMAR,2023-05-09 16:58:23.353,46.0898033,11.1155983,244.89999389648438,-36.01,175.87,3.64,null
SMAR,2023-05-09 16:58:23.383,46.0898033,11.1155983,244.89999389648438,-36.16,175.88,3.65,null
SMAR,2023-05-09 16:58:23.417,46.0898033,11.1155983,244.89999389648438,-36.29,175.91,3.67,null
STON,2023-05-09 16:58:23.417,46.089810485,11.115620651666667,197.945,-35.014481,-10.474911,-4.648764,2
SMAR,2023-05-09 16:58:23.456,46.0898033,11.1155983,244.89999389648438,-36.41,175.94,3.69,null
STON,2023-05-09 16:58:23.456,46.089810485,11.115620651666667,197.945,-35.819057,-9.657341,-5.193151,2
SMAR,2023-05-09 16:58:23.493,46.0898033,11.1155983,244.89999389648438,-36.55,176.04,3.64,null
SMAR,2023-05-09 16:58:23.515,46.0898033,11.1155983,244.89999389648438,-36.7,176.17,3.61,null
SMAR,2023-05-09 16:58:23.548,46.0898033,11.1155983,244.89999389648438,-36.84,176.23,3.61,null
STON,2023-05-09 16:58:23.548,46.089810675,11.115620508333333,197.931,-35.819057,-9.657341,-5.193151,2
SMAR,2023-05-09 16:58:23.582,46.0898033,11.1155983,244.89999389648438,-36.98,176.21,3.69,null
SMAR,2023-05-09 16:58:23.613,46.0898033,11.1155983,244.89999389648438,-37.09,176.14,3.82,null
SMAR,2023-05-09 16:58:23.649,46.0898033,11.1155983,244.89999389648438,-37.2,176.09,3.92,null
SMAR,2023-05-09 16:58:23.68,46.0898033,11.1155983,244.89999389648438,-37.3,176.06,4.01,null
SMAR,2023-05-09 16:58:23.715,46.0898033,11.1155983,244.89999389648438,-37.39,176.03,4.1,null
SMAR,2023-05-09 16:58:23.748,46.0898033,11.1155983,244.89999389648438,-37.48,175.99,4.2,null
STON,2023-05-09 16:58:23.748,46.089810675,11.115620508333333,197.931,-36.620972,-9.857059,-5.323585,2
STON,2023-05-09 16:58:23.748,46.08981085333333,11.115620308333334,197.914,-36.620972,-9.857059,-5.323585,2
SMAR,2023-05-09 16:58:23.779,46.0898033,11.1155983,244.89999389648438,-37.55,176.0,4.28,null
SMAR,2023-05-09 16:58:23.831,46.0898033,11.1155983,244.89999389648438,-37.64,176.06,4.32,null
STON,2023-05-09 16:58:23.831,46.08981085333333,11.115620308333334,197.914,-37.174175,-9.216378,-6.060182,2
SMAR,2023-05-09 16:58:23.847,46.0898033,11.1155983,244.89999389648438,-37.69,176.12,4.35,null
SMAR,2023-05-09 16:58:23.895,46.0898033,11.1155983,244.89999389648438,-37.71,176.11,4.42,null
SMAR,2023-05-09 16:58:23.928,46.0898033,11.1155983,244.89999389648438,-37.7,176.12,4.49,null
SMAR,2023-05-09 16:58:23.962,46.0898033,11.1155983,244.89999389648438,-37.64,176.17,4.51,null
SMAR,2023-05-09 16:58:23.995,46.0898033,11.1155983,244.89999389648438,-37.55,176.25,4.48,null
SMAR,2023-05-09 16:58:24.03,46.0898033,11.1155983,244.89999389648438,-37.45,176.43,4.39,null
SMAR,2023-05-09 16:58:24.062,46.0898033,11.1155983,244.89999389648438,-37.32,176.53,4.36,null
STON,2023-05-09 16:58:24.062,46.089810828333334,11.115620193333333,197.917,-37.174175,-9.216378,-6.060182,2
SMAR,2023-05-09 16:58:24.096,46.0898033,11.1155983,244.89999389648438,-37.14,176.62,4.32,null
STON,2023-05-09 16:58:24.096,46.089810828333334,11.115620193333333,197.917,-37.108673,-9.421424,-6.244694,2
SMAR,2023-05-09 16:58:24.126,46.0898033,11.1155983,244.89999389648438,-36.96,176.8,4.22,null
STON,2023-05-09 16:58:24.126,46.08981055666667,11.115620223333334,197.935,-37.108673,-9.421424,-6.244694,2
SMAR,2023-05-09 16:58:24.164,46.0898033,11.1155983,244.89999389648438,-36.76,176.93,4.12,null
SMAR,2023-05-09 16:58:24.196,46.0898033,11.1155983,244.89999389648438,-36.52,177.03,4.06,null
SMAR,2023-05-09 16:58:24.226,46.0898033,11.1155983,244.89999389648438,-36.28,176.95,4.11,null
SMAR,2023-05-09 16:58:24.259,46.0898033,11.1155983,244.89999389648438,-35.98,176.76,4.22,null
SMAR,2023-05-09 16:58:24.294,46.0898033,11.1155983,244.89999389648438,-35.69,176.53,4.32,null
SMAR,2023-05-09 16:58:24.327,46.0898033,11.1155983,244.89999389648438,-35.38,176.16,4.52,null
STON,2023-05-09 16:58:24.327,46.08981055666667,11.115620223333334,197.935,-36.090466,-10.589412,-5.676052,2
STON,2023-05-09 16:58:24.327,46.08981017666667,11.115620405,197.965,-36.090466,-10.589412,-5.676052,2
SMAR,2023-05-09 16:58:24.361,46.0898033,11.1155983,244.89999389648438,-35.09,175.85,4.68,null
SMAR,2023-05-09 16:58:24.391,46.0898033,11.1155983,244.89999389648438,-34.78,175.6,4.77,null
SMAR,2023-05-09 16:58:24.426,46.0898033,11.1155983,244.89999389648438,-34.39,175.45,4.77,null
SMAR,2023-05-09 16:58:24.457,46.0898033,11.1155983,244.89999389648438,-34.07,175.55,4.59,null
STON,2023-05-09 16:58:24.457,46.08981017666667,11.115620405,197.965,-34.284607,-8.778222,-6.415027,2
SMAR,2023-05-09 16:58:24.494,46.0898033,11.1155983,244.89999389648438,-33.81,175.96,4.25,null
SMAR,2023-05-09 16:58:24.525,46.0898033,11.1155983,244.89999389648438,-33.5,176.32,3.9,null
SMAR,2023-05-09 16:58:24.558,46.0898033,11.1155983,244.89999389648438,-33.16,176.39,3.73,null
SMAR,2023-05-09 16:58:24.59,46.0898033,11.1155983,244.89999389648438,-32.76,176.15,3.77,null
SMAR,2023-05-09 16:58:24.625,46.0898033,11.1155983,244.89999389648438,-32.33,175.77,3.87,null
STON,2023-05-09 16:58:24.625,46.089809671666664,11.11562075,198.02,-34.284607,-8.778222,-6.415027,2
STON,2023-05-09 16:58:24.625,46.089809671666664,11.11562075,198.02,-32.324127,-10.158432,-5.105585,2
SMAR,2023-05-09 16:58:24.657,46.0898033,11.1155983,244.89999389648438,-31.95,175.59,3.87,null
SMAR,2023-05-09 16:58:24.691,46.0898033,11.1155983,244.89999389648438,-31.58,175.63,3.69,null
SMAR,2023-05-09 16:58:24.723,46.0898033,11.1155983,244.89999389648438,-31.18,175.82,3.44,null
SMAR,2023-05-09 16:58:24.755,46.0898033,11.1155983,244.89999389648438,-30.8,176.04,3.18,null
SMAR,2023-05-09 16:58:24.791,46.0898033,11.1155983,244.89999389648438,-30.41,176.23,2.93,null
SMAR,2023-05-09 16:58:24.823,46.0898033,11.1155983,244.89999389648438,-29.98,176.22,2.81,null
SMAR,2023-05-09 16:58:24.855,46.0898033,11.1155983,244.89999389648438,-29.54,176.02,2.8,null
SMAR,2023-05-09 16:58:24.889,46.0898033,11.1155983,244.89999389648438,-29.11,175.89,2.76,null
SMAR,2023-05-09 16:58:24.923,46.0898033,11.1155983,244.89999389648438,-28.67,175.83,2.68,null
SMAR,2023-05-09 16:58:24.957,46.0898033,11.1155983,244.89999389648438,-28.23,175.86,2.58,null
SMAR,2023-05-09 16:58:24.988,46.0898033,11.1155983,244.89999389648438,-27.79,175.88,2.48,null
SMAR,2023-05-09 16:58:25.021,46.0898033,11.1155983,244.89999389648438,-27.32,175.81,2.43,null
SMAR,2023-05-09 16:58:25.054,46.0898033,11.1155983,244.89999389648438,-26.84,175.73,2.38,null
SMAR,2023-05-09 16:58:25.087,46.0898033,11.1155983,244.89999389648438,-26.4,175.74,2.28,null
STON,2023-05-09 16:58:25.087,46.08980913333333,11.115621213333334,198.053,-32.324127,-10.158432,-5.105585,2
STON,2023-05-09 16:58:25.087,46.08980913333333,11.115621213333334,198.053,-30.009106,-11.095654,-3.961763,2
STON,2023-05-09 16:58:25.087,46.089808571666666,11.115621643333334,198.096,-30.009106,-11.095654,-3.961763,2
SMAR,2023-05-09 16:58:25.119,46.0898033,11.1155983,244.89999389648438,-25.93,175.84,2.16,null
STON,2023-05-09 16:58:25.119,46.089808571666666,11.115621643333334,198.096,-27.389721,-11.156896,-3.399982,2
SMAR,2023-05-09 16:58:25.154,46.0898033,11.1155983,244.89999389648438,-25.47,176.03,1.99,null
SMAR,2023-05-09 16:58:25.186,46.0898033,11.1155983,244.89999389648438,-25.03,176.21,1.83,null
STON,2023-05-09 16:58:25.186,46.089807863333334,11.115622021666667,198.147,-27.389721,-11.156896,-3.399982,2
SMAR,2023-05-09 16:58:25.221,46.0898033,11.1155983,244.89999389648438,-24.55,176.32,1.71,null
SMAR,2023-05-09 16:58:25.253,46.0898033,11.1155983,244.89999389648438,-24.09,176.37,1.6,null
STON,2023-05-09 16:58:25.253,46.089807863333334,11.115622021666667,198.147,-24.641573,-11.969224,-2.619016,2
SMAR,2023-05-09 16:58:25.286,46.0898033,11.1155983,244.89999389648438,-23.64,176.39,1.52,null
SMAR,2023-05-09 16:58:25.318,46.0898033,11.1155983,244.89999389648438,-23.16,176.33,1.48,null
SMAR,2023-05-09 16:58:25.351,46.0898033,11.1155983,244.89999389648438,-22.68,176.31,1.41,null
STON,2023-05-09 16:58:25.351,46.089807195,11.11562248,198.189,-24.641573,-11.969224,-2.619016,2
SMAR,2023-05-09 16:58:25.386,46.0898033,11.1155983,244.89999389648438,-22.23,176.33,1.3,null
SMAR,2023-05-09 16:58:25.417,46.0898033,11.1155983,244.89999389648438,-21.72,176.36,1.2,null
STON,2023-05-09 16:58:25.417,46.089807195,11.11562248,198.189,-21.828737,-12.435588,-2.007456,2
SMAR,2023-05-09 16:58:25.452,46.0898033,11.1155983,244.89999389648438,-21.23,176.34,1.11,null
SMAR,2023-05-09 16:58:25.484,46.0898033,11.1155983,244.89999389648438,-20.74,176.31,1.03,null
SMAR,2023-05-09 16:58:25.517,46.0898033,11.1155983,244.89999389648438,-20.24,176.36,0.92,null
SMAR,2023-05-09 16:58:25.551,46.0898033,11.1155983,244.89999389648438,-19.76,176.5,0.78,null
SMAR,2023-05-09 16:58:25.583,46.0898033,11.1155983,244.89999389648438,-19.29,176.65,0.65,null
STON,2023-05-09 16:58:25.583,46.089806445,11.11562296,198.206,-21.828737,-12.435588,-2.007456,2
SMAR,2023-05-09 16:58:25.617,46.0898033,11.1155983,244.89999389648438,-18.82,176.76,0.53,null
SMAR,2023-05-09 16:58:25.649,46.0898033,11.1155983,244.89999389648438,-18.36,176.73,0.46,null
STON,2023-05-09 16:58:25.649,46.089806445,11.11562296,198.206,-18.889074,-13.114471,-1.286159,2
SMAR,2023-05-09 16:58:25.682,46.0898033,11.1155983,244.89999389648438,-17.91,176.49,0.45,null
SMAR,2023-05-09 16:58:25.717,46.0898033,11.1155983,244.89999389648438,-17.46,176.26,0.46,null
SMAR,2023-05-09 16:58:25.748,46.0898033,11.1155983,244.89999389648438,-17.04,176.14,0.43,null
STON,2023-05-09 16:58:25.748,46.089805765,11.115623323333333,198.236,-18.889074,-13.114471,-1.286159,2
SMAR,2023-05-09 16:58:25.782,46.0898033,11.1155983,244.89999389648438,-16.63,176.17,0.38,null
SMAR,2023-05-09 16:58:25.816,46.0898033,11.1155983,244.89999389648438,-16.24,176.3,0.3,null
SMAR,2023-05-09 16:58:25.847,46.0898033,11.1155983,244.89999389648438,-15.9,176.43,0.24,null
STON,2023-05-09 16:58:25.847,46.089805765,11.115623323333333,198.236,-16.219788,-12.752253,-1.015157,2
SMAR,2023-05-09 16:58:25.882,46.0898033,11.1155983,244.89999389648438,-15.55,176.54,0.2,null
SMAR,2023-05-09 16:58:25.914,46.0898033,11.1155983,244.89999389648438,-15.22,176.62,0.16,null
SMAR,2023-05-09 16:58:25.949,46.0898033,11.1155983,244.89999389648438,-14.91,176.66,0.13,null
SMAR,2023-05-09 16:58:25.983,46.0898033,11.1155983,244.89999389648438,-14.61,176.74,0.09,null
SMAR,2023-05-09 16:58:26.02,46.0898033,11.1155983,244.89999389648438,-14.33,176.87,0.04,null
SMAR,2023-05-09 16:58:26.049,46.0898344,11.1156268,244.89999389648438,-14.05,176.99,-0.01,null
SMAR,2023-05-09 16:58:26.086,46.0898344,11.1156268,244.89999389648438,-13.77,177.07,-0.05,null
STON,2023-05-09 16:58:26.086,46.089805225,11.115623528333334,198.255,-16.219788,-12.752253,-1.015157,2
STON,2023-05-09 16:58:26.086,46.089805225,11.115623528333334,198.255,-14.221003,-13.420398,-0.722324,2
SMAR,2023-05-09 16:58:26.125,46.0898344,11.1156268,244.89999389648438,-13.48,177.13,-0.1,null
SMAR,2023-05-09 16:58:26.162,46.0898344,11.1156268,244.89999389648438,-13.19,177.19,-0.13,null
STON,2023-05-09 16:58:26.162,46.08980472,11.11562374,198.26,-14.221003,-13.420398,-0.722324,2
SMAR,2023-05-09 16:58:26.196,46.0898344,11.1156268,244.89999389648438,-12.92,177.3,-0.18,null
SMAR,2023-05-09 16:58:26.216,46.0898344,11.1156268,244.89999389648438,-12.64,177.41,-0.22,null
STON,2023-05-09 16:58:26.216,46.08980472,11.11562374,198.26,-12.518441,-14.054912,-0.435368,2
SMAR,2023-05-09 16:58:26.262,46.0898344,11.1156268,244.89999389648438,-12.37,177.51,-0.25,null
SMAR,2023-05-09 16:58:26.294,46.0898344,11.1156268,244.89999389648438,-12.09,177.6,-0.3,null
SMAR,2023-05-09 16:58:26.328,46.0898344,11.1156268,244.89999389648438,-11.82,177.63,-0.32,null
SMAR,2023-05-09 16:58:26.361,46.0898344,11.1156268,244.89999389648438,-11.57,177.64,-0.36,null
STON,2023-05-09 16:58:26.361,46.08980432333333,11.115623961666667,198.281,-12.518441,-14.054912,-0.435368,2
SMAR,2023-05-09 16:58:26.393,46.0898344,11.1156268,244.89999389648438,-11.33,177.66,-0.38,null
SMAR,2023-05-09 16:58:26.429,46.0898344,11.1156268,244.89999389648438,-11.1,177.59,-0.38,null
SMAR,2023-05-09 16:58:26.461,46.0898344,11.1156268,244.89999389648438,-10.87,177.45,-0.37,null
SMAR,2023-05-09 16:58:26.493,46.0898344,11.1156268,244.89999389648438,-10.67,177.35,-0.35,null
SMAR,2023-05-09 16:58:26.527,46.0898344,11.1156268,244.89999389648438,-10.48,177.31,-0.34,null
STON,2023-05-09 16:58:26.527,46.08980432333333,11.115623961666667,198.281,-10.918532,-14.483187,-0.237061,2
SMAR,2023-05-09 16:58:26.546,46.0898344,11.1156268,244.89999389648438,-10.31,177.37,-0.35,null
STON,2023-05-09 16:58:26.546,46.089803975,11.115624096666666,198.249,-10.918532,-14.483187,-0.237061,2
SMAR,2023-05-09 16:58:26.592,46.0898344,11.1156268,244.89999389648438,-10.16,177.5,-0.37,null
SMAR,2023-05-09 16:58:26.626,46.0898344,11.1156268,244.89999389648438,-10.01,177.56,-0.39,null
SMAR,2023-05-09 16:58:26.66,46.0898344,11.1156268,244.89999389648438,-9.86,177.51,-0.38,null
SMAR,2023-05-09 16:58:26.694,46.0898344,11.1156268,244.89999389648438,-9.73,177.34,-0.36,null
SMAR,2023-05-09 16:58:26.726,46.0898344,11.1156268,244.89999389648438,-9.59,177.12,-0.33,null
SMAR,2023-05-09 16:58:26.759,46.0898344,11.1156268,244.89999389648438,-9.46,176.97,-0.3,null
SMAR,2023-05-09 16:58:26.782,46.0898344,11.1156268,244.89999389648438,-9.34,176.91,-0.29,null
STON,2023-05-09 16:58:26.782,46.089803741666664,11.115624178333332,198.251,-10.918532,-14.483187,-0.237061,2
SMAR,2023-05-09 16:58:26.825,46.0898344,11.1156268,244.89999389648438,-9.2,176.92,-0.29,null
SMAR,2023-05-09 16:58:26.867,46.0898344,11.1156268,244.89999389648438,-9.07,177.03,-0.31,null
STON,2023-05-09 16:58:26.867,46.089803741666664,11.115624178333332,198.251,-8.93451,-13.769138,-0.334634,2
SMAR,2023-05-09 16:58:26.887,46.0898344,11.1156268,244.89999389648438,-8.94,177.15,-0.33,null
SMAR,2023-05-09 16:58:26.936,46.0898344,11.1156268,244.89999389648438,-8.8,177.22,-0.34,null
SMAR,2023-05-09 16:58:26.97,46.0898344,11.1156268,244.89999389648438,-8.66,177.31,-0.36,null
SMAR,2023-05-09 16:58:27.004,46.0898344,11.1156268,244.89999389648438,-8.5,177.37,-0.37,null
SMAR,2023-05-09 16:58:27.022,46.0898459,11.115641,244.89999389648438,-8.32,177.36,-0.38,null
SMAR,2023-05-09 16:58:27.061,46.0898459,11.115641,244.89999389648438,-8.15,177.42,-0.39,null
STON,2023-05-09 16:58:27.061,46.089803528333334,11.115624278333334,198.257,-8.93451,-13.769138,-0.334634,2
SMAR,2023-05-09 16:58:27.092,46.0898459,11.115641,244.89999389648438,-7.99,177.52,-0.4,null
SMAR,2023-05-09 16:58:27.123,46.0898459,11.115641,244.89999389648438,-7.81,177.55,-0.41,null
STON,2023-05-09 16:58:27.123,46.089803528333334,11.115624278333334,198.257,-8.11186,-14.225713,-0.257981,2
SMAR,2023-05-09 16:58:27.149,46.0898459,11.115641,244.89999389648438,-7.62,177.54,-0.42,null
STON,2023-05-09 16:58:27.149,46.08980322,11.115624395,198.265,-8.11186,-14.225713,-0.257981,2
SMAR,2023-05-09 16:58:27.193,46.0898459,11.115641,244.89999389648438,-7.46,177.56,-0.42,null
SMAR,2023-05-09 16:58:27.223,46.0898459,11.115641,244.89999389648438,-7.28,177.56,-0.43,null
SMAR,2023-05-09 16:58:27.256,46.0898459,11.115641,244.89999389648438,-7.1,177.55,-0.44,null
STON,2023-05-09 16:58:27.256,46.08980322,11.115624395,198.265,-7.058475,-14.426185,-0.195411,2
SMAR,2023-05-09 16:58:27.287,46.0898459,11.115641,244.89999389648438,-6.9,177.58,-0.46,null
SMAR,2023-05-09 16:58:27.322,46.0898459,11.115641,244.89999389648438,-6.72,177.63,-0.47,null
SMAR,2023-05-09 16:58:27.356,46.0898459,11.115641,244.89999389648438,-6.54,177.65,-0.48,null
STON,2023-05-09 16:58:27.356,46.08980292166667,11.115624536666667,198.272,-7.058475,-14.426185,-0.195411,2
SMAR,2023-05-09 16:58:27.409,46.0898459,11.115641,244.89999389648438,-6.36,177.67,-0.49,null
SMAR,2023-05-09 16:58:27.419,46.0898459,11.115641,244.89999389648438,-6.19,177.7,-0.5,null
SMAR,2023-05-09 16:58:27.463,46.0898459,11.115641,244.89999389648438,-6.02,177.76,-0.5,null
SMAR,2023-05-09 16:58:27.491,46.0898459,11.115641,244.89999389648438,-5.86,177.85,-0.51,null
SMAR,2023-05-09 16:58:27.52,46.0898459,11.115641,244.89999389648438,-5.7,177.92,-0.5,null
STON,2023-05-09 16:58:27.52,46.08980292166667,11.115624536666667,198.272,-5.970624,-14.524339,-0.128881,2
SMAR,2023-05-09 16:58:27.552,46.0898459,11.115641,244.89999389648438,-5.53,177.95,-0.49,null
SMAR,2023-05-09 16:58:27.585,46.0898459,11.115641,244.89999389648438,-5.37,177.97,-0.47,null
SMAR,2023-05-09 16:58:27.62,46.0898459,11.115641,244.89999389648438,-5.22,178.01,-0.45,null
SMAR,2023-05-09 16:58:27.65,46.0898459,11.115641,244.89999389648438,-5.09,178.03,-0.44,null
SMAR,2023-05-09 16:58:27.684,46.0898459,11.115641,244.89999389648438,-4.96,178.02,-0.42,null
SMAR,2023-05-09 16:58:27.717,46.0898459,11.115641,244.89999389648438,-4.85,177.97,-0.41,null
SMAR,2023-05-09 16:58:27.751,46.0898459,11.115641,244.89999389648438,-4.75,177.9,-0.39,null
STON,2023-05-09 16:58:27.751,46.089802641666665,11.115624618333333,198.279,-5.970624,-14.524339,-0.128881,2
STON,2023-05-09 16:58:27.751,46.089802641666665,11.115624618333333,198.279,-4.975738,-14.788687,-0.16612,2
STON,2023-05-09 16:58:27.751,46.08980245833333,11.115624693333332,198.283,-4.975738,-14.788687,-0.16612,2
SMAR,2023-05-09 16:58:27.782,46.0898459,11.115641,244.89999389648438,-4.65,177.8,-0.38,null
SMAR,2023-05-09 16:58:27.816,46.0898459,11.115641,244.89999389648438,-4.57,177.73,-0.37,null
STON,2023-05-09 16:58:27.816,46.08980245833333,11.115624693333332,198.283,-4.271193,-14.570471,-0.253732,2
SMAR,2023-05-09 16:58:27.851,46.0898459,11.115641,244.89999389648438,-4.49,177.71,-0.38,null
SMAR,2023-05-09 16:58:27.888,46.0898459,11.115641,244.89999389648438,-4.41,177.69,-0.42,null
SMAR,2023-05-09 16:58:27.921,46.0898459,11.115641,244.89999389648438,-4.34,177.68,-0.43,null
SMAR,2023-05-09 16:58:27.952,46.0898459,11.115641,244.89999389648438,-4.28,177.68,-0.44,null
SMAR,2023-05-09 16:58:27.991,46.0898459,11.115641,244.89999389648438,-4.2,177.62,-0.46,null
SMAR,2023-05-09 16:58:28.015,46.0898509,11.1156459,244.89999389648438,-4.13,177.49,-0.46,null
SMAR,2023-05-09 16:58:28.055,46.0898509,11.1156459,244.89999389648438,-4.07,177.41,-0.47,null
SMAR,2023-05-09 16:58:28.086,46.0898509,11.1156459,244.89999389648438,-4.01,177.43,-0.49,null
STON,2023-05-09 16:58:28.086,46.08980245833333,11.115624693333332,198.283,-3.812497,-14.360021,-0.187277,2
STON,2023-05-09 16:58:28.086,46.089802345,11.115624758333333,198.287,-3.812497,-14.360021,-0.187277,2
SMAR,2023-05-09 16:58:28.127,46.0898509,11.1156459,244.89999389648438,-3.94,177.54,-0.52,null
SMAR,2023-05-09 16:58:28.168,46.0898509,11.1156459,244.89999389648438,-3.88,177.69,-0.54,null
STON,2023-05-09 16:58:28.168,46.08980225,11.115624835,198.289,-3.812497,-14.360021,-0.187277,2
SMAR,2023-05-09 16:58:28.187,46.0898509,11.1156459,244.89999389648438,-3.82,177.84,-0.54,null
SMAR,2023-05-09 16:58:28.236,46.0898509,11.1156459,244.89999389648438,-3.76,177.88,-0.55,null
